%time,field.header.seq,field.header.stamp,field.header.frame_id,field.status.status,field.status.service,field.latitude,field.longitude,field.altitude,field.position_covariance0,field.position_covariance1,field.position_covariance2,field.position_covariance3,field.position_covariance4,field.position_covariance5,field.position_covariance6,field.position_covariance7,field.position_covariance8,field.position_covariance_type
1668538193095135987,348373,1668538193177315674,gps,2,1,42.3014207391,-83.6987254228,272.37121582,0.000121,0.0,0.0,0.0,0.000144,0.0,0.0,0.0,0.002209,2
1668538193105278312,348374,1668538193187348064,gps,2,1,42.301420603,-83.6987253515,272.371124268,0.000121,0.0,0.0,0.0,0.000144,0.0,0.0,0.0,0.002209,2
1668538193115086987,348375,1668538193197297668,gps,2,1,42.3014204629,-83.6987252798,272.371063232,0.000121,0.0,0.0,0.0,0.000144,0.0,0.0,0.0,0.002209,2
1668538193125205211,348376,1668538193207303436,gps,2,1,42.3014203206,-83.6987252064,272.37097168,0.000121,0.0,0.0,0.0,0.000144,0.0,0.0,0.0,0.002209,2
1668538193135024296,348377,1668538193217361451,gps,2,1,42.3014201809,-83.6987251342,272.370880127,0.000121,0.0,0.0,0.0,0.000144,0.0,0.0,0.0,0.002209,2
1668538193145065694,348378,1668538193227293323,gps,2,1,42.3014200377,-83.698725061,272.370819092,0.000121,0.0,0.0,0.0,0.000144,0.0,0.0,0.0,0.002209,2
1668538193155542411,348379,1668538193237466950,gps,2,1,42.3014198922,-83.6987249867,272.370727539,0.000121,0.0,0.0,0.0,0.000144,0.0,0.0,0.0,0.002209,2
1668538193164911606,348380,1668538193247309515,gps,2,1,42.3014197494,-83.6987249131,272.370635986,0.000121,0.0,0.0,0.0,0.000144,0.0,0.0,0.0,0.002209,2
1668538193175352350,348381,1668538193257317261,gps,2,1,42.3014196029,-83.6987248388,272.370574951,0.000121,0.0,0.0,0.0,0.000144,0.0,0.0,0.0,0.002209,2
1668538193185414250,348382,1668538193267305063,gps,2,1,42.3014194539,-83.6987247622,272.370452881,0.000121,0.0,0.0,0.0,0.000144,0.0,0.0,0.0,0.002209,2
1668538193195479419,348383,1668538193277377917,gps,2,1,42.301419308,-83.6987246876,272.370361328,0.000121,0.0,0.0,0.0,0.000144,0.0,0.0,0.0,0.002209,2
1668538193205556349,348384,1668538193287299920,gps,2,1,42.3014191581,-83.6987246118,272.370300293,0.000121,0.0,0.0,0.0,0.000144,0.0,0.0,0.0,0.002209,2
1668538193215180029,348385,1668538193297307631,gps,2,1,42.3014190062,-83.6987245349,272.370178223,0.000121,0.0,0.0,0.0,0.000144,0.0,0.0,0.0,0.002209,2
1668538193225514881,348386,1668538193307447842,gps,2,1,42.3014188565,-83.6987244589,272.37008667,0.000121,0.0,0.0,0.0,0.000144,0.0,0.0,0.0,0.002209,2
1668538193235284870,348387,1668538193317339892,gps,2,1,42.3014187037,-83.698724382,272.369995117,0.000121,0.0,0.0,0.0,0.000144,0.0,0.0,0.0,0.002209,2
1668538193245220794,348388,1668538193327302520,gps,2,1,42.3014185484,-83.6987243045,272.369873047,0.000121,0.0,0.0,0.0,0.000144,0.0,0.0,0.0,0.002209,2
1668538193255256781,348389,1668538193337374849,gps,2,1,42.3014183956,-83.6987242267,272.369720459,0.000121,0.0,0.0,0.0,0.000144,0.0,0.0,0.0,0.002209,2
1668538193265173102,348390,1668538193347299585,gps,2,1,42.3014182395,-83.6987241491,272.369659424,0.000121,0.0,0.0,0.0,0.000144,0.0,0.0,0.0,0.002209,2
1668538193275240991,348391,1668538193357300060,gps,2,1,42.301418081,-83.6987240697,272.369506836,0.000121,0.0,0.0,0.0,0.000144,0.0,0.0,0.0,0.002209,2
1668538193285168271,348392,1668538193367377632,gps,2,1,42.3014179253,-83.6987239913,272.369384766,0.000121,0.0,0.0,0.0,0.000144,0.0,0.0,0.0,0.002209,2
1668538193295093124,348393,1668538193377303233,gps,2,1,42.3014177665,-83.6987239129,272.369293213,0.000121,0.0,0.0,0.0,0.000144,0.0,0.0,0.0,0.002209,2
1668538193305411192,348394,1668538193387373228,gps,2,1,42.3014176051,-83.6987238331,272.36920166,0.000121,0.0,0.0,0.0,0.000144,0.0,0.0,0.0,0.002209,2
1668538193315297649,348395,1668538193397306627,gps,2,1,42.3014174463,-83.6987237539,272.36907959,0.000121,0.0,0.0,0.0,0.000144,0.0,0.0,0.0,0.002209,2
1668538193325319501,348396,1668538193407357145,gps,2,1,42.3014172845,-83.6987236745,272.368988037,0.000121,0.0,0.0,0.0,0.000144,0.0,0.0,0.0,0.002209,2
1668538193335192865,348397,1668538193417417504,gps,2,1,42.3014171204,-83.6987235935,272.368865967,0.000121,0.0,0.0,0.0,0.000144,0.0,0.0,0.0,0.002209,2
1668538193345372259,348398,1668538193427376540,gps,2,1,42.3014169584,-83.698723513,272.368743896,0.000121,0.0,0.0,0.0,0.000144,0.0,0.0,0.0,0.002209,2
1668538193355128160,348399,1668538193437310265,gps,2,1,42.3014167939,-83.6987234326,272.368652344,0.000121,0.0,0.0,0.0,0.000144,0.0,0.0,0.0,0.002209,2
1668538193365207680,348400,1668538193447306490,gps,2,1,42.3014166269,-83.6987233498,272.368469238,0.000121,0.0,0.0,0.0,0.000144,0.0,0.0,0.0,0.002209,2
1668538193375179441,348401,1668538193457368379,gps,2,1,42.3014164622,-83.698723269,272.368377686,0.000121,0.0,0.0,0.0,0.000144,0.0,0.0,0.0,0.002209,2
1668538193385420567,348402,1668538193467297599,gps,2,1,42.3014162949,-83.6987231869,272.368225098,0.000121,0.0,0.0,0.0,0.000144,0.0,0.0,0.0,0.002209,2
1668538193395250272,348403,1668538193477304728,gps,2,1,42.3014161249,-83.698723104,272.368103027,0.000121,0.0,0.0,0.0,0.000144,0.0,0.0,0.0,0.002209,2
1668538193405099771,348404,1668538193487461547,gps,2,1,42.3014159576,-83.6987230214,272.367950439,0.000121,0.0,0.0,0.0,0.000144,0.0,0.0,0.0,0.002209,2
1668538193415359479,348405,1668538193497356945,gps,2,1,42.3014157873,-83.6987229385,272.367828369,0.000121,0.0,0.0,0.0,0.000144,0.0,0.0,0.0,0.002209,2
1668538193425013184,348406,1668538193507325273,gps,2,1,42.3014156144,-83.6987228536,272.367614746,0.000121,0.0,0.0,0.0,0.000144,0.0,0.0,0.0,0.002209,2
1668538193435380105,348407,1668538193517396799,gps,2,1,42.3014154443,-83.6987227697,272.367492676,0.000121,0.0,0.0,0.0,0.000144,0.0,0.0,0.0,0.002209,2
1668538193445475134,348408,1668538193527389515,gps,2,1,42.3014152712,-83.6987226856,272.367340088,0.000121,0.0,0.0,0.0,0.000144,0.0,0.0,0.0,0.002209,2
1668538193455085041,348409,1668538193537307422,gps,2,1,42.3014150958,-83.6987225997,272.367218018,0.000121,0.0,0.0,0.0,0.000144,0.0,0.0,0.0,0.002209,2
1668538193465578955,348410,1668538193547432688,gps,2,1,42.3014149226,-83.6987225153,272.367034912,0.000121,0.0,0.0,0.0,0.000144,0.0,0.0,0.0,0.002209,2
1668538193475176903,348411,1668538193557381160,gps,2,1,42.3014147506,-83.6987224327,272.367034912,0.000121,0.0,0.0,0.0,0.000144,0.0,0.0,0.0,0.002209,2
1668538193485399898,348412,1668538193567322367,gps,2,1,42.3014145721,-83.6987223468,272.366912842,0.000121,0.0,0.0,0.0,0.000144,0.0,0.0,0.0,0.002209,2
1668538193495266902,348413,1668538193577373581,gps,2,1,42.3014143961,-83.6987222608,272.366729736,0.000121,0.0,0.0,0.0,0.000144,0.0,0.0,0.0,0.002209,2
1668538193505235492,348414,1668538193587303823,gps,2,1,42.301414221,-83.6987221778,272.366729736,0.000121,0.0,0.0,0.0,0.000144,0.0,0.0,0.0,0.002209,2
1668538193515196351,348415,1668538193597321477,gps,2,1,42.3014140396,-83.6987220906,272.366546631,0.000121,0.0,0.0,0.0,0.000144,0.0,0.0,0.0,0.002209,2
1668538193525174243,348416,1668538193607362062,gps,2,1,42.3014138607,-83.6987220044,272.366424561,0.000121,0.0,0.0,0.0,0.000144,0.0,0.0,0.0,0.002209,2
1668538193535113060,348417,1668538193617286822,gps,2,1,42.3014136827,-83.6987219207,272.366394043,0.000121,0.0,0.0,0.0,0.000144,0.0,0.0,0.0,0.002209,2
1668538193545396430,348418,1668538193627292019,gps,2,1,42.3014134987,-83.6987218344,272.366271973,0.000121,0.0,0.0,0.0,0.000144,0.0,0.0,0.0,0.002209,2
1668538193555254972,348419,1668538193637416619,gps,2,1,42.3014133168,-83.6987217476,272.366119385,0.000121,0.0,0.0,0.0,0.000144,0.0,0.0,0.0,0.002209,2
1668538193565298788,348420,1668538193647312547,gps,2,1,42.3014131348,-83.6987216639,272.366088867,0.000121,0.0,0.0,0.0,0.000144,0.0,0.0,0.0,0.002209,2
1668538193575119388,348421,1668538193657302620,gps,2,1,42.3014129477,-83.6987215765,272.365905762,0.000121,0.0,0.0,0.0,0.000144,0.0,0.0,0.0,0.002209,2
1668538193585420848,348422,1668538193667452804,gps,2,1,42.3014127633,-83.6987214895,272.365753174,0.000121,0.0,0.0,0.0,0.000144,0.0,0.0,0.0,0.002209,2
1668538193595458156,348423,1668538193677305536,gps,2,1,42.3014125782,-83.6987214052,272.365661621,0.000121,0.0,0.0,0.0,0.000144,0.0,0.0,0.0,0.002209,2
1668538193605449092,348424,1668538193687303105,gps,2,1,42.3014123885,-83.6987213172,272.365478516,0.000121,0.0,0.0,0.0,0.000144,0.0,0.0,0.0,0.002209,2
1668538193615085170,348425,1668538193697371151,gps,2,1,42.301412201,-83.6987212304,272.36529541,0.000121,0.0,0.0,0.0,0.000144,0.0,0.0,0.0,0.002209,2
1668538193625381772,348426,1668538193707307880,gps,2,1,42.3014120131,-83.6987211453,272.365142822,0.000121,0.0,0.0,0.0,0.000144,0.0,0.0,0.0,0.002209,2
1668538193635212218,348427,1668538193717315495,gps,2,1,42.3014118205,-83.6987210578,272.364898682,0.000121,0.0,0.0,0.0,0.000144,0.0,0.0,0.0,0.002209,2
1668538193645304404,348428,1668538193727368554,gps,2,1,42.3014116302,-83.6987209699,272.364685059,0.000121,0.0,0.0,0.0,0.000144,0.0,0.0,0.0,0.002209,2
1668538193655266175,348429,1668538193737380820,gps,2,1,42.3014114394,-83.6987208848,272.364501953,0.000121,0.0,0.0,0.0,0.000144,0.0,0.0,0.0,0.002209,2
1668538193665248193,348430,1668538193747351047,gps,2,1,42.3014112442,-83.698720796,272.364196777,0.000121,0.0,0.0,0.0,0.000144,0.0,0.0,0.0,0.002209,2
1668538193675515042,348431,1668538193757377335,gps,2,1,42.301411051,-83.6987207083,272.363922119,0.000121,0.0,0.0,0.0,0.000144,0.0,0.0,0.0,0.002209,2
1668538193685114969,348432,1668538193767292609,gps,2,1,42.3014108575,-83.6987206228,272.363739014,0.000121,0.0,0.0,0.0,0.000144,0.0,0.0,0.0,0.002209,2
1668538193695362337,348433,1668538193777307129,gps,2,1,42.3014106596,-83.6987205348,272.363433838,0.000121,0.0,0.0,0.0,0.000144,0.0,0.0,0.0,0.002209,2
1668538193705113332,348434,1668538193787351990,gps,2,1,42.3014104638,-83.6987204471,272.36315918,0.000121,0.0,0.0,0.0,0.000144,0.0,0.0,0.0,0.002209,2
1668538193715287561,348435,1668538193797299431,gps,2,1,42.3014102675,-83.6987203617,272.362976074,0.000121,0.0,0.0,0.0,0.000144,0.0,0.0,0.0,0.002209,2
1668538193724951976,348436,1668538193807306676,gps,2,1,42.3014100667,-83.6987202747,272.362731934,0.000121,0.0,0.0,0.0,0.000144,0.0,0.0,0.0,0.002209,2
1668538193735180723,348437,1668538193817374782,gps,2,1,42.3014098683,-83.6987201861,272.362426758,0.000121,0.0,0.0,0.0,0.000144,0.0,0.0,0.0,0.002209,2
1668538193745404950,348438,1668538193827291311,gps,2,1,42.3014096691,-83.6987201013,272.36227417,0.000121,0.0,0.0,0.0,0.000144,0.0,0.0,0.0,0.002209,2
1668538193755415434,348439,1668538193837363242,gps,2,1,42.3014094657,-83.6987200132,272.361999512,0.000121,0.0,0.0,0.0,0.000144,0.0,0.0,0.0,0.002209,2
1668538193765458891,348440,1668538193847305406,gps,2,1,42.3014092644,-83.6987199254,272.361755371,0.000121,0.0,0.0,0.0,0.000144,0.0,0.0,0.0,0.002209,2
1668538193775283614,348441,1668538193857301221,gps,2,1,42.3014090624,-83.6987198405,272.361602783,0.000121,0.0,0.0,0.0,0.000144,0.0,0.0,0.0,0.002209,2
1668538193785229236,348442,1668538193867299549,gps,2,1,42.3014088562,-83.6987197528,272.361358643,0.000121,0.0,0.0,0.0,0.000144,0.0,0.0,0.0,0.002209,2
1668538193795439677,348443,1668538193877383015,gps,2,1,42.3014086524,-83.6987196656,272.361083984,0.000121,0.0,0.0,0.0,0.000144,0.0,0.0,0.0,0.002209,2
1668538193805309774,348444,1668538193887310980,gps,2,1,42.3014084477,-83.698719581,272.360900879,0.000121,0.0,0.0,0.0,0.000144,0.0,0.0,0.0,0.002209,2
1668538193815296523,348445,1668538193897304427,gps,2,1,42.3014082389,-83.6987194934,272.360626221,0.000121,0.0,0.0,0.0,0.000144,0.0,0.0,0.0,0.002209,2
1668538193825213649,348446,1668538193907353144,gps,2,1,42.3014080324,-83.6987194056,272.360351562,0.000121,0.0,0.0,0.0,0.000144,0.0,0.0,0.0,0.002209,2
1668538193835107864,348447,1668538193917384241,gps,2,1,42.301407825,-83.6987193208,272.360137939,0.000121,0.0,0.0,0.0,0.000144,0.0,0.0,0.0,0.002209,2
1668538193845180371,348448,1668538193927297085,gps,2,1,42.3014076139,-83.6987192318,272.359832764,0.000121,0.0,0.0,0.0,0.000144,0.0,0.0,0.0,0.002209,2
1668538193855210008,348449,1668538193937350228,gps,2,1,42.3014074049,-83.6987191438,272.359527588,0.000121,0.0,0.0,0.0,0.000144,0.0,0.0,0.0,0.002209,2
1668538193865116703,348450,1668538193947305313,gps,2,1,42.301407195,-83.6987190584,272.359313965,0.000121,0.0,0.0,0.0,0.000144,0.0,0.0,0.0,0.002209,2
1668538193875116333,348451,1668538193957292539,gps,2,1,42.3014069815,-83.6987189695,272.359069824,0.000121,0.0,0.0,0.0,0.000144,0.0,0.0,0.0,0.002209,2
1668538193885472343,348452,1668538193967366339,gps,2,1,42.30140677,-83.6987188811,272.358734131,0.000121,0.0,0.0,0.0,0.000144,0.0,0.0,0.0,0.002209,2
1668538193895538424,348453,1668538193977303264,gps,2,1,42.3014065575,-83.6987187954,272.358551025,0.000121,0.0,0.0,0.0,0.000144,0.0,0.0,0.0,0.002209,2
1668538193905481247,348454,1668538193987475300,gps,2,1,42.3014063415,-83.6987187071,272.358276367,0.000121,0.0,0.0,0.0,0.000144,0.0,0.0,0.0,0.002209,2
1668538193915472024,348455,1668538193997334603,gps,2,1,42.3014061274,-83.6987186181,272.358001709,0.000121,0.0,0.0,0.0,0.000144,0.0,0.0,0.0,0.002209,2
1668538193925188336,348456,1668538194007362432,gps,2,1,42.3014059089,-83.6987185366,272.357849121,0.000121,0.0,0.0,0.0,0.000144,0.0,0.0,0.0,0.002209,2
1668538193935176491,348457,1668538194017362802,gps,2,1,42.3014056902,-83.6987184477,272.357635498,0.000121,0.0,0.0,0.0,0.000144,0.0,0.0,0.0,0.002209,2
1668538193945611041,348458,1668538194027470890,gps,2,1,42.3014054736,-83.6987183586,272.35736084,0.000121,0.0,0.0,0.0,0.000144,0.0,0.0,0.0,0.002209,2
1668538193955150904,348459,1668538194037346132,gps,2,1,42.3014052526,-83.6987182769,272.35723877,0.000121,0.0,0.0,0.0,0.000144,0.0,0.0,0.0,0.002209,2
1668538193965197170,348460,1668538194047305122,gps,2,1,42.3014050317,-83.6987181874,272.357055664,0.000121,0.0,0.0,0.0,0.000144,0.0,0.0,0.0,0.002209,2
1668538193975107677,348461,1668538194057399783,gps,2,1,42.3014048128,-83.698718099,272.356842041,0.000121,0.0,0.0,0.0,0.000144,0.0,0.0,0.0,0.002209,2
1668538193985077734,348462,1668538194067375680,gps,2,1,42.3014045897,-83.6987180167,272.356781006,0.000121,0.0,0.0,0.0,0.000144,0.0,0.0,0.0,0.002209,2
1668538193995156725,348463,1668538194077381007,gps,2,1,42.3014043665,-83.6987179276,272.356628418,0.000121,0.0,0.0,0.0,0.000144,0.0,0.0,0.0,0.002209,2
1668538194005048697,348464,1668538194087330035,gps,2,1,42.3014041451,-83.6987178391,272.356445312,0.000121,0.0,0.0,0.0,0.000144,0.0,0.0,0.0,0.002209,2
1668538194015197378,348465,1668538194097309347,gps,2,1,42.3014039195,-83.6987177563,272.356384277,0.000121,0.0,0.0,0.0,0.000144,0.0,0.0,0.0,0.002209,2
1668538194025483765,348466,1668538194107373699,gps,2,1,42.3014036939,-83.6987176673,272.356262207,0.000121,0.0,0.0,0.0,0.000144,0.0,0.0,0.0,0.002209,2
1668538194035322387,348467,1668538194117309593,gps,2,1,42.3014034701,-83.6987175778,272.356079102,0.000121,0.0,0.0,0.0,0.000144,0.0,0.0,0.0,0.002209,2
1668538194045433184,348468,1668538194127293639,gps,2,1,42.3014032426,-83.6987174942,272.355957031,0.000121,0.0,0.0,0.0,0.000144,0.0,0.0,0.0,0.002209,2
1668538194055339890,348469,1668538194137381430,gps,2,1,42.3014030144,-83.6987174047,272.355773926,0.000121,0.0,0.0,0.0,0.000144,0.0,0.0,0.0,0.002209,2
1668538194065125907,348470,1668538194147300609,gps,2,1,42.3014027884,-83.698717315,272.355621338,0.000121,0.0,0.0,0.0,0.000144,0.0,0.0,0.0,0.002209,2
1668538194074948504,348471,1668538194157290797,gps,2,1,42.3014025586,-83.6987172315,272.35546875,0.000121,0.0,0.0,0.0,0.000144,0.0,0.0,0.0,0.002209,2
1668538194085261753,348472,1668538194167462171,gps,2,1,42.3014023282,-83.6987171423,272.355224609,0.000121,0.0,0.0,0.0,0.000144,0.0,0.0,0.0,0.002209,2
1668538194095221168,348473,1668538194177291668,gps,2,1,42.3014020996,-83.6987170537,272.355041504,0.000121,0.0,0.0,0.0,0.000144,0.0,0.0,0.0,0.002209,2
1668538194105188009,348474,1668538194187293481,gps,2,1,42.3014018675,-83.6987169701,272.354827881,0.000121,0.0,0.0,0.0,0.000144,0.0,0.0,0.0,0.002209,2
1668538194115455767,348475,1668538194197354173,gps,2,1,42.3014016348,-83.6987168817,272.354553223,0.000121,0.0,0.0,0.0,0.000144,0.0,0.0,0.0,0.002209,2
1668538194125077049,348476,1668538194207303258,gps,2,1,42.301401404,-83.6987167929,272.354278564,8.1e-05,0.0,0.0,0.0,8.1e-05,0.0,0.0,0.0,0.002209,2
1668538194135327895,348477,1668538194217305419,gps,2,1,42.3014011698,-83.6987167091,272.354034424,8.1e-05,0.0,0.0,0.0,8.1e-05,0.0,0.0,0.0,0.002209,2
1668538194145135563,348478,1668538194227291183,gps,2,1,42.3014009349,-83.6987166201,272.353729248,8.1e-05,0.0,0.0,0.0,8.1e-05,0.0,0.0,0.0,0.002209,2
1668538194155142531,348479,1668538194237440757,gps,2,1,42.3014007021,-83.6987165307,272.35345459,8.1e-05,0.0,0.0,0.0,8.1e-05,0.0,0.0,0.0,0.002209,2
1668538194164895390,348480,1668538194247306894,gps,2,1,42.3014004657,-83.6987164465,272.353179932,8.1e-05,0.0,0.0,0.0,8.1e-05,0.0,0.0,0.0,0.002209,2
1668538194175448262,348481,1668538194257382963,gps,2,1,42.3014002289,-83.6987163565,272.352874756,8.1e-05,0.0,0.0,0.0,8.1e-05,0.0,0.0,0.0,0.002209,2
1668538194184936038,348482,1668538194267322829,gps,2,1,42.3013999939,-83.6987162674,272.352539062,8.1e-05,0.0,0.0,0.0,8.1e-05,0.0,0.0,0.0,0.002209,2
1668538194195417905,348483,1668538194277325802,gps,2,1,42.3013997555,-83.6987161824,272.352264404,8.1e-05,0.0,0.0,0.0,8.1e-05,0.0,0.0,0.0,0.002209,2
1668538194205283815,348484,1668538194287382656,gps,2,1,42.3013995165,-83.6987160923,272.351928711,8.1e-05,0.0,0.0,0.0,8.1e-05,0.0,0.0,0.0,0.002209,2
1668538194215249358,348485,1668538194297313489,gps,2,1,42.3013992793,-83.6987160026,272.351593018,8.1e-05,0.0,0.0,0.0,8.1e-05,0.0,0.0,0.0,0.002209,2
1668538194225112098,348486,1668538194307305420,gps,2,1,42.3013990387,-83.6987159169,272.351318359,8.1e-05,0.0,0.0,0.0,8.1e-05,0.0,0.0,0.0,0.002209,2
1668538194235191345,348487,1668538194317373997,gps,2,1,42.3013987978,-83.6987158271,272.350982666,8.1e-05,0.0,0.0,0.0,8.1e-05,0.0,0.0,0.0,0.002209,2
1668538194245296921,348488,1668538194327322136,gps,2,1,42.3013985581,-83.6987157363,272.350616455,8.1e-05,0.0,0.0,0.0,8.1e-05,0.0,0.0,0.0,0.002209,2
1668538194255182862,348489,1668538194337271918,gps,2,1,42.3013983154,-83.6987156508,272.350311279,8.1e-05,0.0,0.0,0.0,8.1e-05,0.0,0.0,0.0,0.002209,2
1668538194265211806,348490,1668538194347361526,gps,2,1,42.3013980716,-83.6987155606,272.349975586,8.1e-05,0.0,0.0,0.0,8.1e-05,0.0,0.0,0.0,0.002209,2
1668538194275294184,348491,1668538194357292249,gps,2,1,42.3013978301,-83.6987154702,272.349639893,8.1e-05,0.0,0.0,0.0,8.1e-05,0.0,0.0,0.0,0.002209,2
1668538194284998887,348492,1668538194367280698,gps,2,1,42.3013975847,-83.6987153852,272.349334717,8.1e-05,0.0,0.0,0.0,8.1e-05,0.0,0.0,0.0,0.002209,2
1668538194295206150,348493,1668538194377346636,gps,2,1,42.3013973385,-83.6987152955,272.348968506,8.1e-05,0.0,0.0,0.0,8.1e-05,0.0,0.0,0.0,0.002209,2
1668538194305469894,348494,1668538194387410005,gps,2,1,42.3013970944,-83.6987152057,272.348632812,8.1e-05,0.0,0.0,0.0,8.1e-05,0.0,0.0,0.0,0.002209,2
1668538194315363686,348495,1668538194397335679,gps,2,1,42.3013968466,-83.6987151212,272.348327637,8.1e-05,0.0,0.0,0.0,8.1e-05,0.0,0.0,0.0,0.002209,2
1668538194325351347,348496,1668538194407311604,gps,2,1,42.3013965979,-83.6987150334,272.347991943,8.1e-05,0.0,0.0,0.0,8.1e-05,0.0,0.0,0.0,0.002209,2
1668538194335280704,348497,1668538194417470422,gps,2,1,42.3013963514,-83.6987149447,272.347625732,8.1e-05,0.0,0.0,0.0,8.1e-05,0.0,0.0,0.0,0.002209,2
1668538194345481840,348498,1668538194427307075,gps,2,1,42.3013961005,-83.6987148623,272.347351074,8.1e-05,0.0,0.0,0.0,8.1e-05,0.0,0.0,0.0,0.002209,2
1668538194355241437,348499,1668538194437367247,gps,2,1,42.3013958492,-83.6987147761,272.347015381,8.1e-05,0.0,0.0,0.0,8.1e-05,0.0,0.0,0.0,0.002209,2
1668538194365131669,348500,1668538194447309815,gps,2,1,42.3013956002,-83.6987146882,272.346679688,8.1e-05,0.0,0.0,0.0,8.1e-05,0.0,0.0,0.0,0.002209,2
1668538194375315016,348501,1668538194457309491,gps,2,1,42.3013953467,-83.6987146073,272.346435547,8.1e-05,0.0,0.0,0.0,8.1e-05,0.0,0.0,0.0,0.002209,2
1668538194385277698,348502,1668538194467389629,gps,2,1,42.3013950929,-83.6987145222,272.346038818,8.1e-05,0.0,0.0,0.0,8.1e-05,0.0,0.0,0.0,0.002209,2
1668538194395253447,348503,1668538194477295019,gps,2,1,42.3013948413,-83.698714436,272.345703125,8.1e-05,0.0,0.0,0.0,8.1e-05,0.0,0.0,0.0,0.002209,2
1668538194405166881,348504,1668538194487375693,gps,2,1,42.3013945855,-83.6987143566,272.345397949,8.1e-05,0.0,0.0,0.0,8.1e-05,0.0,0.0,0.0,0.002209,2
1668538194415070119,348505,1668538194497421839,gps,2,1,42.3013943296,-83.6987142732,272.345001221,8.1e-05,0.0,0.0,0.0,8.1e-05,0.0,0.0,0.0,0.002209,2
1668538194425002536,348506,1668538194507383257,gps,2,1,42.3013940755,-83.6987141888,272.34463501,8.1e-05,0.0,0.0,0.0,8.1e-05,0.0,0.0,0.0,0.002209,2
1668538194434952919,348507,1668538194517305117,gps,2,1,42.3013938122,-83.6987141106,272.344421387,8.1e-05,0.0,0.0,0.0,8.1e-05,0.0,0.0,0.0,0.002209,2
1668538194445180303,348508,1668538194527406955,gps,2,1,42.3013935538,-83.6987140291,272.344024658,8.1e-05,0.0,0.0,0.0,8.1e-05,0.0,0.0,0.0,0.002209,2
1668538194455444432,348509,1668538194537354053,gps,2,1,42.3013932973,-83.6987139453,272.34362793,8.1e-05,0.0,0.0,0.0,8.1e-05,0.0,0.0,0.0,0.002209,2
1668538194465455989,348510,1668538194547341720,gps,2,1,42.3013930319,-83.6987138688,272.343353271,8.1e-05,0.0,0.0,0.0,8.1e-05,0.0,0.0,0.0,0.002209,2
1668538194475236666,348511,1668538194557334624,gps,2,1,42.3013927711,-83.6987137878,272.342926025,8.1e-05,0.0,0.0,0.0,8.1e-05,0.0,0.0,0.0,0.002209,2
1668538194485178405,348512,1668538194567360232,gps,2,1,42.3013925122,-83.6987137056,272.342529297,8.1e-05,0.0,0.0,0.0,8.1e-05,0.0,0.0,0.0,0.002209,2
1668538194495224092,348513,1668538194577301344,gps,2,1,42.3013922446,-83.6987136299,272.342224121,8.1e-05,0.0,0.0,0.0,8.1e-05,0.0,0.0,0.0,0.002209,2
1668538194505340867,348514,1668538194587421475,gps,2,1,42.3013919816,-83.6987135495,272.341796875,8.1e-05,0.0,0.0,0.0,8.1e-05,0.0,0.0,0.0,0.002209,2
1668538194515241384,348515,1668538194597348066,gps,2,1,42.3013917205,-83.6987134689,272.341369629,8.1e-05,0.0,0.0,0.0,8.1e-05,0.0,0.0,0.0,0.002209,2
1668538194525187865,348516,1668538194607276493,gps,2,1,42.3013914508,-83.6987133934,272.341094971,8.1e-05,0.0,0.0,0.0,8.1e-05,0.0,0.0,0.0,0.002209,2
1668538194535217118,348517,1668538194617360037,gps,2,1,42.3013911856,-83.6987133136,272.340667725,8.1e-05,0.0,0.0,0.0,8.1e-05,0.0,0.0,0.0,0.002209,2
1668538194545126665,348518,1668538194627304856,gps,2,1,42.3013909221,-83.6987132336,272.340240479,8.1e-05,0.0,0.0,0.0,8.1e-05,0.0,0.0,0.0,0.002209,2
1668538194555127977,348519,1668538194637282824,gps,2,1,42.3013906506,-83.6987131581,272.339935303,8.1e-05,0.0,0.0,0.0,8.1e-05,0.0,0.0,0.0,0.002209,2
1668538194565021875,348520,1668538194647355833,gps,2,1,42.3013903832,-83.6987130779,272.339538574,8.1e-05,0.0,0.0,0.0,8.1e-05,0.0,0.0,0.0,0.002209,2
1668538194574942629,348521,1668538194657315078,gps,2,1,42.3013901174,-83.6987129974,272.339111328,8.1e-05,0.0,0.0,0.0,8.1e-05,0.0,0.0,0.0,0.002209,2
1668538194585463297,348522,1668538194667380548,gps,2,1,42.3013898442,-83.6987129217,272.338806152,8.1e-05,0.0,0.0,0.0,8.1e-05,0.0,0.0,0.0,0.002209,2
1668538194595481729,348523,1668538194677364015,gps,2,1,42.3013895747,-83.6987128404,272.338409424,8.1e-05,0.0,0.0,0.0,8.1e-05,0.0,0.0,0.0,0.002209,2
1668538194605457694,348524,1668538194687303811,gps,2,1,42.3013893069,-83.6987127603,272.338012695,8.1e-05,0.0,0.0,0.0,8.1e-05,0.0,0.0,0.0,0.002209,2
1668538194615295006,348525,1668538194697309236,gps,2,1,42.3013890318,-83.698712684,272.33770752,8.1e-05,0.0,0.0,0.0,8.1e-05,0.0,0.0,0.0,0.002209,2
1668538194625092115,348526,1668538194707301104,gps,2,1,42.3013887605,-83.6987126033,272.337341309,8.1e-05,0.0,0.0,0.0,8.1e-05,0.0,0.0,0.0,0.002209,2
1668538194635192586,348527,1668538194717365019,gps,2,1,42.3013884908,-83.6987125226,272.336914062,8.1e-05,0.0,0.0,0.0,8.1e-05,0.0,0.0,0.0,0.002209,2
1668538194645248190,348528,1668538194727296664,gps,2,1,42.3013882139,-83.6987124462,272.336608887,8.1e-05,0.0,0.0,0.0,8.1e-05,0.0,0.0,0.0,0.002209,2
1668538194655278962,348529,1668538194737403012,gps,2,1,42.3013879405,-83.6987123659,272.336181641,8.1e-05,0.0,0.0,0.0,8.1e-05,0.0,0.0,0.0,0.002209,2
1668538194665440543,348530,1668538194747418061,gps,2,1,42.3013876689,-83.6987122845,272.335784912,8.1e-05,0.0,0.0,0.0,8.1e-05,0.0,0.0,0.0,0.002209,2
1668538194675000614,348531,1668538194757302172,gps,2,1,42.3013873902,-83.6987122086,272.335571289,8.1e-05,0.0,0.0,0.0,8.1e-05,0.0,0.0,0.0,0.002209,2
1668538194685116225,348532,1668538194767347027,gps,2,1,42.3013871147,-83.6987121285,272.335113525,8.1e-05,0.0,0.0,0.0,8.1e-05,0.0,0.0,0.0,0.002209,2
1668538194695224537,348533,1668538194777288863,gps,2,1,42.301386841,-83.6987120483,272.334716797,8.1e-05,0.0,0.0,0.0,8.1e-05,0.0,0.0,0.0,0.002209,2
1668538194705105025,348534,1668538194787283298,gps,2,1,42.3013865604,-83.6987119735,272.334472656,8.1e-05,0.0,0.0,0.0,8.1e-05,0.0,0.0,0.0,0.002209,2
1668538194715682461,348535,1668538194797363366,gps,2,1,42.3013862829,-83.6987118948,272.334014893,8.1e-05,0.0,0.0,0.0,8.1e-05,0.0,0.0,0.0,0.002209,2
1668538194725072047,348536,1668538194807300148,gps,2,1,42.3013860071,-83.6987118157,272.333618164,8.1e-05,0.0,0.0,0.0,8.1e-05,0.0,0.0,0.0,0.002209,2
1668538194735395709,348537,1668538194817302514,gps,2,1,42.3013857244,-83.6987117418,272.333343506,8.1e-05,0.0,0.0,0.0,8.1e-05,0.0,0.0,0.0,0.002209,2
1668538194745395752,348538,1668538194827285058,gps,2,1,42.3013854445,-83.6987116647,272.332855225,8.1e-05,0.0,0.0,0.0,8.1e-05,0.0,0.0,0.0,0.002209,2
1668538194755404542,348539,1668538194837350400,gps,2,1,42.3013851667,-83.6987115861,272.332336426,8.1e-05,0.0,0.0,0.0,8.1e-05,0.0,0.0,0.0,0.002209,2
1668538194765517021,348540,1668538194847293166,gps,2,1,42.3013848819,-83.6987115133,272.332000732,8.1e-05,0.0,0.0,0.0,8.1e-05,0.0,0.0,0.0,0.002209,2
1668538194775185820,348541,1668538194857301928,gps,2,1,42.3013845999,-83.6987114371,272.331420898,8.1e-05,0.0,0.0,0.0,8.1e-05,0.0,0.0,0.0,0.002209,2
1668538194785190135,348542,1668538194867367966,gps,2,1,42.3013843196,-83.6987113593,272.330932617,8.1e-05,0.0,0.0,0.0,8.1e-05,0.0,0.0,0.0,0.002209,2
1668538194795247956,348543,1668538194877301341,gps,2,1,42.3013840324,-83.6987112879,272.330505371,8.1e-05,0.0,0.0,0.0,8.1e-05,0.0,0.0,0.0,0.002209,2
1668538194805187548,348544,1668538194887283473,gps,2,1,42.3013837483,-83.6987112126,272.32989502,8.1e-05,0.0,0.0,0.0,8.1e-05,0.0,0.0,0.0,0.002209,2
1668538194815229603,348545,1668538194897343390,gps,2,1,42.3013834661,-83.6987111371,272.329345703,8.1e-05,0.0,0.0,0.0,8.1e-05,0.0,0.0,0.0,0.002209,2
1668538194825211400,348546,1668538194907290982,gps,2,1,42.3013831769,-83.698711067,272.328887939,8.1e-05,0.0,0.0,0.0,8.1e-05,0.0,0.0,0.0,0.002209,2
1668538194835078809,348547,1668538194917366185,gps,2,1,42.3013828909,-83.6987109939,272.328277588,8.1e-05,0.0,0.0,0.0,8.1e-05,0.0,0.0,0.0,0.002209,2
1668538194845164727,348548,1668538194927358395,gps,2,1,42.3013826064,-83.6987109195,272.327667236,8.1e-05,0.0,0.0,0.0,8.1e-05,0.0,0.0,0.0,0.002209,2
1668538194855068809,348549,1668538194937280992,gps,2,1,42.3013823152,-83.6987108509,272.327209473,8.1e-05,0.0,0.0,0.0,8.1e-05,0.0,0.0,0.0,0.002209,2
1668538194865047337,348550,1668538194947347916,gps,2,1,42.3013820267,-83.6987107797,272.326629639,8.1e-05,0.0,0.0,0.0,8.1e-05,0.0,0.0,0.0,0.002209,2
1668538194875552647,348551,1668538194957304433,gps,2,1,42.3013817401,-83.6987107062,272.32598877,8.1e-05,0.0,0.0,0.0,8.1e-05,0.0,0.0,0.0,0.002209,2
1668538194885299039,348552,1668538194967304663,gps,2,1,42.3013814467,-83.6987106394,272.325531006,8.1e-05,0.0,0.0,0.0,8.1e-05,0.0,0.0,0.0,0.002209,2
1668538194895420639,348553,1668538194977303001,gps,2,1,42.3013811561,-83.6987105689,272.324920654,8.1e-05,0.0,0.0,0.0,8.1e-05,0.0,0.0,0.0,0.002209,2
1668538194905375903,348554,1668538194987476695,gps,2,1,42.3013808674,-83.6987104974,272.324310303,8.1e-05,0.0,0.0,0.0,8.1e-05,0.0,0.0,0.0,0.002209,2
1668538194915243817,348555,1668538194997337150,gps,2,1,42.3013805693,-83.6987104337,272.323638916,8.1e-05,0.0,0.0,0.0,8.1e-05,0.0,0.0,0.0,0.002209,2
1668538194925263310,348556,1668538195007446022,gps,2,1,42.3013802768,-83.6987103645,272.3230896,8.1e-05,0.0,0.0,0.0,8.1e-05,0.0,0.0,0.0,0.002209,2
1668538194935151144,348557,1668538195017341213,gps,2,1,42.3013799859,-83.6987102947,272.322509766,8.1e-05,0.0,0.0,0.0,8.1e-05,0.0,0.0,0.0,0.002209,2
1668538194945318395,348558,1668538195027372519,gps,2,1,42.3013796861,-83.6987102314,272.321868896,8.1e-05,0.0,0.0,0.0,8.1e-05,0.0,0.0,0.0,0.002209,2
1668538194955252655,348559,1668538195037370425,gps,2,1,42.3013793916,-83.6987101628,272.321289062,8.1e-05,0.0,0.0,0.0,8.1e-05,0.0,0.0,0.0,0.002209,2
1668538194965467305,348560,1668538195047390115,gps,2,1,42.3013790987,-83.6987100936,272.320739746,8.1e-05,0.0,0.0,0.0,8.1e-05,0.0,0.0,0.0,0.002209,2
1668538194975073316,348561,1668538195057331749,gps,2,1,42.3013787971,-83.6987100305,272.320098877,8.1e-05,0.0,0.0,0.0,8.1e-05,0.0,0.0,0.0,0.002209,2
1668538194985038445,348562,1668538195067420640,gps,2,1,42.3013785006,-83.6987099612,272.319549561,8.1e-05,0.0,0.0,0.0,8.1e-05,0.0,0.0,0.0,0.002209,2
1668538194995545386,348563,1668538195077425743,gps,2,1,42.3013782058,-83.6987098923,272.319030762,8.1e-05,0.0,0.0,0.0,8.1e-05,0.0,0.0,0.0,0.002209,2
1668538195005025722,348564,1668538195087252482,gps,2,1,42.3013779027,-83.698709829,272.318389893,8.1e-05,0.0,0.0,0.0,8.1e-05,0.0,0.0,0.0,0.002209,2
1668538195015084503,348565,1668538195097255261,gps,2,1,42.3013776046,-83.69870976,272.317810059,8.1e-05,0.0,0.0,0.0,8.1e-05,0.0,0.0,0.0,0.002209,2
1668538195024860687,348566,1668538195107240734,gps,2,1,42.3013773078,-83.6987096914,272.31729126,8.1e-05,0.0,0.0,0.0,8.1e-05,0.0,0.0,0.0,0.002209,2
1668538195035293688,348567,1668538195117320749,gps,2,1,42.301377003,-83.6987096282,272.316619873,8.1e-05,0.0,0.0,0.0,8.1e-05,0.0,0.0,0.0,0.002209,2
1668538195045262322,348568,1668538195127384165,gps,2,1,42.3013767028,-83.6987095604,272.315979004,8.1e-05,0.0,0.0,0.0,8.1e-05,0.0,0.0,0.0,0.002209,2
1668538195055252606,348569,1668538195137372567,gps,2,1,42.3013764043,-83.6987094918,272.315338135,8.1e-05,0.0,0.0,0.0,8.1e-05,0.0,0.0,0.0,0.002209,2
1668538195065105802,348570,1668538195147290588,gps,2,1,42.3013760968,-83.6987094301,272.314605713,8.1e-05,0.0,0.0,0.0,8.1e-05,0.0,0.0,0.0,0.002209,2
1668538195075190632,348571,1668538195157302775,gps,2,1,42.3013757945,-83.6987093631,272.313934326,8.1e-05,0.0,0.0,0.0,8.1e-05,0.0,0.0,0.0,0.002209,2
1668538195085233664,348572,1668538195167443466,gps,2,1,42.3013754938,-83.6987092948,272.313232422,8.1e-05,0.0,0.0,0.0,8.1e-05,0.0,0.0,0.0,0.002209,2
1668538195095280031,348573,1668538195177301823,gps,2,1,42.3013751849,-83.698709234,272.312561035,8.1e-05,0.0,0.0,0.0,8.1e-05,0.0,0.0,0.0,0.002209,2
1668538195105189894,348574,1668538195187282082,gps,2,1,42.3013748812,-83.6987091672,272.312042236,8.1e-05,0.0,0.0,0.0,8.1e-05,0.0,0.0,0.0,0.002209,2
1668538195115294966,348575,1668538195197359163,gps,2,1,42.3013745788,-83.6987091007,272.311401367,8.1e-05,0.0,0.0,0.0,8.1e-05,0.0,0.0,0.0,0.002209,2
1668538195125048161,348576,1668538195207317774,gps,2,1,42.3013742682,-83.6987090401,272.310882568,8.1e-05,0.0,0.0,0.0,0.0001,0.0,0.0,0.0,0.002209,2
1668538195135131681,348577,1668538195217294770,gps,2,1,42.3013739625,-83.6987089747,272.310516357,8.1e-05,0.0,0.0,0.0,0.0001,0.0,0.0,0.0,0.002209,2
1668538195145499056,348578,1668538195227361006,gps,2,1,42.3013736587,-83.6987089086,272.309967041,8.1e-05,0.0,0.0,0.0,0.0001,0.0,0.0,0.0,0.002209,2
1668538195155416646,348579,1668538195237381489,gps,2,1,42.3013733463,-83.6987088489,272.309570312,8.1e-05,0.0,0.0,0.0,0.0001,0.0,0.0,0.0,0.002209,2
1668538195165266217,348580,1668538195247296655,gps,2,1,42.3013730387,-83.6987087841,272.309265137,8.1e-05,0.0,0.0,0.0,0.0001,0.0,0.0,0.0,0.002209,2
1668538195175380166,348581,1668538195257378442,gps,2,1,42.3013727327,-83.6987087182,272.308868408,8.1e-05,0.0,0.0,0.0,0.0001,0.0,0.0,0.0,0.002209,2
1668538195185293562,348582,1668538195267297650,gps,2,1,42.3013724188,-83.6987086591,272.30847168,8.1e-05,0.0,0.0,0.0,0.0001,0.0,0.0,0.0,0.002209,2
1668538195195054353,348583,1668538195277297766,gps,2,1,42.3013721094,-83.6987085944,272.308166504,8.1e-05,0.0,0.0,0.0,0.0001,0.0,0.0,0.0,0.002209,2
1668538195205285619,348584,1668538195287343433,gps,2,1,42.3013718016,-83.6987085301,272.307861328,8.1e-05,0.0,0.0,0.0,0.0001,0.0,0.0,0.0,0.002209,2
1668538195215229023,348585,1668538195297349292,gps,2,1,42.3013714862,-83.6987084715,272.3074646,8.1e-05,0.0,0.0,0.0,0.0001,0.0,0.0,0.0,0.002209,2
1668538195225221648,348586,1668538195307322309,gps,2,1,42.3013711752,-83.6987084083,272.307128906,8.1e-05,0.0,0.0,0.0,0.0001,0.0,0.0,0.0,0.002209,2
1668538195235307094,348587,1668538195317347460,gps,2,1,42.3013708657,-83.698708345,272.306762695,8.1e-05,0.0,0.0,0.0,0.0001,0.0,0.0,0.0,0.002209,2
1668538195245227523,348588,1668538195327284022,gps,2,1,42.3013705485,-83.6987082875,272.306304932,8.1e-05,0.0,0.0,0.0,0.0001,0.0,0.0,0.0,0.002209,2
1668538195255174558,348589,1668538195337279710,gps,2,1,42.3013702356,-83.6987082264,272.305847168,8.1e-05,0.0,0.0,0.0,0.0001,0.0,0.0,0.0,0.002209,2
1668538195265156446,348590,1668538195347355553,gps,2,1,42.3013699244,-83.6987081635,272.305511475,8.1e-05,0.0,0.0,0.0,0.0001,0.0,0.0,0.0,0.002209,2
1668538195275002832,348591,1668538195357287139,gps,2,1,42.3013696057,-83.6987081081,272.304962158,8.1e-05,0.0,0.0,0.0,0.0001,0.0,0.0,0.0,0.002209,2
1668538195285148744,348592,1668538195367291907,gps,2,1,42.3013692909,-83.6987080494,272.304443359,8.1e-05,0.0,0.0,0.0,0.0001,0.0,0.0,0.0,0.002209,2
1668538195295259995,348593,1668538195377366295,gps,2,1,42.3013689776,-83.6987079886,272.303985596,8.1e-05,0.0,0.0,0.0,0.0001,0.0,0.0,0.0,0.002209,2
1668538195305392928,348594,1668538195387304155,gps,2,1,42.3013686571,-83.6987079365,272.303405762,8.1e-05,0.0,0.0,0.0,0.0001,0.0,0.0,0.0,0.002209,2
1668538195314968338,348595,1668538195397350350,gps,2,1,42.3013683403,-83.6987078808,272.302764893,8.1e-05,0.0,0.0,0.0,0.0001,0.0,0.0,0.0,0.002209,2
1668538195325311192,348596,1668538195407426139,gps,2,1,42.3013680254,-83.6987078227,272.302276611,8.1e-05,0.0,0.0,0.0,0.0001,0.0,0.0,0.0,0.002209,2
1668538195335229549,348597,1668538195417404071,gps,2,1,42.3013677032,-83.6987077732,272.301605225,8.1e-05,0.0,0.0,0.0,0.0001,0.0,0.0,0.0,0.002209,2
1668538195345227438,348598,1668538195427304873,gps,2,1,42.3013673849,-83.6987077207,272.30090332,8.1e-05,0.0,0.0,0.0,0.0001,0.0,0.0,0.0,0.002209,2
1668538195355255253,348599,1668538195437374529,gps,2,1,42.301367068,-83.6987076654,272.300262451,8.1e-05,0.0,0.0,0.0,0.0001,0.0,0.0,0.0,0.002209,2
1668538195365184872,348600,1668538195447297593,gps,2,1,42.3013667443,-83.6987076184,272.299530029,8.1e-05,0.0,0.0,0.0,0.0001,0.0,0.0,0.0,0.002209,2
1668538195375226810,348601,1668538195457412400,gps,2,1,42.301366424,-83.6987075676,272.298736572,8.1e-05,0.0,0.0,0.0,0.0001,0.0,0.0,0.0,0.002209,2
1668538195385266831,348602,1668538195467357347,gps,2,1,42.3013661054,-83.6987075151,272.29800415,8.1e-05,0.0,0.0,0.0,0.0001,0.0,0.0,0.0,0.002209,2
1668538195395262267,348603,1668538195477284149,gps,2,1,42.3013657798,-83.6987074696,272.297180176,8.1e-05,0.0,0.0,0.0,0.0001,0.0,0.0,0.0,0.002209,2
1668538195405063477,348604,1668538195487424763,gps,2,1,42.3013654577,-83.6987074198,272.296295166,8.1e-05,0.0,0.0,0.0,0.0001,0.0,0.0,0.0,0.002209,2
1668538195415100248,348605,1668538195497395228,gps,2,1,42.3013651373,-83.6987073693,272.295501709,8.1e-05,0.0,0.0,0.0,0.0001,0.0,0.0,0.0,0.002209,2
1668538195424989746,348606,1668538195507360727,gps,2,1,42.3013648102,-83.6987073244,272.294647217,8.1e-05,0.0,0.0,0.0,0.0001,0.0,0.0,0.0,0.002209,2
1668538195435373527,348607,1668538195517361547,gps,2,1,42.3013644867,-83.6987072756,272.293762207,8.1e-05,0.0,0.0,0.0,0.0001,0.0,0.0,0.0,0.002209,2
1668538195445467884,348608,1668538195527354330,gps,2,1,42.3013641644,-83.6987072263,272.292877197,8.1e-05,0.0,0.0,0.0,0.0001,0.0,0.0,0.0,0.002209,2
1668538195455560941,348609,1668538195537345642,gps,2,1,42.3013638359,-83.6987071843,272.29196167,8.1e-05,0.0,0.0,0.0,0.0001,0.0,0.0,0.0,0.002209,2
1668538195465430896,348610,1668538195547406539,gps,2,1,42.3013635105,-83.6987071355,272.291107178,8.1e-05,0.0,0.0,0.0,0.0001,0.0,0.0,0.0,0.002209,2
1668538195475258825,348611,1668538195557365802,gps,2,1,42.3013631866,-83.6987070859,272.290222168,8.1e-05,0.0,0.0,0.0,0.0001,0.0,0.0,0.0,0.002209,2
1668538195485243022,348612,1668538195567293470,gps,2,1,42.3013628564,-83.6987070439,272.289337158,8.1e-05,0.0,0.0,0.0,0.0001,0.0,0.0,0.0,0.002209,2
1668538195495242809,348613,1668538195577281237,gps,2,1,42.3013625292,-83.6987069945,272.288513184,8.1e-05,0.0,0.0,0.0,0.0001,0.0,0.0,0.0,0.002209,2
1668538195505246501,348614,1668538195587350104,gps,2,1,42.3013622037,-83.6987069458,272.287689209,8.1e-05,0.0,0.0,0.0,0.0001,0.0,0.0,0.0,0.002209,2
1668538195515180419,348615,1668538195597288258,gps,2,1,42.3013618721,-83.6987069037,272.286834717,8.1e-05,0.0,0.0,0.0,0.0001,0.0,0.0,0.0,0.002209,2
1668538195525126778,348616,1668538195607290621,gps,2,1,42.3013615437,-83.6987068554,272.28616333,8.1e-05,0.0,0.0,0.0,0.0001,0.0,0.0,0.0,0.002209,2
1668538195535197785,348617,1668538195617410316,gps,2,1,42.3013612165,-83.6987068069,272.285369873,8.1e-05,0.0,0.0,0.0,0.0001,0.0,0.0,0.0,0.002209,2
1668538195545268950,348618,1668538195627307346,gps,2,1,42.3013608835,-83.6987067652,272.284667969,8.1e-05,0.0,0.0,0.0,0.0001,0.0,0.0,0.0,0.002209,2
1668538195555125813,348619,1668538195637292392,gps,2,1,42.3013605537,-83.6987067179,272.284057617,8.1e-05,0.0,0.0,0.0,0.0001,0.0,0.0,0.0,0.002209,2
1668538195564993936,348620,1668538195647355021,gps,2,1,42.3013602249,-83.6987066693,272.283355713,8.1e-05,0.0,0.0,0.0,0.0001,0.0,0.0,0.0,0.002209,2
1668538195574942102,348621,1668538195657296856,gps,2,1,42.3013598905,-83.6987066285,272.282714844,8.1e-05,0.0,0.0,0.0,0.0001,0.0,0.0,0.0,0.002209,2
1668538195585355296,348622,1668538195667367695,gps,2,1,42.3013595587,-83.6987065813,272.28213501,8.1e-05,0.0,0.0,0.0,0.0001,0.0,0.0,0.0,0.002209,2
1668538195595534934,348623,1668538195677359667,gps,2,1,42.3013592283,-83.6987065337,272.281524658,8.1e-05,0.0,0.0,0.0,0.0001,0.0,0.0,0.0,0.002209,2
1668538195605377746,348624,1668538195687281582,gps,2,1,42.3013588921,-83.6987064932,272.280883789,8.1e-05,0.0,0.0,0.0,0.0001,0.0,0.0,0.0,0.002209,2
1668538195615366267,348625,1668538195697293534,gps,2,1,42.3013585587,-83.6987064465,272.280273438,8.1e-05,0.0,0.0,0.0,0.0001,0.0,0.0,0.0,0.002209,2
1668538195625184074,348626,1668538195707354921,gps,2,1,42.3013582267,-83.6987064001,272.279693604,8.1e-05,0.0,0.0,0.0,0.0001,0.0,0.0,0.0,0.002209,2
1668538195635307190,348627,1668538195717295310,gps,2,1,42.301357889,-83.6987063596,272.279022217,8.1e-05,0.0,0.0,0.0,0.0001,0.0,0.0,0.0,0.002209,2
1668538195645299146,348628,1668538195727356585,gps,2,1,42.3013575542,-83.6987063137,272.278381348,8.1e-05,0.0,0.0,0.0,0.0001,0.0,0.0,0.0,0.002209,2
1668538195655304281,348629,1668538195737390857,gps,2,1,42.3013572204,-83.6987062672,272.277770996,8.1e-05,0.0,0.0,0.0,0.0001,0.0,0.0,0.0,0.002209,2
1668538195665184601,348630,1668538195747281867,gps,2,1,42.3013568814,-83.6987062272,272.277099609,8.1e-05,0.0,0.0,0.0,0.0001,0.0,0.0,0.0,0.002209,2
1668538195675003893,348631,1668538195757308282,gps,2,1,42.301356545,-83.6987061819,272.27645874,8.1e-05,0.0,0.0,0.0,0.0001,0.0,0.0,0.0,0.002209,2
1668538195685087022,348632,1668538195767336509,gps,2,1,42.3013562096,-83.6987061355,272.275787354,8.1e-05,0.0,0.0,0.0,0.0001,0.0,0.0,0.0,0.002209,2
1668538195695139870,348633,1668538195777280958,gps,2,1,42.301355869,-83.6987060963,272.275115967,8.1e-05,0.0,0.0,0.0,0.0001,0.0,0.0,0.0,0.002209,2
1668538195705034459,348634,1668538195787277919,gps,2,1,42.3013555307,-83.6987060517,272.274475098,8.1e-05,0.0,0.0,0.0,0.0001,0.0,0.0,0.0,0.002209,2
1668538195715032401,348635,1668538195797339935,gps,2,1,42.3013551942,-83.698706007,272.273834229,8.1e-05,0.0,0.0,0.0,0.0001,0.0,0.0,0.0,0.002209,2
1668538195724953811,348636,1668538195807297099,gps,2,1,42.3013548522,-83.6987059687,272.273132324,8.1e-05,0.0,0.0,0.0,0.0001,0.0,0.0,0.0,0.002209,2
1668538195734962207,348637,1668538195817288406,gps,2,1,42.3013545128,-83.6987059263,272.272491455,8.1e-05,0.0,0.0,0.0,0.0001,0.0,0.0,0.0,0.002209,2
1668538195745493254,348638,1668538195827353673,gps,2,1,42.3013541744,-83.6987058821,272.271820068,8.1e-05,0.0,0.0,0.0,0.0001,0.0,0.0,0.0,0.002209,2
1668538195755371168,348639,1668538195837280386,gps,2,1,42.3013538312,-83.6987058456,272.271148682,8.1e-05,0.0,0.0,0.0,0.0001,0.0,0.0,0.0,0.002209,2
1668538195765324614,348640,1668538195847362400,gps,2,1,42.3013534904,-83.698705805,272.270477295,8.1e-05,0.0,0.0,0.0,0.0001,0.0,0.0,0.0,0.002209,2
1668538195775122627,348641,1668538195857290895,gps,2,1,42.3013531506,-83.6987057626,272.269836426,8.1e-05,0.0,0.0,0.0,0.0001,0.0,0.0,0.0,0.002209,2
1668538195785134619,348642,1668538195867283893,gps,2,1,42.3013528061,-83.6987057281,272.269134521,8.1e-05,0.0,0.0,0.0,0.0001,0.0,0.0,0.0,0.002209,2
1668538195795325084,348643,1668538195877367698,gps,2,1,42.3013524637,-83.698705689,272.268493652,8.1e-05,0.0,0.0,0.0,0.0001,0.0,0.0,0.0,0.002209,2
1668538195805207797,348644,1668538195887292200,gps,2,1,42.3013521228,-83.698705649,272.267822266,8.1e-05,0.0,0.0,0.0,0.0001,0.0,0.0,0.0,0.002209,2
1668538195815125251,348645,1668538195897274289,gps,2,1,42.3013517769,-83.6987056169,272.267150879,8.1e-05,0.0,0.0,0.0,0.0001,0.0,0.0,0.0,0.002209,2
1668538195825259240,348646,1668538195907338425,gps,2,1,42.3013514332,-83.6987055799,272.266479492,8.1e-05,0.0,0.0,0.0,0.0001,0.0,0.0,0.0,0.002209,2
1668538195835051758,348647,1668538195917373014,gps,2,1,42.3013510906,-83.6987055414,272.265777588,8.1e-05,0.0,0.0,0.0,0.0001,0.0,0.0,0.0,0.002209,2
1668538195845125996,348648,1668538195927277098,gps,2,1,42.3013507433,-83.6987055104,272.265045166,8.1e-05,0.0,0.0,0.0,0.0001,0.0,0.0,0.0,0.002209,2
1668538195855005467,348649,1668538195937295252,gps,2,1,42.3013503981,-83.6987054743,272.264282227,8.1e-05,0.0,0.0,0.0,0.0001,0.0,0.0,0.0,0.002209,2
1668538195865353524,348650,1668538195947347106,gps,2,1,42.301350054,-83.6987054372,272.263549805,8.1e-05,0.0,0.0,0.0,0.0001,0.0,0.0,0.0,0.002209,2
1668538195875277743,348651,1668538195957293933,gps,2,1,42.3013497055,-83.698705407,272.262756348,8.1e-05,0.0,0.0,0.0,0.0001,0.0,0.0,0.0,0.002209,2
1668538195885288436,348652,1668538195967292490,gps,2,1,42.301349359,-83.698705371,272.261962891,8.1e-05,0.0,0.0,0.0,0.0001,0.0,0.0,0.0,0.002209,2
1668538195895530244,348653,1668538195977346528,gps,2,1,42.3013490135,-83.6987053349,272.261230469,8.1e-05,0.0,0.0,0.0,0.0001,0.0,0.0,0.0,0.002209,2
1668538195905450287,348654,1668538195987273803,gps,2,1,42.3013486638,-83.6987053048,272.260437012,8.1e-05,0.0,0.0,0.0,0.0001,0.0,0.0,0.0,0.002209,2
1668538195915261643,348655,1668538195997425312,gps,2,1,42.3013483159,-83.6987052691,272.259735107,8.1e-05,0.0,0.0,0.0,0.0001,0.0,0.0,0.0,0.002209,2
1668538195925241932,348656,1668538196007343572,gps,2,1,42.3013479693,-83.6987052339,272.258972168,8.1e-05,0.0,0.0,0.0,0.0001,0.0,0.0,0.0,0.002209,2
1668538195935183907,348657,1668538196017358266,gps,2,1,42.3013476186,-83.6987052087,272.258361816,8.1e-05,0.0,0.0,0.0,0.0001,0.0,0.0,0.0,0.002209,2
1668538195945349907,348658,1668538196027432396,gps,2,1,42.3013472693,-83.6987051732,272.257781982,8.1e-05,0.0,0.0,0.0,0.0001,0.0,0.0,0.0,0.002209,2
1668538195955169761,348659,1668538196037290687,gps,2,1,42.301346921,-83.6987051371,272.257080078,8.1e-05,0.0,0.0,0.0,0.0001,0.0,0.0,0.0,0.002209,2
1668538195965280162,348660,1668538196047350945,gps,2,1,42.301346569,-83.6987051117,272.256561279,8.1e-05,0.0,0.0,0.0,0.0001,0.0,0.0,0.0,0.002209,2
1668538195975052261,348661,1668538196057419235,gps,2,1,42.3013462181,-83.6987050758,272.255981445,8.1e-05,0.0,0.0,0.0,0.0001,0.0,0.0,0.0,0.002209,2
1668538195984989644,348662,1668538196067284886,gps,2,1,42.3013458685,-83.6987050397,272.255401611,8.1e-05,0.0,0.0,0.0,0.0001,0.0,0.0,0.0,0.002209,2
1668538195995564904,348663,1668538196077386476,gps,2,1,42.3013455151,-83.6987050142,272.254821777,8.1e-05,0.0,0.0,0.0,0.0001,0.0,0.0,0.0,0.002209,2
1668538196005411541,348664,1668538196087382503,gps,2,1,42.3013451629,-83.6987049788,272.254180908,8.1e-05,0.0,0.0,0.0,0.0001,0.0,0.0,0.0,0.002209,2
1668538196015405011,348665,1668538196097313755,gps,2,1,42.3013448121,-83.6987049435,272.253570557,8.1e-05,0.0,0.0,0.0,0.0001,0.0,0.0,0.0,0.002209,2
1668538196024974540,348666,1668538196107287478,gps,2,1,42.3013444573,-83.6987049181,272.252929688,8.1e-05,0.0,0.0,0.0,0.0001,0.0,0.0,0.0,0.002209,2
1668538196035207424,348667,1668538196117364254,gps,2,1,42.3013441038,-83.698704884,272.252197266,8.1e-05,0.0,0.0,0.0,0.0001,0.0,0.0,0.0,0.002209,2
1668538196045549561,348668,1668538196127296659,gps,2,1,42.3013437514,-83.6987048489,272.251556396,8.1e-05,0.0,0.0,0.0,0.0001,0.0,0.0,0.0,0.002209,2
1668538196055179400,348669,1668538196137294225,gps,2,1,42.3013433964,-83.6987048245,272.250854492,8.1e-05,0.0,0.0,0.0,0.0001,0.0,0.0,0.0,0.002209,2
1668538196065288150,348670,1668538196147280241,gps,2,1,42.3013430412,-83.6987047913,272.250030518,8.1e-05,0.0,0.0,0.0,0.0001,0.0,0.0,0.0,0.002209,2
1668538196075199206,348671,1668538196157380966,gps,2,1,42.3013426872,-83.6987047571,272.249267578,8.1e-05,0.0,0.0,0.0,0.0001,0.0,0.0,0.0,0.002209,2
1668538196085226621,348672,1668538196167374300,gps,2,1,42.3013423307,-83.6987047334,272.248565674,8.1e-05,0.0,0.0,0.0,0.0001,0.0,0.0,0.0,0.002209,2
1668538196095260731,348673,1668538196177278491,gps,2,1,42.3013419741,-83.6987047015,272.247741699,8.1e-05,0.0,0.0,0.0,0.0001,0.0,0.0,0.0,0.002209,2
1668538196105193715,348674,1668538196187339146,gps,2,1,42.3013416188,-83.6987046686,272.246917725,8.1e-05,0.0,0.0,0.0,0.0001,0.0,0.0,0.0,0.002209,2
1668538196115161260,348675,1668538196197267463,gps,2,1,42.3013412608,-83.6987046457,272.24621582,8.1e-05,0.0,0.0,0.0,0.0001,0.0,0.0,0.0,0.002209,2
1668538196125088489,348676,1668538196207293869,gps,2,1,42.3013409027,-83.698704615,272.245361328,0.000169,0.0,0.0,0.0,0.000225,0.0,0.0,0.0,0.002209,2
1668538196135166571,348677,1668538196217348357,gps,2,1,42.3013405459,-83.6987045833,272.244506836,0.000169,0.0,0.0,0.0,0.000225,0.0,0.0,0.0,0.002209,2
1668538196145122513,348678,1668538196227294158,gps,2,1,42.3013401864,-83.6987045609,272.243774414,0.000169,0.0,0.0,0.0,0.000225,0.0,0.0,0.0,0.002209,2
1668538196155635765,348679,1668538196237441419,gps,2,1,42.301339827,-83.6987045305,272.242889404,0.000169,0.0,0.0,0.0,0.000225,0.0,0.0,0.0,0.002209,2
1668538196165276624,348680,1668538196247296580,gps,2,1,42.3013394684,-83.6987044995,272.242034912,0.000169,0.0,0.0,0.0,0.000225,0.0,0.0,0.0,0.002209,2
1668538196175546290,348681,1668538196257319035,gps,2,1,42.3013391077,-83.6987044773,272.241271973,0.000169,0.0,0.0,0.0,0.000225,0.0,0.0,0.0,0.002209,2
1668538196185180714,348682,1668538196267355130,gps,2,1,42.301338747,-83.6987044467,272.24041748,0.000169,0.0,0.0,0.0,0.000225,0.0,0.0,0.0,0.002209,2
1668538196195221737,348683,1668538196277300432,gps,2,1,42.3013383875,-83.6987044165,272.239562988,0.000169,0.0,0.0,0.0,0.000225,0.0,0.0,0.0,0.002209,2
1668538196205173279,348684,1668538196287278591,gps,2,1,42.3013380256,-83.6987043942,272.238830566,0.000169,0.0,0.0,0.0,0.000225,0.0,0.0,0.0,0.002209,2
1668538196215395248,348685,1668538196297288297,gps,2,1,42.3013376639,-83.6987043643,272.238067627,0.000169,0.0,0.0,0.0,0.000225,0.0,0.0,0.0,0.002209,2
1668538196225195888,348686,1668538196307359730,gps,2,1,42.301337303,-83.6987043345,272.237213135,0.000169,0.0,0.0,0.0,0.000225,0.0,0.0,0.0,0.002209,2
1668538196235125714,348687,1668538196317302684,gps,2,1,42.3013369399,-83.6987043125,272.236572266,0.000169,0.0,0.0,0.0,0.000225,0.0,0.0,0.0,0.002209,2
1668538196245246196,348688,1668538196327282005,gps,2,1,42.3013365768,-83.6987042839,272.235839844,0.000169,0.0,0.0,0.0,0.000225,0.0,0.0,0.0,0.002209,2
1668538196255149710,348689,1668538196337363275,gps,2,1,42.3013362145,-83.6987042542,272.235076904,0.000169,0.0,0.0,0.0,0.000225,0.0,0.0,0.0,0.002209,2
1668538196265137543,348690,1668538196347277791,gps,2,1,42.30133585,-83.6987042334,272.23449707,0.000169,0.0,0.0,0.0,0.000225,0.0,0.0,0.0,0.002209,2
1668538196275133515,348691,1668538196357266101,gps,2,1,42.3013354854,-83.698704206,272.233825684,0.000169,0.0,0.0,0.0,0.000225,0.0,0.0,0.0,0.002209,2
1668538196285497937,348692,1668538196367367764,gps,2,1,42.3013351217,-83.6987041771,272.233123779,0.000169,0.0,0.0,0.0,0.000225,0.0,0.0,0.0,0.002209,2
1668538196295187950,348693,1668538196377294072,gps,2,1,42.3013347579,-83.6987041578,272.23260498,0.000169,0.0,0.0,0.0,0.000225,0.0,0.0,0.0,0.002209,2
1668538196305437751,348694,1668538196387319980,gps,2,1,42.3013343918,-83.6987041323,272.231964111,0.000169,0.0,0.0,0.0,0.000225,0.0,0.0,0.0,0.002209,2
1668538196315528635,348695,1668538196397423053,gps,2,1,42.3013340272,-83.6987041058,272.231323242,0.000169,0.0,0.0,0.0,0.000225,0.0,0.0,0.0,0.002209,2
1668538196325502416,348696,1668538196407299720,gps,2,1,42.3013336618,-83.6987040877,272.230804443,0.000169,0.0,0.0,0.0,0.000225,0.0,0.0,0.0,0.002209,2
1668538196335133331,348697,1668538196417442901,gps,2,1,42.3013332947,-83.6987040639,272.230194092,0.000169,0.0,0.0,0.0,0.000225,0.0,0.0,0.0,0.002209,2
1668538196345196519,348698,1668538196427308373,gps,2,1,42.3013329284,-83.6987040389,272.229553223,0.000169,0.0,0.0,0.0,0.000225,0.0,0.0,0.0,0.002209,2
1668538196355180763,348699,1668538196437283988,gps,2,1,42.3013325619,-83.6987040215,272.229034424,0.000169,0.0,0.0,0.0,0.000225,0.0,0.0,0.0,0.002209,2
1668538196365111235,348700,1668538196447295546,gps,2,1,42.3013321935,-83.6987039974,272.228393555,0.000169,0.0,0.0,0.0,0.000225,0.0,0.0,0.0,0.002209,2
1668538196375359134,348701,1668538196457431358,gps,2,1,42.3013318259,-83.6987039727,272.227752686,0.000169,0.0,0.0,0.0,0.000225,0.0,0.0,0.0,0.002209,2
1668538196385112958,348702,1668538196467280737,gps,2,1,42.3013314582,-83.6987039551,272.227203369,0.000169,0.0,0.0,0.0,0.000225,0.0,0.0,0.0,0.002209,2
1668538196395181494,348703,1668538196477306786,gps,2,1,42.3013310883,-83.6987039303,272.2265625,0.000169,0.0,0.0,0.0,0.000225,0.0,0.0,0.0,0.002209,2
1668538196405543228,348704,1668538196487457101,gps,2,1,42.3013307199,-83.6987039065,272.225921631,0.000169,0.0,0.0,0.0,0.000225,0.0,0.0,0.0,0.002209,2
1668538196414997624,348705,1668538196497335225,gps,2,1,42.3013303507,-83.6987038883,272.225372314,0.000169,0.0,0.0,0.0,0.000225,0.0,0.0,0.0,0.002209,2
1668538196425033926,348706,1668538196507342431,gps,2,1,42.3013299797,-83.6987038642,272.224731445,0.000169,0.0,0.0,0.0,0.000225,0.0,0.0,0.0,0.002209,2
1668538196435385789,348707,1668538196517349972,gps,2,1,42.3013296099,-83.6987038399,272.224090576,0.000169,0.0,0.0,0.0,0.000225,0.0,0.0,0.0,0.002209,2
1668538196445502734,348708,1668538196527353030,gps,2,1,42.3013292394,-83.6987038216,272.22354126,0.000169,0.0,0.0,0.0,0.000225,0.0,0.0,0.0,0.002209,2
1668538196455435767,348709,1668538196537332906,gps,2,1,42.3013288669,-83.6987037977,272.222900391,0.000169,0.0,0.0,0.0,0.000225,0.0,0.0,0.0,0.002209,2
1668538196465391564,348710,1668538196547381511,gps,2,1,42.3013284955,-83.6987037726,272.222290039,0.000169,0.0,0.0,0.0,0.000225,0.0,0.0,0.0,0.002209,2
1668538196475178876,348711,1668538196557348992,gps,2,1,42.3013281296,-83.698703757,272.222167969,0.000169,0.0,0.0,0.0,0.000225,0.0,0.0,0.0,0.002209,2
1668538196485146580,348712,1668538196567302548,gps,2,1,42.3013277558,-83.6987037331,272.221588135,0.000169,0.0,0.0,0.0,0.000225,0.0,0.0,0.0,0.002209,2
1668538196495331107,348713,1668538196577342811,gps,2,1,42.3013273832,-83.6987037094,272.220977783,0.000169,0.0,0.0,0.0,0.000225,0.0,0.0,0.0,0.002209,2
1668538196505188848,348714,1668538196587293914,gps,2,1,42.3013270157,-83.6987036941,272.22088623,0.000169,0.0,0.0,0.0,0.000225,0.0,0.0,0.0,0.002209,2
1668538196515192891,348715,1668538196597276418,gps,2,1,42.3013266405,-83.6987036717,272.220336914,0.000169,0.0,0.0,0.0,0.000225,0.0,0.0,0.0,0.002209,2
1668538196525239901,348716,1668538196607340135,gps,2,1,42.3013262666,-83.6987036484,272.21975708,0.000169,0.0,0.0,0.0,0.000225,0.0,0.0,0.0,0.002209,2
1668538196535116033,348717,1668538196617268277,gps,2,1,42.3013258974,-83.6987036338,272.21963501,0.000169,0.0,0.0,0.0,0.000225,0.0,0.0,0.0,0.002209,2
1668538196545206425,348718,1668538196627271061,gps,2,1,42.3013255208,-83.6987036125,272.219055176,0.000169,0.0,0.0,0.0,0.000225,0.0,0.0,0.0,0.002209,2
1668538196555108167,348719,1668538196637362799,gps,2,1,42.3013251452,-83.6987035899,272.218475342,0.000169,0.0,0.0,0.0,0.000225,0.0,0.0,0.0,0.002209,2
1668538196565022164,348720,1668538196647292541,gps,2,1,42.3013247751,-83.698703576,272.218322754,0.000169,0.0,0.0,0.0,0.000225,0.0,0.0,0.0,0.002209,2
1668538196575316411,348721,1668538196657296419,gps,2,1,42.301324397,-83.6987035551,272.217651367,0.000169,0.0,0.0,0.0,0.000225,0.0,0.0,0.0,0.002209,2
1668538196585611163,348722,1668538196667434459,gps,2,1,42.3013240202,-83.6987035336,272.217071533,0.000169,0.0,0.0,0.0,0.000225,0.0,0.0,0.0,0.002209,2
1668538196595417984,348723,1668538196677290348,gps,2,1,42.3013236484,-83.69870352,272.216827393,0.000169,0.0,0.0,0.0,0.000225,0.0,0.0,0.0,0.002209,2
1668538196605377080,348724,1668538196687296392,gps,2,1,42.3013232692,-83.6987034994,272.216125488,0.000169,0.0,0.0,0.0,0.000225,0.0,0.0,0.0,0.002209,2
1668538196615366672,348725,1668538196697349733,gps,2,1,42.3013228912,-83.6987034788,272.215484619,0.000169,0.0,0.0,0.0,0.000225,0.0,0.0,0.0,0.002209,2
1668538196625210238,348726,1668538196707286717,gps,2,1,42.3013225181,-83.6987034649,272.215179443,0.000169,0.0,0.0,0.0,0.000225,0.0,0.0,0.0,0.002209,2
1668538196635126017,348727,1668538196717296033,gps,2,1,42.3013221379,-83.6987034444,272.214477539,0.000169,0.0,0.0,0.0,0.000225,0.0,0.0,0.0,0.002209,2
1668538196645321566,348728,1668538196727355523,gps,2,1,42.3013217584,-83.6987034238,272.213745117,0.000169,0.0,0.0,0.0,0.000225,0.0,0.0,0.0,0.002209,2
1668538196655191944,348729,1668538196737284315,gps,2,1,42.3013213839,-83.6987034096,272.213439941,0.000169,0.0,0.0,0.0,0.000225,0.0,0.0,0.0,0.002209,2
1668538196665183407,348730,1668538196747282063,gps,2,1,42.3013210023,-83.6987033886,272.21270752,0.000169,0.0,0.0,0.0,0.000225,0.0,0.0,0.0,0.002209,2
1668538196675155531,348731,1668538196757346180,gps,2,1,42.3013206219,-83.6987033676,272.212005615,0.000169,0.0,0.0,0.0,0.000225,0.0,0.0,0.0,0.002209,2
1668538196685125419,348732,1668538196767269032,gps,2,1,42.3013202459,-83.6987033535,272.211700439,0.000169,0.0,0.0,0.0,0.000225,0.0,0.0,0.0,0.002209,2
1668538196695075276,348733,1668538196777277824,gps,2,1,42.3013198631,-83.6987033329,272.210968018,0.000169,0.0,0.0,0.0,0.000225,0.0,0.0,0.0,0.002209,2
1668538196705049464,348734,1668538196787345026,gps,2,1,42.3013194815,-83.6987033124,272.210266113,0.000169,0.0,0.0,0.0,0.000225,0.0,0.0,0.0,0.002209,2
1668538196714897250,348735,1668538196797280320,gps,2,1,42.3013191041,-83.6987032988,272.209960938,0.000169,0.0,0.0,0.0,0.000225,0.0,0.0,0.0,0.002209,2
1668538196725360622,348736,1668538196807282133,gps,2,1,42.3013187202,-83.6987032804,272.209259033,0.000169,0.0,0.0,0.0,0.000225,0.0,0.0,0.0,0.002209,2
1668538196734956893,348737,1668538196817333291,gps,2,1,42.3013183373,-83.6987032606,272.208557129,0.000169,0.0,0.0,0.0,0.000225,0.0,0.0,0.0,0.002209,2
1668538196745398409,348738,1668538196827276933,gps,2,1,42.3013179585,-83.6987032482,272.208221436,0.000169,0.0,0.0,0.0,0.000225,0.0,0.0,0.0,0.002209,2
1668538196755363027,348739,1668538196837286136,gps,2,1,42.3013175732,-83.698703231,272.207519531,0.000169,0.0,0.0,0.0,0.000225,0.0,0.0,0.0,0.002209,2
1668538196765250906,348740,1668538196847363401,gps,2,1,42.3013171889,-83.6987032119,272.206848145,0.000169,0.0,0.0,0.0,0.000225,0.0,0.0,0.0,0.002209,2
1668538196775202332,348741,1668538196857284012,gps,2,1,42.3013168087,-83.6987032008,272.206481934,0.000169,0.0,0.0,0.0,0.000225,0.0,0.0,0.0,0.002209,2
1668538196785117129,348742,1668538196867286157,gps,2,1,42.3013164221,-83.6987031847,272.205749512,0.000169,0.0,0.0,0.0,0.000225,0.0,0.0,0.0,0.002209,2
1668538196795329495,348743,1668538196877355978,gps,2,1,42.3013160368,-83.6987031675,272.205047607,0.000169,0.0,0.0,0.0,0.000225,0.0,0.0,0.0,0.002209,2
1668538196805186880,348744,1668538196887279161,gps,2,1,42.3013156562,-83.6987031583,272.204650879,0.000169,0.0,0.0,0.0,0.000225,0.0,0.0,0.0,0.002209,2
1668538196815194910,348745,1668538196897296853,gps,2,1,42.3013152684,-83.698703144,272.203918457,0.000169,0.0,0.0,0.0,0.000225,0.0,0.0,0.0,0.002209,2
1668538196825083557,348746,1668538196907327004,gps,2,1,42.301314882,-83.6987031284,272.203216553,0.000169,0.0,0.0,0.0,0.000225,0.0,0.0,0.0,0.002209,2
1668538196835024969,348747,1668538196917374072,gps,2,1,42.3013145,-83.6987031204,272.202789307,0.000169,0.0,0.0,0.0,0.000225,0.0,0.0,0.0,0.002209,2
1668538196845128603,348748,1668538196927295821,gps,2,1,42.3013141108,-83.6987031073,272.202026367,0.000169,0.0,0.0,0.0,0.000225,0.0,0.0,0.0,0.002209,2
1668538196855441295,348749,1668538196937345217,gps,2,1,42.3013137227,-83.698703093,272.201293945,0.000169,0.0,0.0,0.0,0.000225,0.0,0.0,0.0,0.002209,2
1668538196865493362,348750,1668538196947278058,gps,2,1,42.3013133391,-83.6987030862,272.200866699,0.000169,0.0,0.0,0.0,0.000225,0.0,0.0,0.0,0.002209,2
1668538196875349251,348751,1668538196957282838,gps,2,1,42.3013129485,-83.698703074,272.200134277,0.000169,0.0,0.0,0.0,0.000225,0.0,0.0,0.0,0.002209,2
1668538196884993375,348752,1668538196967364621,gps,2,1,42.301312559,-83.6987030611,272.199371338,0.000169,0.0,0.0,0.0,0.000225,0.0,0.0,0.0,0.002209,2
1668538196895382372,348753,1668538196977270876,gps,2,1,42.3013121738,-83.6987030551,272.198944092,0.000169,0.0,0.0,0.0,0.000225,0.0,0.0,0.0,0.002209,2
1668538196905172174,348754,1668538196987282513,gps,2,1,42.3013117819,-83.6987030438,272.198272705,0.000169,0.0,0.0,0.0,0.000225,0.0,0.0,0.0,0.002209,2
1668538196915373565,348755,1668538196997400814,gps,2,1,42.3013113914,-83.6987030321,272.197570801,0.000169,0.0,0.0,0.0,0.000225,0.0,0.0,0.0,0.002209,2
1668538196925274709,348756,1668538197007364512,gps,2,1,42.3013110125,-83.6987030292,272.197692871,0.000169,0.0,0.0,0.0,0.000225,0.0,0.0,0.0,0.002209,2
1668538196935179224,348757,1668538197017332708,gps,2,1,42.3013106195,-83.698703019,272.197052002,0.000169,0.0,0.0,0.0,0.000225,0.0,0.0,0.0,0.002209,2
1668538196945324239,348758,1668538197027389489,gps,2,1,42.3013102274,-83.698703008,272.196380615,0.000169,0.0,0.0,0.0,0.000225,0.0,0.0,0.0,0.002209,2
1668538196955210406,348759,1668538197037316354,gps,2,1,42.3013098469,-83.6987030056,272.196502686,0.000169,0.0,0.0,0.0,0.000225,0.0,0.0,0.0,0.002209,2
1668538196965140036,348760,1668538197047341142,gps,2,1,42.3013094525,-83.6987029956,272.195861816,0.000169,0.0,0.0,0.0,0.000225,0.0,0.0,0.0,0.002209,2
1668538196975199811,348761,1668538197057340591,gps,2,1,42.3013090591,-83.6987029853,272.19519043,0.000169,0.0,0.0,0.0,0.000225,0.0,0.0,0.0,0.002209,2
1668538196985165419,348762,1668538197067329736,gps,2,1,42.3013086769,-83.6987029833,272.195251465,0.000169,0.0,0.0,0.0,0.000225,0.0,0.0,0.0,0.002209,2
1668538196995366780,348763,1668538197077359475,gps,2,1,42.3013082811,-83.6987029737,272.194580078,0.000169,0.0,0.0,0.0,0.000225,0.0,0.0,0.0,0.002209,2
1668538197005373318,348764,1668538197087330651,gps,2,1,42.3013078869,-83.6987029644,272.193939209,0.000169,0.0,0.0,0.0,0.000225,0.0,0.0,0.0,0.002209,2
1668538197014986855,348765,1668538197097327822,gps,2,1,42.3013075031,-83.6987029623,272.193969727,0.000169,0.0,0.0,0.0,0.000225,0.0,0.0,0.0,0.002209,2
1668538197024966372,348766,1668538197107356673,gps,2,1,42.3013071067,-83.6987029533,272.19329834,0.000169,0.0,0.0,0.0,0.000225,0.0,0.0,0.0,0.002209,2
1668538197035164187,348767,1668538197117320947,gps,2,1,42.3013067106,-83.6987029441,272.192626953,0.000169,0.0,0.0,0.0,0.000225,0.0,0.0,0.0,0.002209,2
1668538197045289371,348768,1668538197127331730,gps,2,1,42.3013063251,-83.6987029417,272.192657471,0.000169,0.0,0.0,0.0,0.000225,0.0,0.0,0.0,0.002209,2
1668538197055293847,348769,1668538197137377988,gps,2,1,42.3013059266,-83.6987029328,272.191955566,0.000169,0.0,0.0,0.0,0.000225,0.0,0.0,0.0,0.002209,2
1668538197065306860,348770,1668538197147300377,gps,2,1,42.3013055298,-83.6987029234,272.191314697,0.000169,0.0,0.0,0.0,0.000225,0.0,0.0,0.0,0.002209,2
