%time,field.header.seq,field.header.stamp,field.header.frame_id,field.status.status,field.status.service,field.latitude,field.longitude,field.altitude,field.position_covariance0,field.position_covariance1,field.position_covariance2,field.position_covariance3,field.position_covariance4,field.position_covariance5,field.position_covariance6,field.position_covariance7,field.position_covariance8,field.position_covariance_type
1668538300525091323,359116,1668538300606295031,gps,2,1,42.301451795,-83.6987381421,272.414154053,0.000121,0.0,0.0,0.0,0.000144,0.0,0.0,0.0,0.002116,2
1668538300535249541,359117,1668538300616377918,gps,2,1,42.3014516902,-83.698738074,272.414093018,0.000121,0.0,0.0,0.0,0.000144,0.0,0.0,0.0,0.002116,2
1668538300545082629,359118,1668538300626289950,gps,2,1,42.3014515789,-83.698738001,272.414031982,0.000121,0.0,0.0,0.0,0.000144,0.0,0.0,0.0,0.002116,2
1668538300555196772,359119,1668538300636288677,gps,2,1,42.3014514657,-83.6987379271,272.41394043,0.000121,0.0,0.0,0.0,0.000144,0.0,0.0,0.0,0.002116,2
1668538300565536415,359120,1668538300646349957,gps,2,1,42.3014513565,-83.698737856,272.413848877,0.000121,0.0,0.0,0.0,0.000144,0.0,0.0,0.0,0.002116,2
1668538300575462138,359121,1668538300656303840,gps,2,1,42.3014512407,-83.6987377798,272.413757324,0.000121,0.0,0.0,0.0,0.000144,0.0,0.0,0.0,0.002116,2
1668538300585330900,359122,1668538300666290520,gps,2,1,42.301451123,-83.698737703,272.413665771,0.000121,0.0,0.0,0.0,0.000144,0.0,0.0,0.0,0.002116,2
1668538300595286547,359123,1668538300676353240,gps,2,1,42.301451009,-83.6987376286,272.413574219,0.000121,0.0,0.0,0.0,0.000144,0.0,0.0,0.0,0.002116,2
1668538300605269239,359124,1668538300686289709,gps,2,1,42.3014508887,-83.6987375492,272.413482666,0.000121,0.0,0.0,0.0,0.000144,0.0,0.0,0.0,0.002116,2
1668538300615291399,359125,1668538300696299948,gps,2,1,42.3014507663,-83.698737469,272.413360596,0.000121,0.0,0.0,0.0,0.000144,0.0,0.0,0.0,0.002116,2
1668538300625384115,359126,1668538300706370263,gps,2,1,42.3014506478,-83.6987373914,272.413269043,0.000121,0.0,0.0,0.0,0.000144,0.0,0.0,0.0,0.002116,2
1668538300635237721,359127,1668538300716276791,gps,2,1,42.3014505229,-83.6987373088,272.41317749,0.000121,0.0,0.0,0.0,0.000144,0.0,0.0,0.0,0.002116,2
1668538300645170892,359128,1668538300726316214,gps,2,1,42.3014503961,-83.6987372253,272.413024902,0.000121,0.0,0.0,0.0,0.000144,0.0,0.0,0.0,0.002116,2
1668538300655161190,359129,1668538300736349706,gps,2,1,42.3014502729,-83.6987371446,272.412902832,0.000121,0.0,0.0,0.0,0.000144,0.0,0.0,0.0,0.002116,2
1668538300665045616,359130,1668538300746277266,gps,2,1,42.3014501434,-83.6987370587,272.412811279,0.000121,0.0,0.0,0.0,0.000144,0.0,0.0,0.0,0.002116,2
1668538300675154250,359131,1668538300756313903,gps,2,1,42.3014500121,-83.6987369719,272.412658691,0.000121,0.0,0.0,0.0,0.000144,0.0,0.0,0.0,0.002116,2
1668538300685379027,359132,1668538300766349625,gps,2,1,42.3014498844,-83.6987368881,272.412536621,0.000121,0.0,0.0,0.0,0.000144,0.0,0.0,0.0,0.002116,2
1668538300695052683,359133,1668538300776281595,gps,2,1,42.3014497505,-83.6987367989,272.412445068,0.000121,0.0,0.0,0.0,0.000144,0.0,0.0,0.0,0.002116,2
1668538300704936557,359134,1668538300786297196,gps,2,1,42.3014496145,-83.6987367089,272.41229248,0.000121,0.0,0.0,0.0,0.000144,0.0,0.0,0.0,0.002116,2
1668538300715227820,359135,1668538300796439539,gps,2,1,42.3014494823,-83.6987366213,272.412139893,0.000121,0.0,0.0,0.0,0.000144,0.0,0.0,0.0,0.002116,2
1668538300724954633,359136,1668538300806295402,gps,2,1,42.3014493438,-83.6987365288,272.412017822,0.000121,0.0,0.0,0.0,0.000144,0.0,0.0,0.0,0.002116,2
1668538300735311947,359137,1668538300816304882,gps,2,1,42.3014492032,-83.6987364351,272.411834717,0.000121,0.0,0.0,0.0,0.000144,0.0,0.0,0.0,0.002116,2
1668538300745140881,359138,1668538300826348410,gps,2,1,42.3014490666,-83.6987363443,272.411682129,0.000121,0.0,0.0,0.0,0.000144,0.0,0.0,0.0,0.002116,2
1668538300755165278,359139,1668538300836293239,gps,2,1,42.3014489236,-83.6987362483,272.411560059,0.000121,0.0,0.0,0.0,0.000144,0.0,0.0,0.0,0.002116,2
1668538300765072099,359140,1668538300846282631,gps,2,1,42.3014487784,-83.6987361513,272.411376953,0.000121,0.0,0.0,0.0,0.000144,0.0,0.0,0.0,0.002116,2
1668538300775217135,359141,1668538300856338044,gps,2,1,42.3014486371,-83.6987360572,272.411224365,0.000121,0.0,0.0,0.0,0.000144,0.0,0.0,0.0,0.002116,2
1668538300785140693,359142,1668538300866276450,gps,2,1,42.3014484894,-83.6987359579,272.411102295,0.000121,0.0,0.0,0.0,0.000144,0.0,0.0,0.0,0.002116,2
1668538300795049622,359143,1668538300876276430,gps,2,1,42.3014483397,-83.6987358576,272.410919189,0.000121,0.0,0.0,0.0,0.000144,0.0,0.0,0.0,0.002116,2
1668538300805061370,359144,1668538300886365160,gps,2,1,42.3014481937,-83.69873576,272.410766602,0.000121,0.0,0.0,0.0,0.000144,0.0,0.0,0.0,0.002116,2
1668538300815082880,359145,1668538300896283031,gps,2,1,42.301448041,-83.6987356574,272.410614014,0.000121,0.0,0.0,0.0,0.000144,0.0,0.0,0.0,0.002116,2
1668538300824989956,359146,1668538300906300228,gps,2,1,42.3014478869,-83.6987355535,272.410461426,0.000121,0.0,0.0,0.0,0.000144,0.0,0.0,0.0,0.002116,2
1668538300835070727,359147,1668538300916345571,gps,2,1,42.3014477365,-83.6987354526,272.410308838,0.000121,0.0,0.0,0.0,0.000144,0.0,0.0,0.0,0.002116,2
1668538300845429123,359148,1668538300926285774,gps,2,1,42.3014475794,-83.6987353466,272.410186768,0.000121,0.0,0.0,0.0,0.000144,0.0,0.0,0.0,0.002116,2
1668538300855234247,359149,1668538300936286316,gps,2,1,42.3014474209,-83.6987352394,272.410064697,0.000121,0.0,0.0,0.0,0.000144,0.0,0.0,0.0,0.002116,2
1668538300865153204,359150,1668538300946350303,gps,2,1,42.3014472658,-83.698735135,272.409912109,0.000121,0.0,0.0,0.0,0.000144,0.0,0.0,0.0,0.002116,2
1668538300874943246,359151,1668538300956286916,gps,2,1,42.3014471044,-83.6987350256,272.409790039,0.000121,0.0,0.0,0.0,0.000144,0.0,0.0,0.0,0.002116,2
1668538300885167026,359152,1668538300966296172,gps,2,1,42.3014469415,-83.6987349148,272.409667969,0.000121,0.0,0.0,0.0,0.000144,0.0,0.0,0.0,0.002116,2
1668538300895247049,359153,1668538300976386765,gps,2,1,42.3014467819,-83.6987348073,272.409545898,0.000121,0.0,0.0,0.0,0.000144,0.0,0.0,0.0,0.002116,2
1668538300905194114,359154,1668538300986283647,gps,2,1,42.301446616,-83.6987346945,272.409423828,0.000121,0.0,0.0,0.0,0.000144,0.0,0.0,0.0,0.002116,2
1668538300915340813,359155,1668538300996336888,gps,2,1,42.3014464485,-83.6987345809,272.409332275,0.000121,0.0,0.0,0.0,0.000144,0.0,0.0,0.0,0.002116,2
1668538300925424683,359156,1668538301006414652,gps,2,1,42.3014462846,-83.6987344699,272.409210205,0.000121,0.0,0.0,0.0,0.000144,0.0,0.0,0.0,0.002116,2
1668538300935301025,359157,1668538301016334637,gps,2,1,42.3014461144,-83.6987343542,272.409118652,0.000121,0.0,0.0,0.0,0.000144,0.0,0.0,0.0,0.002116,2
1668538300945182797,359158,1668538301026393415,gps,2,1,42.3014459423,-83.6987342378,272.408996582,0.000121,0.0,0.0,0.0,0.000144,0.0,0.0,0.0,0.002116,2
1668538300955166244,359159,1668538301036336527,gps,2,1,42.3014457742,-83.6987341238,272.408905029,0.000121,0.0,0.0,0.0,0.000144,0.0,0.0,0.0,0.002116,2
1668538300965344972,359160,1668538301046381171,gps,2,1,42.3014455966,-83.6987340061,272.408660889,0.000121,0.0,0.0,0.0,0.000144,0.0,0.0,0.0,0.002116,2
1668538300975083924,359161,1668538301056390635,gps,2,1,42.3014454201,-83.6987338873,272.408599854,0.000121,0.0,0.0,0.0,0.000144,0.0,0.0,0.0,0.002116,2
1668538300985411809,359162,1668538301066418791,gps,2,1,42.3014452475,-83.6987337704,272.408508301,0.000121,0.0,0.0,0.0,0.000144,0.0,0.0,0.0,0.002116,2
1668538300995273904,359163,1668538301076319617,gps,2,1,42.3014450655,-83.6987336505,272.408294678,0.000121,0.0,0.0,0.0,0.000144,0.0,0.0,0.0,0.002116,2
1668538301005262485,359164,1668538301086384514,gps,2,1,42.3014448846,-83.6987335295,272.408203125,0.000121,0.0,0.0,0.0,0.000144,0.0,0.0,0.0,0.002116,2
1668538301015211332,359165,1668538301096290266,gps,2,1,42.3014447075,-83.6987334103,272.408172607,0.000121,0.0,0.0,0.0,0.000144,0.0,0.0,0.0,0.002116,2
1668538301025306462,359166,1668538301106255970,gps,2,1,42.3014445212,-83.6987332883,272.407958984,0.000121,0.0,0.0,0.0,0.000144,0.0,0.0,0.0,0.002116,2
1668538301035112847,359167,1668538301116233785,gps,2,1,42.3014443359,-83.6987331653,272.407897949,0.000121,0.0,0.0,0.0,0.000144,0.0,0.0,0.0,0.002116,2
1668538301045226598,359168,1668538301126245707,gps,2,1,42.3014441544,-83.6987330441,272.407867432,0.000121,0.0,0.0,0.0,0.000144,0.0,0.0,0.0,0.002116,2
1668538301055097467,359169,1668538301136296721,gps,2,1,42.3014439638,-83.6987329201,272.407684326,0.000121,0.0,0.0,0.0,0.000144,0.0,0.0,0.0,0.002116,2
1668538301065127029,359170,1668538301146367018,gps,2,1,42.3014437742,-83.6987327949,272.407592773,0.000121,0.0,0.0,0.0,0.000144,0.0,0.0,0.0,0.002116,2
1668538301075162451,359171,1668538301156375380,gps,2,1,42.3014435882,-83.6987326718,272.407531738,0.000121,0.0,0.0,0.0,0.000144,0.0,0.0,0.0,0.002116,2
1668538301085124449,359172,1668538301166270959,gps,2,1,42.3014433933,-83.6987325452,272.407318115,0.000121,0.0,0.0,0.0,0.000144,0.0,0.0,0.0,0.002116,2
1668538301095269662,359173,1668538301176344279,gps,2,1,42.3014431993,-83.6987324182,272.407226562,0.000121,0.0,0.0,0.0,0.000144,0.0,0.0,0.0,0.002116,2
1668538301105020244,359174,1668538301186290775,gps,2,1,42.301443009,-83.6987322927,272.40713501,0.000121,0.0,0.0,0.0,0.000144,0.0,0.0,0.0,0.002116,2
1668538301115097704,359175,1668538301196284175,gps,2,1,42.3014428101,-83.698732164,272.406890869,0.000121,0.0,0.0,0.0,0.000144,0.0,0.0,0.0,0.002116,2
1668538301125490779,359176,1668538301206296597,gps,2,1,42.3014426122,-83.6987320345,272.406707764,0.000121,0.0,0.0,0.0,0.000144,0.0,0.0,0.0,0.002116,2
1668538301135368827,359177,1668538301216348614,gps,2,1,42.3014424176,-83.6987319069,272.406616211,0.000121,0.0,0.0,0.0,0.000144,0.0,0.0,0.0,0.002116,2
1668538301145359602,359178,1668538301226333159,gps,2,1,42.3014422148,-83.6987317759,272.406311035,0.000121,0.0,0.0,0.0,0.000144,0.0,0.0,0.0,0.002116,2
1668538301155235304,359179,1668538301236347920,gps,2,1,42.3014420128,-83.6987316444,272.40612793,0.000121,0.0,0.0,0.0,0.000144,0.0,0.0,0.0,0.002116,2
1668538301165220085,359180,1668538301246334870,gps,2,1,42.3014418142,-83.6987315144,272.405975342,0.000121,0.0,0.0,0.0,0.000144,0.0,0.0,0.0,0.002116,2
1668538301175177821,359181,1668538301256313202,gps,2,1,42.3014416076,-83.6987313813,272.405670166,0.000121,0.0,0.0,0.0,0.000144,0.0,0.0,0.0,0.002116,2
1668538301185253249,359182,1668538301266354331,gps,2,1,42.3014414017,-83.6987312471,272.405426025,0.000121,0.0,0.0,0.0,0.000144,0.0,0.0,0.0,0.002116,2
1668538301195192039,359183,1668538301276280147,gps,2,1,42.3014411992,-83.6987311151,272.40524292,0.000121,0.0,0.0,0.0,0.000144,0.0,0.0,0.0,0.002116,2
1668538301205070112,359184,1668538301286265911,gps,2,1,42.3014409887,-83.6987309796,272.404876709,0.000121,0.0,0.0,0.0,0.000144,0.0,0.0,0.0,0.002116,2
1668538301215067673,359185,1668538301296435931,gps,2,1,42.3014407789,-83.6987308434,272.404632568,0.000121,0.0,0.0,0.0,0.000144,0.0,0.0,0.0,0.002116,2
1668538301225258804,359186,1668538301306286279,gps,2,1,42.3014405725,-83.698730709,272.404418945,0.000121,0.0,0.0,0.0,0.000144,0.0,0.0,0.0,0.002116,2
1668538301234998195,359187,1668538301316280828,gps,2,1,42.3014403582,-83.6987305713,272.404052734,0.000121,0.0,0.0,0.0,0.000144,0.0,0.0,0.0,0.002116,2
1668538301244951518,359188,1668538301326345911,gps,2,1,42.3014401448,-83.6987304327,272.403747559,0.000121,0.0,0.0,0.0,0.000144,0.0,0.0,0.0,0.002116,2
1668538301255100705,359189,1668538301336291969,gps,2,1,42.3014399344,-83.6987302961,272.403533936,0.000121,0.0,0.0,0.0,0.000144,0.0,0.0,0.0,0.002116,2
1668538301265287118,359190,1668538301346304135,gps,2,1,42.3014397166,-83.6987301561,272.403137207,0.000121,0.0,0.0,0.0,0.000144,0.0,0.0,0.0,0.002116,2
1668538301275345727,359191,1668538301356322665,gps,2,1,42.3014394997,-83.6987300155,272.402893066,0.000121,0.0,0.0,0.0,0.000144,0.0,0.0,0.0,0.002116,2
1668538301285241405,359192,1668538301366363576,gps,2,1,42.3014392855,-83.6987298766,272.402618408,0.000121,0.0,0.0,0.0,0.000144,0.0,0.0,0.0,0.002116,2
1668538301294942939,359193,1668538301376288508,gps,2,1,42.3014390636,-83.6987297344,272.402252197,0.000121,0.0,0.0,0.0,0.000144,0.0,0.0,0.0,0.002116,2
1668538301305119111,359194,1668538301386283858,gps,2,1,42.3014388432,-83.698729591,272.402008057,0.000121,0.0,0.0,0.0,0.000144,0.0,0.0,0.0,0.002116,2
1668538301315285766,359195,1668538301396346686,gps,2,1,42.3014386257,-83.6987294497,272.401794434,0.000121,0.0,0.0,0.0,0.000144,0.0,0.0,0.0,0.002116,2
1668538301325286953,359196,1668538301406288729,gps,2,1,42.3014384005,-83.698729305,272.40145874,0.000121,0.0,0.0,0.0,0.000144,0.0,0.0,0.0,0.002116,2
1668538301335226455,359197,1668538301416349909,gps,2,1,42.301438177,-83.6987291593,272.401306152,0.000121,0.0,0.0,0.0,0.000144,0.0,0.0,0.0,0.002116,2
1668538301344964900,359198,1668538301426295779,gps,2,1,42.301437956,-83.6987290156,272.401092529,0.000121,0.0,0.0,0.0,0.000144,0.0,0.0,0.0,0.002116,2
1668538301355080902,359199,1668538301436265999,gps,2,1,42.3014377278,-83.6987288685,272.400817871,0.000121,0.0,0.0,0.0,0.000144,0.0,0.0,0.0,0.002116,2
1668538301365134491,359200,1668538301446335567,gps,2,1,42.301437501,-83.6987287204,272.400726318,0.000121,0.0,0.0,0.0,0.000144,0.0,0.0,0.0,0.002116,2
1668538301375216033,359201,1668538301456346883,gps,2,1,42.3014372769,-83.6987285742,272.40057373,0.000121,0.0,0.0,0.0,0.000144,0.0,0.0,0.0,0.002116,2
1668538301385048581,359202,1668538301466301944,gps,2,1,42.3014370456,-83.6987284247,272.400360107,0.000121,0.0,0.0,0.0,0.000144,0.0,0.0,0.0,0.002116,2
1668538301395207273,359203,1668538301476404383,gps,2,1,42.3014368159,-83.6987282741,272.400299072,0.000121,0.0,0.0,0.0,0.000144,0.0,0.0,0.0,0.002116,2
1668538301404858195,359204,1668538301486280952,gps,2,1,42.3014365886,-83.6987281256,272.40020752,0.000121,0.0,0.0,0.0,0.000144,0.0,0.0,0.0,0.002116,2
1668538301415416508,359205,1668538301496331242,gps,2,1,42.3014363544,-83.6987279739,272.400024414,0.000121,0.0,0.0,0.0,0.000144,0.0,0.0,0.0,0.002116,2
1668538301425379345,359206,1668538301506315442,gps,2,1,42.3014361215,-83.6987278212,272.399993896,0.000121,0.0,0.0,0.0,0.000144,0.0,0.0,0.0,0.002116,2
1668538301435241612,359207,1668538301516369256,gps,2,1,42.3014358913,-83.6987276703,272.399902344,0.000121,0.0,0.0,0.0,0.000144,0.0,0.0,0.0,0.002116,2
1668538301445202151,359208,1668538301526380106,gps,2,1,42.3014356542,-83.6987275163,272.399749756,0.000121,0.0,0.0,0.0,0.000144,0.0,0.0,0.0,0.002116,2
1668538301455329011,359209,1668538301536293892,gps,2,1,42.3014354182,-83.6987273614,272.399658203,0.000121,0.0,0.0,0.0,0.000144,0.0,0.0,0.0,0.002116,2
1668538301465234485,359210,1668538301546503554,gps,2,1,42.3014351849,-83.6987272083,272.399627686,0.000121,0.0,0.0,0.0,0.000144,0.0,0.0,0.0,0.002116,2
1668538301475220383,359211,1668538301556336165,gps,2,1,42.3014349402,-83.6987270505,272.398956299,0.000121,0.0,0.0,0.0,0.000144,0.0,0.0,0.0,0.002116,2
1668538301485167599,359212,1668538301566288573,gps,2,1,42.3014347011,-83.6987268938,272.398864746,0.000121,0.0,0.0,0.0,0.000144,0.0,0.0,0.0,0.002116,2
1668538301495271215,359213,1668538301576323473,gps,2,1,42.3014344646,-83.6987267387,272.398773193,0.000121,0.0,0.0,0.0,0.000144,0.0,0.0,0.0,0.002116,2
1668538301505039347,359214,1668538301586294249,gps,2,1,42.301434217,-83.6987265792,272.398101807,0.000121,0.0,0.0,0.0,0.000144,0.0,0.0,0.0,0.002116,2
1668538301514968448,359215,1668538301596285865,gps,2,1,42.3014339749,-83.6987264206,272.397979736,0.000121,0.0,0.0,0.0,0.000144,0.0,0.0,0.0,0.002116,2
1668538301525056311,359216,1668538301606347474,gps,2,1,42.3014337353,-83.6987262636,272.397857666,0.000121,0.0,0.0,0.0,0.000144,0.0,0.0,0.0,0.002116,2
1668538301535050213,359217,1668538301616282449,gps,2,1,42.3014334849,-83.6987261023,272.397155762,0.000121,0.0,0.0,0.0,0.000144,0.0,0.0,0.0,0.002116,2
1668538301545423907,359218,1668538301626355059,gps,2,1,42.3014332397,-83.6987259423,272.397003174,0.000121,0.0,0.0,0.0,0.000144,0.0,0.0,0.0,0.002116,2
1668538301555297227,359219,1668538301636301547,gps,2,1,42.3014329971,-83.6987257835,272.396850586,0.000121,0.0,0.0,0.0,0.000144,0.0,0.0,0.0,0.002116,2
1668538301565246466,359220,1668538301646280858,gps,2,1,42.3014327447,-83.6987256208,272.396209717,0.000121,0.0,0.0,0.0,0.000144,0.0,0.0,0.0,0.002116,2
1668538301575239681,359221,1668538301656354068,gps,2,1,42.3014324966,-83.6987254589,272.395996094,0.000121,0.0,0.0,0.0,0.000144,0.0,0.0,0.0,0.002116,2
1668538301585303912,359222,1668538301666371833,gps,2,1,42.3014322506,-83.6987252985,272.395843506,0.000121,0.0,0.0,0.0,0.000144,0.0,0.0,0.0,0.002116,2
1668538301595255169,359223,1668538301676274059,gps,2,1,42.3014319955,-83.6987251341,272.395141602,0.000121,0.0,0.0,0.0,0.000144,0.0,0.0,0.0,0.002116,2
1668538301605079420,359224,1668538301686283061,gps,2,1,42.3014317443,-83.698724971,272.394927979,0.000121,0.0,0.0,0.0,0.000144,0.0,0.0,0.0,0.002116,2
1668538301615155973,359225,1668538301696347634,gps,2,1,42.3014314954,-83.698724809,272.394683838,0.000121,0.0,0.0,0.0,0.000144,0.0,0.0,0.0,0.002116,2
1668538301625160035,359226,1668538301706272989,gps,2,1,42.3014312375,-83.6987246434,272.393981934,0.000121,0.0,0.0,0.0,0.000144,0.0,0.0,0.0,0.002116,2
1668538301635152412,359227,1668538301716286731,gps,2,1,42.3014309834,-83.6987244783,272.393676758,0.000121,0.0,0.0,0.0,0.000144,0.0,0.0,0.0,0.002116,2
1668538301645182066,359228,1668538301726415965,gps,2,1,42.3014307316,-83.6987243148,272.3934021,0.000121,0.0,0.0,0.0,0.000144,0.0,0.0,0.0,0.002116,2
1668538301655212875,359229,1668538301736272066,gps,2,1,42.301430471,-83.6987241475,272.39263916,0.000121,0.0,0.0,0.0,0.000144,0.0,0.0,0.0,0.002116,2
1668538301664976090,359230,1668538301746274530,gps,2,1,42.301430214,-83.6987239815,272.392303467,0.000121,0.0,0.0,0.0,0.000144,0.0,0.0,0.0,0.002116,2
1668538301675405121,359231,1668538301756355516,gps,2,1,42.3014299595,-83.6987238162,272.391967773,0.000121,0.0,0.0,0.0,0.000144,0.0,0.0,0.0,0.002116,2
1668538301685341440,359232,1668538301766281036,gps,2,1,42.3014296961,-83.6987236477,272.391174316,0.000121,0.0,0.0,0.0,0.000144,0.0,0.0,0.0,0.002116,2
1668538301695132369,359233,1668538301776282783,gps,2,1,42.3014294363,-83.6987234798,272.390686035,0.000121,0.0,0.0,0.0,0.000144,0.0,0.0,0.0,0.002116,2
1668538301705388165,359234,1668538301786339312,gps,2,1,42.301429179,-83.6987233131,272.390319824,0.000121,0.0,0.0,0.0,0.000144,0.0,0.0,0.0,0.002116,2
1668538301715265745,359235,1668538301796457853,gps,2,1,42.3014289129,-83.6987231434,272.389465332,0.000121,0.0,0.0,0.0,0.000144,0.0,0.0,0.0,0.002116,2
1668538301725303206,359236,1668538301806290483,gps,2,1,42.3014286502,-83.698722975,272.389038086,0.000121,0.0,0.0,0.0,0.000144,0.0,0.0,0.0,0.002116,2
1668538301735259099,359237,1668538301816350555,gps,2,1,42.3014283899,-83.6987228073,272.388580322,0.000121,0.0,0.0,0.0,0.000144,0.0,0.0,0.0,0.002116,2
1668538301745136243,359238,1668538301826274063,gps,2,1,42.301428121,-83.6987226369,272.387756348,0.000121,0.0,0.0,0.0,0.000144,0.0,0.0,0.0,0.002116,2
1668538301755171115,359239,1668538301836281219,gps,2,1,42.3014278553,-83.6987224674,272.387298584,0.000121,0.0,0.0,0.0,0.000144,0.0,0.0,0.0,0.002116,2
1668538301765254887,359240,1668538301846343494,gps,2,1,42.3014275921,-83.6987222987,272.38684082,0.000121,0.0,0.0,0.0,0.000144,0.0,0.0,0.0,0.002116,2
1668538301775228482,359241,1668538301856270879,gps,2,1,42.3014273204,-83.6987221276,272.386077881,0.000121,0.0,0.0,0.0,0.000144,0.0,0.0,0.0,0.002116,2
1668538301785191897,359242,1668538301866280741,gps,2,1,42.3014270517,-83.6987219581,272.38571167,0.000121,0.0,0.0,0.0,0.000144,0.0,0.0,0.0,0.002116,2
1668538301795358872,359243,1668538301876352694,gps,2,1,42.3014267855,-83.6987217885,272.385284424,0.000121,0.0,0.0,0.0,0.000144,0.0,0.0,0.0,0.002116,2
1668538301804994309,359244,1668538301886262717,gps,2,1,42.301426511,-83.6987216171,272.384613037,0.000121,0.0,0.0,0.0,0.000144,0.0,0.0,0.0,0.002116,2
1668538301814922185,359245,1668538301896280271,gps,2,1,42.3014262394,-83.6987214461,272.384307861,0.000121,0.0,0.0,0.0,0.000144,0.0,0.0,0.0,0.002116,2
1668538301825389697,359246,1668538301906339752,gps,2,1,42.3014259702,-83.6987212761,272.38394165,0.000121,0.0,0.0,0.0,0.000144,0.0,0.0,0.0,0.002116,2
1668538301834916969,359247,1668538301916273290,gps,2,1,42.3014256931,-83.6987211034,272.383331299,0.000121,0.0,0.0,0.0,0.000144,0.0,0.0,0.0,0.002116,2
1668538301845317378,359248,1668538301926278054,gps,2,1,42.3014254189,-83.6987209315,272.383056641,0.000121,0.0,0.0,0.0,0.000144,0.0,0.0,0.0,0.002116,2
1668538301855185795,359249,1668538301936333944,gps,2,1,42.301425147,-83.6987207604,272.382751465,0.000121,0.0,0.0,0.0,0.000144,0.0,0.0,0.0,0.002116,2
1668538301865272844,359250,1668538301946274528,gps,2,1,42.3014248675,-83.6987205866,272.382202148,0.000121,0.0,0.0,0.0,0.000144,0.0,0.0,0.0,0.002116,2
1668538301875136423,359251,1668538301956272770,gps,2,1,42.3014245909,-83.6987204128,272.38192749,0.000121,0.0,0.0,0.0,0.000144,0.0,0.0,0.0,0.002116,2
1668538301885227203,359252,1668538301966345849,gps,2,1,42.3014243163,-83.6987202404,272.381652832,0.000121,0.0,0.0,0.0,0.000144,0.0,0.0,0.0,0.002116,2
1668538301895270991,359253,1668538301976355200,gps,2,1,42.3014240345,-83.6987200648,272.381134033,0.000121,0.0,0.0,0.0,0.000144,0.0,0.0,0.0,0.002116,2
1668538301905082681,359254,1668538301986258923,gps,2,1,42.3014237555,-83.6987198898,272.380889893,0.000121,0.0,0.0,0.0,0.000144,0.0,0.0,0.0,0.002116,2
1668538301915279508,359255,1668538301996381032,gps,2,1,42.3014234785,-83.6987197157,272.380615234,0.000121,0.0,0.0,0.0,0.000144,0.0,0.0,0.0,0.002116,2
1668538301925133820,359256,1668538302006353320,gps,2,1,42.3014231958,-83.69871954,272.380126953,0.000121,0.0,0.0,0.0,0.000144,0.0,0.0,0.0,0.002116,2
1668538301935170268,359257,1668538302016289237,gps,2,1,42.3014229144,-83.6987193634,272.379852295,0.000121,0.0,0.0,0.0,0.000144,0.0,0.0,0.0,0.002116,2
1668538301944991016,359258,1668538302026396264,gps,2,1,42.301422635,-83.6987191877,272.379608154,0.000121,0.0,0.0,0.0,0.000144,0.0,0.0,0.0,0.002116,2
1668538301954941009,359259,1668538302036350060,gps,2,1,42.30142235,-83.6987190109,272.379089355,0.000121,0.0,0.0,0.0,0.000144,0.0,0.0,0.0,0.002116,2
1668538301965316946,359260,1668538302046373116,gps,2,1,42.3014220664,-83.6987188337,272.378845215,0.000121,0.0,0.0,0.0,0.000144,0.0,0.0,0.0,0.002116,2
1668538301975395499,359261,1668538302056382517,gps,2,1,42.3014217845,-83.6987186571,272.378570557,0.000121,0.0,0.0,0.0,0.000144,0.0,0.0,0.0,0.002116,2
1668538301985354373,359262,1668538302066360722,gps,2,1,42.3014214972,-83.6987184794,272.378082275,0.000121,0.0,0.0,0.0,0.000144,0.0,0.0,0.0,0.002116,2
1668538301995399466,359263,1668538302076283089,gps,2,1,42.3014212111,-83.6987183013,272.377807617,0.000121,0.0,0.0,0.0,0.000144,0.0,0.0,0.0,0.002116,2
1668538302005201120,359264,1668538302086397551,gps,2,1,42.301420927,-83.698718124,272.377563477,0.000121,0.0,0.0,0.0,0.000144,0.0,0.0,0.0,0.002116,2
1668538302015220841,359265,1668538302096347215,gps,2,1,42.3014206373,-83.6987179458,272.377075195,0.000121,0.0,0.0,0.0,0.000144,0.0,0.0,0.0,0.002116,2
1668538302025138760,359266,1668538302106288231,gps,2,1,42.3014203488,-83.6987177678,272.37689209,0.000121,0.0,0.0,0.0,0.000144,0.0,0.0,0.0,0.002116,2
1668538302035114140,359267,1668538302116370495,gps,2,1,42.3014200622,-83.6987175894,272.376617432,0.000121,0.0,0.0,0.0,0.000144,0.0,0.0,0.0,0.002116,2
1668538302045300489,359268,1668538302126365562,gps,2,1,42.3014197702,-83.6987174109,272.376220703,0.000121,0.0,0.0,0.0,0.000144,0.0,0.0,0.0,0.002116,2
1668538302055078257,359269,1668538302136283487,gps,2,1,42.301419479,-83.6987172318,272.376068115,0.000121,0.0,0.0,0.0,0.000144,0.0,0.0,0.0,0.002116,2
1668538302065096865,359270,1668538302146362803,gps,2,1,42.3014191901,-83.6987170532,272.375854492,0.000121,0.0,0.0,0.0,0.000144,0.0,0.0,0.0,0.002116,2
1668538302075071560,359271,1668538302156333671,gps,2,1,42.3014188968,-83.6987168727,272.375518799,0.000121,0.0,0.0,0.0,0.000144,0.0,0.0,0.0,0.002116,2
1668538302085064508,359272,1668538302166271050,gps,2,1,42.3014186034,-83.6987166936,272.375427246,0.000121,0.0,0.0,0.0,0.000144,0.0,0.0,0.0,0.002116,2
1668538302095187260,359273,1668538302176386442,gps,2,1,42.3014183119,-83.6987165147,272.375274658,0.000121,0.0,0.0,0.0,0.000144,0.0,0.0,0.0,0.002116,2
1668538302105416390,359274,1668538302186368786,gps,2,1,42.3014180162,-83.698716334,272.375030518,0.000121,0.0,0.0,0.0,0.000144,0.0,0.0,0.0,0.002116,2
1668538302115428519,359275,1668538302196298084,gps,2,1,42.3014177203,-83.698716154,272.374938965,0.000121,0.0,0.0,0.0,0.000144,0.0,0.0,0.0,0.002116,2
1668538302125391892,359276,1668538302206351824,gps,2,1,42.3014174266,-83.6987159748,272.37487793,8.1e-05,0.0,0.0,0.0,0.0001,0.0,0.0,0.0,0.002025,2
1668538302135342899,359277,1668538302216278457,gps,2,1,42.3014171286,-83.6987157934,272.374633789,8.1e-05,0.0,0.0,0.0,0.0001,0.0,0.0,0.0,0.002025,2
1668538302145269115,359278,1668538302226363358,gps,2,1,42.3014168305,-83.6987156135,272.374603271,8.1e-05,0.0,0.0,0.0,0.0001,0.0,0.0,0.0,0.002025,2
1668538302155137209,359279,1668538302236326873,gps,2,1,42.3014165343,-83.6987154335,272.374542236,8.1e-05,0.0,0.0,0.0,0.0001,0.0,0.0,0.0,0.002025,2
1668538302165079647,359280,1668538302246272460,gps,2,1,42.3014162342,-83.6987152518,272.374328613,8.1e-05,0.0,0.0,0.0,0.0001,0.0,0.0,0.0,0.002025,2
1668538302175162062,359281,1668538302256300621,gps,2,1,42.3014159339,-83.6987150707,272.374267578,8.1e-05,0.0,0.0,0.0,0.0001,0.0,0.0,0.0,0.002025,2
1668538302185215747,359282,1668538302266336217,gps,2,1,42.3014156354,-83.6987148904,272.374237061,8.1e-05,0.0,0.0,0.0,0.0001,0.0,0.0,0.0,0.002025,2
1668538302195092896,359283,1668538302276258383,gps,2,1,42.3014153331,-83.6987147079,272.374053955,8.1e-05,0.0,0.0,0.0,0.0001,0.0,0.0,0.0,0.002025,2
1668538302205143132,359284,1668538302286271830,gps,2,1,42.3014150309,-83.6987145267,272.374023438,8.1e-05,0.0,0.0,0.0,0.0001,0.0,0.0,0.0,0.002025,2
1668538302215077148,359285,1668538302296426715,gps,2,1,42.3014147302,-83.6987143456,272.37399292,8.1e-05,0.0,0.0,0.0,0.0001,0.0,0.0,0.0,0.002025,2
1668538302224971721,359286,1668538302306262449,gps,2,1,42.3014144259,-83.6987141625,272.373809814,8.1e-05,0.0,0.0,0.0,0.0001,0.0,0.0,0.0,0.002025,2
1668538302235160680,359287,1668538302316286973,gps,2,1,42.3014141214,-83.6987139801,272.373748779,8.1e-05,0.0,0.0,0.0,0.0001,0.0,0.0,0.0,0.002025,2
1668538302245591023,359288,1668538302326335466,gps,2,1,42.3014138188,-83.6987137986,272.373687744,8.1e-05,0.0,0.0,0.0,0.0001,0.0,0.0,0.0,0.002025,2
1668538302255063832,359289,1668538302336278987,gps,2,1,42.3014135124,-83.6987136146,272.373504639,8.1e-05,0.0,0.0,0.0,0.0001,0.0,0.0,0.0,0.002025,2
1668538302265244966,359290,1668538302346275755,gps,2,1,42.3014132061,-83.6987134316,272.373443604,8.1e-05,0.0,0.0,0.0,0.0001,0.0,0.0,0.0,0.002025,2
1668538302275425037,359291,1668538302356344176,gps,2,1,42.3014129013,-83.6987132491,272.373352051,8.1e-05,0.0,0.0,0.0,0.0001,0.0,0.0,0.0,0.002025,2
1668538302285329332,359292,1668538302366272138,gps,2,1,42.3014125931,-83.6987130644,272.373168945,8.1e-05,0.0,0.0,0.0,0.0001,0.0,0.0,0.0,0.002025,2
1668538302295328034,359293,1668538302376345861,gps,2,1,42.3014122848,-83.6987128801,272.373077393,8.1e-05,0.0,0.0,0.0,0.0001,0.0,0.0,0.0,0.002025,2
1668538302305195667,359294,1668538302386274679,gps,2,1,42.3014119781,-83.6987126969,272.37298584,8.1e-05,0.0,0.0,0.0,0.0001,0.0,0.0,0.0,0.002025,2
1668538302315086038,359295,1668538302396269405,gps,2,1,42.3014116695,-83.6987125094,272.372802734,8.1e-05,0.0,0.0,0.0,0.0001,0.0,0.0,0.0,0.002025,2
1668538302325176762,359296,1668538302406277872,gps,2,1,42.3014113593,-83.6987123251,272.372680664,8.1e-05,0.0,0.0,0.0,0.0001,0.0,0.0,0.0,0.002025,2
1668538302335214326,359297,1668538302416321273,gps,2,1,42.3014110505,-83.6987121411,272.372589111,8.1e-05,0.0,0.0,0.0,0.0001,0.0,0.0,0.0,0.002025,2
1668538302345141226,359298,1668538302426258010,gps,2,1,42.3014107397,-83.6987119536,272.372375488,8.1e-05,0.0,0.0,0.0,0.0001,0.0,0.0,0.0,0.002025,2
1668538302355339826,359299,1668538302436262257,gps,2,1,42.301410427,-83.6987117689,272.372192383,8.1e-05,0.0,0.0,0.0,0.0001,0.0,0.0,0.0,0.002025,2
1668538302365021098,359300,1668538302446381965,gps,2,1,42.3014101164,-83.6987115844,272.372070312,8.1e-05,0.0,0.0,0.0,0.0001,0.0,0.0,0.0,0.002025,2
1668538302375122083,359301,1668538302456300695,gps,2,1,42.3014098032,-83.6987113969,272.371826172,8.1e-05,0.0,0.0,0.0,0.0001,0.0,0.0,0.0,0.002025,2
1668538302385009288,359302,1668538302466274842,gps,2,1,42.301409488,-83.6987112128,272.371612549,8.1e-05,0.0,0.0,0.0,0.0001,0.0,0.0,0.0,0.002025,2
1668538302395157880,359303,1668538302476417597,gps,2,1,42.3014091749,-83.6987110284,272.371429443,8.1e-05,0.0,0.0,0.0,0.0001,0.0,0.0,0.0,0.002025,2
1668538302405234598,359304,1668538302486260434,gps,2,1,42.3014088592,-83.6987108415,272.37121582,8.1e-05,0.0,0.0,0.0,0.0001,0.0,0.0,0.0,0.002025,2
1668538302415367735,359305,1668538302496412712,gps,2,1,42.3014085415,-83.6987106577,272.37097168,8.1e-05,0.0,0.0,0.0,0.0001,0.0,0.0,0.0,0.002025,2
1668538302425169090,359306,1668538302506297216,gps,2,1,42.3014082259,-83.6987104733,272.370727539,8.1e-05,0.0,0.0,0.0,0.0001,0.0,0.0,0.0,0.002025,2
1668538302435215221,359307,1668538302516326512,gps,2,1,42.3014079179,-83.6987102771,272.371337891,8.1e-05,0.0,0.0,0.0,0.0001,0.0,0.0,0.0,0.002025,2
1668538302445322889,359308,1668538302526404299,gps,2,1,42.3014075977,-83.6987100941,272.371063232,8.1e-05,0.0,0.0,0.0,0.0001,0.0,0.0,0.0,0.002025,2
1668538302455216153,359309,1668538302536276590,gps,2,1,42.3014072798,-83.6987099103,272.370819092,8.1e-05,0.0,0.0,0.0,0.0001,0.0,0.0,0.0,0.002025,2
1668538302465292787,359310,1668538302546439808,gps,2,1,42.3014069691,-83.698709715,272.371398926,8.1e-05,0.0,0.0,0.0,0.0001,0.0,0.0,0.0,0.002025,2
1668538302475332217,359311,1668538302556422468,gps,2,1,42.3014066469,-83.6987095323,272.371124268,8.1e-05,0.0,0.0,0.0,0.0001,0.0,0.0,0.0,0.002025,2
1668538302485198735,359312,1668538302566280503,gps,2,1,42.3014063262,-83.6987093492,272.370849609,8.1e-05,0.0,0.0,0.0,0.0001,0.0,0.0,0.0,0.002025,2
1668538302495207698,359313,1668538302576245629,gps,2,1,42.3014060129,-83.6987091545,272.371398926,8.1e-05,0.0,0.0,0.0,0.0001,0.0,0.0,0.0,0.002025,2
1668538302505076459,359314,1668538302586322110,gps,2,1,42.3014056886,-83.698708972,272.371124268,8.1e-05,0.0,0.0,0.0,0.0001,0.0,0.0,0.0,0.002025,2
1668538302515300644,359315,1668538302596256099,gps,2,1,42.3014053661,-83.6987087894,272.370880127,8.1e-05,0.0,0.0,0.0,0.0001,0.0,0.0,0.0,0.002025,2
1668538302525144014,359316,1668538302606264140,gps,2,1,42.3014050505,-83.6987085952,272.371368408,8.1e-05,0.0,0.0,0.0,0.0001,0.0,0.0,0.0,0.002025,2
1668538302534999655,359317,1668538302616268873,gps,2,1,42.3014047241,-83.698708413,272.371063232,8.1e-05,0.0,0.0,0.0,0.0001,0.0,0.0,0.0,0.002025,2
1668538302545230015,359318,1668538302626358759,gps,2,1,42.3014043994,-83.6987082302,272.370819092,8.1e-05,0.0,0.0,0.0,0.0001,0.0,0.0,0.0,0.002025,2
1668538302555304437,359319,1668538302636267912,gps,2,1,42.3014040805,-83.698708038,272.37121582,8.1e-05,0.0,0.0,0.0,0.0001,0.0,0.0,0.0,0.002025,2
1668538302565334022,359320,1668538302646307938,gps,2,1,42.3014037519,-83.6987078557,272.370880127,8.1e-05,0.0,0.0,0.0,0.0001,0.0,0.0,0.0,0.002025,2
1668538302575311561,359321,1668538302656355333,gps,2,1,42.3014034251,-83.6987076733,272.370544434,8.1e-05,0.0,0.0,0.0,0.0001,0.0,0.0,0.0,0.002025,2
1668538302585286927,359322,1668538302666279879,gps,2,1,42.3014031036,-83.6987074815,272.370880127,8.1e-05,0.0,0.0,0.0,0.0001,0.0,0.0,0.0,0.002025,2
1668538302595247624,359323,1668538302676323441,gps,2,1,42.3014027728,-83.6987072992,272.370483398,8.1e-05,0.0,0.0,0.0,0.0001,0.0,0.0,0.0,0.002025,2
1668538302605144746,359324,1668538302686274262,gps,2,1,42.3014024439,-83.6987071171,272.370147705,8.1e-05,0.0,0.0,0.0,0.0001,0.0,0.0,0.0,0.002025,2
1668538302615166109,359325,1668538302696256815,gps,2,1,42.3014021199,-83.6987069254,272.370391846,8.1e-05,0.0,0.0,0.0,0.0001,0.0,0.0,0.0,0.002025,2
1668538302625337622,359326,1668538302706326276,gps,2,1,42.3014017868,-83.6987067429,272.369995117,8.1e-05,0.0,0.0,0.0,0.0001,0.0,0.0,0.0,0.002025,2
1668538302635160721,359327,1668538302716253769,gps,2,1,42.3014014557,-83.6987065606,272.369598389,8.1e-05,0.0,0.0,0.0,0.0001,0.0,0.0,0.0,0.002025,2
1668538302645117760,359328,1668538302726337512,gps,2,1,42.3014011294,-83.6987063687,272.369812012,8.1e-05,0.0,0.0,0.0,0.0001,0.0,0.0,0.0,0.002025,2
1668538302655048740,359329,1668538302736319102,gps,2,1,42.3014007944,-83.6987061854,272.369384766,8.1e-05,0.0,0.0,0.0,0.0001,0.0,0.0,0.0,0.002025,2
1668538302665024730,359330,1668538302746271789,gps,2,1,42.3014004611,-83.6987060027,272.36895752,8.1e-05,0.0,0.0,0.0,0.0001,0.0,0.0,0.0,0.002025,2
1668538302675267687,359331,1668538302756284591,gps,2,1,42.3014001327,-83.6987058103,272.369140625,8.1e-05,0.0,0.0,0.0,0.0001,0.0,0.0,0.0,0.002025,2
1668538302685060570,359332,1668538302766272086,gps,2,1,42.301399796,-83.6987056262,272.368713379,8.1e-05,0.0,0.0,0.0,0.0001,0.0,0.0,0.0,0.002025,2
1668538302695357358,359333,1668538302776333069,gps,2,1,42.3013994608,-83.6987054428,272.368286133,8.1e-05,0.0,0.0,0.0,0.0001,0.0,0.0,0.0,0.002025,2
1668538302705275969,359334,1668538302786267073,gps,2,1,42.3013991304,-83.6987052499,272.368438721,8.1e-05,0.0,0.0,0.0,0.0001,0.0,0.0,0.0,0.002025,2
1668538302715332852,359335,1668538302796421953,gps,2,1,42.3013987918,-83.6987050655,272.368011475,8.1e-05,0.0,0.0,0.0,0.0001,0.0,0.0,0.0,0.002025,2
1668538302725345747,359336,1668538302806300066,gps,2,1,42.3013984549,-83.6987048812,272.367584229,8.1e-05,0.0,0.0,0.0,0.0001,0.0,0.0,0.0,0.002025,2
1668538302735161059,359337,1668538302816262529,gps,2,1,42.3013981225,-83.6987046882,272.367767334,8.1e-05,0.0,0.0,0.0,0.0001,0.0,0.0,0.0,0.002025,2
1668538302745249319,359338,1668538302826332829,gps,2,1,42.3013977822,-83.6987045036,272.367401123,8.1e-05,0.0,0.0,0.0,0.0001,0.0,0.0,0.0,0.002025,2
1668538302755139627,359339,1668538302836271560,gps,2,1,42.3013974434,-83.6987043189,272.366973877,8.1e-05,0.0,0.0,0.0,0.0001,0.0,0.0,0.0,0.002025,2
1668538302765155060,359340,1668538302846244126,gps,2,1,42.3013971091,-83.6987041261,272.367156982,8.1e-05,0.0,0.0,0.0,0.0001,0.0,0.0,0.0,0.002025,2
1668538302775247492,359341,1668538302856344014,gps,2,1,42.3013967669,-83.6987039414,272.366790771,8.1e-05,0.0,0.0,0.0,0.0001,0.0,0.0,0.0,0.002025,2
1668538302785187424,359342,1668538302866256095,gps,2,1,42.3013964264,-83.6987037565,272.366424561,8.1e-05,0.0,0.0,0.0,0.0001,0.0,0.0,0.0,0.002025,2
1668538302795224705,359343,1668538302876244398,gps,2,1,42.3013960891,-83.6987035648,272.366607666,8.1e-05,0.0,0.0,0.0,0.0001,0.0,0.0,0.0,0.002025,2
1668538302804998846,359344,1668538302886346746,gps,2,1,42.301395745,-83.6987033807,272.366241455,8.1e-05,0.0,0.0,0.0,0.0001,0.0,0.0,0.0,0.002025,2
1668538302815121541,359345,1668538302896265933,gps,2,1,42.3013954027,-83.6987031964,272.365875244,8.1e-05,0.0,0.0,0.0,0.0001,0.0,0.0,0.0,0.002025,2
1668538302825073460,359346,1668538302906259999,gps,2,1,42.3013950633,-83.6987030054,272.366027832,8.1e-05,0.0,0.0,0.0,0.0001,0.0,0.0,0.0,0.002025,2
1668538302835316131,359347,1668538302916262021,gps,2,1,42.3013947176,-83.6987028221,272.365661621,8.1e-05,0.0,0.0,0.0,0.0001,0.0,0.0,0.0,0.002025,2
1668538302845392468,359348,1668538302926322046,gps,2,1,42.3013943734,-83.6987026379,272.365325928,8.1e-05,0.0,0.0,0.0,0.0001,0.0,0.0,0.0,0.002025,2
1668538302855276358,359349,1668538302936261926,gps,2,1,42.301394032,-83.6987024478,272.365447998,8.1e-05,0.0,0.0,0.0,0.0001,0.0,0.0,0.0,0.002025,2
1668538302865210191,359350,1668538302946324702,gps,2,1,42.3013936842,-83.6987022648,272.365112305,8.1e-05,0.0,0.0,0.0,0.0001,0.0,0.0,0.0,0.002025,2
1668538302875270698,359351,1668538302956263632,gps,2,1,42.3013933382,-83.6987020813,272.364746094,8.1e-05,0.0,0.0,0.0,0.0001,0.0,0.0,0.0,0.002025,2
1668538302885198870,359352,1668538302966265790,gps,2,1,42.3013929947,-83.698701892,272.364898682,8.1e-05,0.0,0.0,0.0,0.0001,0.0,0.0,0.0,0.002025,2
1668538302895192835,359353,1668538302976412744,gps,2,1,42.3013926452,-83.6987017095,272.364654541,8.1e-05,0.0,0.0,0.0,0.0001,0.0,0.0,0.0,0.002025,2
1668538302905126708,359354,1668538302986255837,gps,2,1,42.3013922972,-83.6987015269,272.364318848,8.1e-05,0.0,0.0,0.0,0.0001,0.0,0.0,0.0,0.002025,2
1668538302915179740,359355,1668538302996258644,gps,2,1,42.3013919518,-83.6987013381,272.364532471,8.1e-05,0.0,0.0,0.0,0.0001,0.0,0.0,0.0,0.002025,2
1668538302925280507,359356,1668538303006377397,gps,2,1,42.3013916003,-83.6987011561,272.36428833,8.1e-05,0.0,0.0,0.0,0.0001,0.0,0.0,0.0,0.002025,2
1668538302935129571,359357,1668538303016384997,gps,2,1,42.3013912505,-83.698700974,272.364074707,8.1e-05,0.0,0.0,0.0,0.0001,0.0,0.0,0.0,0.002025,2
1668538302945123693,359358,1668538303026280588,gps,2,1,42.3013909051,-83.6987007895,272.364624023,8.1e-05,0.0,0.0,0.0,0.0001,0.0,0.0,0.0,0.002025,2
1668538302954952510,359359,1668538303036308154,gps,2,1,42.301390552,-83.6987006076,272.364379883,8.1e-05,0.0,0.0,0.0,0.0001,0.0,0.0,0.0,0.002025,2
1668538302965381495,359360,1668538303046472647,gps,2,1,42.3013902003,-83.6987004254,272.364135742,8.1e-05,0.0,0.0,0.0,0.0001,0.0,0.0,0.0,0.002025,2
1668538302975176936,359361,1668538303056264459,gps,2,1,42.301389853,-83.6987002411,272.364624023,8.1e-05,0.0,0.0,0.0,0.0001,0.0,0.0,0.0,0.002025,2
1668538302985100040,359362,1668538303066315017,gps,2,1,42.3013894982,-83.6987000592,272.364318848,8.1e-05,0.0,0.0,0.0,0.0001,0.0,0.0,0.0,0.002025,2
1668538302995296949,359363,1668538303076405834,gps,2,1,42.3013891449,-83.6986998773,272.364044189,8.1e-05,0.0,0.0,0.0,0.0001,0.0,0.0,0.0,0.002025,2
1668538303005158729,359364,1668538303086285875,gps,2,1,42.3013887958,-83.6986996932,272.364501953,8.1e-05,0.0,0.0,0.0,0.0001,0.0,0.0,0.0,0.002025,2
1668538303015153981,359365,1668538303096268538,gps,2,1,42.3013884396,-83.6986995116,272.364196777,8.1e-05,0.0,0.0,0.0,0.0001,0.0,0.0,0.0,0.002025,2
1668538303025368296,359366,1668538303106322102,gps,2,1,42.3013880843,-83.6986993298,272.363861084,8.1e-05,0.0,0.0,0.0,0.0001,0.0,0.0,0.0,0.002025,2
1668538303035213086,359367,1668538303116262708,gps,2,1,42.3013877333,-83.6986991459,272.36428833,8.1e-05,0.0,0.0,0.0,0.0001,0.0,0.0,0.0,0.002025,2
1668538303045159247,359368,1668538303126272639,gps,2,1,42.3013873752,-83.6986989643,272.364013672,8.1e-05,0.0,0.0,0.0,0.0001,0.0,0.0,0.0,0.002025,2
1668538303055171648,359369,1668538303136302363,gps,2,1,42.3013870185,-83.6986987831,272.363708496,8.1e-05,0.0,0.0,0.0,0.0001,0.0,0.0,0.0,0.002025,2
1668538303065133433,359370,1668538303146305229,gps,2,1,42.3013866657,-83.6986985996,272.364074707,8.1e-05,0.0,0.0,0.0,0.0001,0.0,0.0,0.0,0.002025,2
1668538303075242776,359371,1668538303156256617,gps,2,1,42.3013863063,-83.6986984185,272.363769531,8.1e-05,0.0,0.0,0.0,0.0001,0.0,0.0,0.0,0.002025,2
1668538303085101193,359372,1668538303166317584,gps,2,1,42.3013859475,-83.6986982373,272.363464355,8.1e-05,0.0,0.0,0.0,0.0001,0.0,0.0,0.0,0.002025,2
1668538303095145874,359373,1668538303176257419,gps,2,1,42.301385592,-83.6986980553,272.363830566,8.1e-05,0.0,0.0,0.0,0.0001,0.0,0.0,0.0,0.002025,2
1668538303105125424,359374,1668538303186265780,gps,2,1,42.3013852308,-83.6986978749,272.363464355,8.1e-05,0.0,0.0,0.0,0.0001,0.0,0.0,0.0,0.002025,2
1668538303115168458,359375,1668538303196322050,gps,2,1,42.3013848708,-83.6986976942,272.363128662,8.1e-05,0.0,0.0,0.0,0.0001,0.0,0.0,0.0,0.002025,2
1668538303125505036,359376,1668538303206271740,gps,2,1,42.3013845136,-83.6986975132,272.363433838,0.000169,0.0,0.0,0.0,0.000225,0.0,0.0,0.0,0.002116,2
1668538303135308931,359377,1668538303216262762,gps,2,1,42.3013841508,-83.6986973342,272.363098145,0.000169,0.0,0.0,0.0,0.000225,0.0,0.0,0.0,0.002116,2
1668538303145310473,359378,1668538303226411534,gps,2,1,42.3013837893,-83.6986971539,272.362701416,0.000169,0.0,0.0,0.0,0.000225,0.0,0.0,0.0,0.002116,2
1668538303155121949,359379,1668538303236253547,gps,2,1,42.3013834302,-83.6986969744,272.362976074,0.000169,0.0,0.0,0.0,0.000225,0.0,0.0,0.0,0.002116,2
1668538303165191161,359380,1668538303246276210,gps,2,1,42.3013830654,-83.698696797,272.362640381,0.000169,0.0,0.0,0.0,0.000225,0.0,0.0,0.0,0.002116,2
1668538303175395447,359381,1668538303256337309,gps,2,1,42.3013827027,-83.698696618,272.362304688,0.000169,0.0,0.0,0.0,0.000225,0.0,0.0,0.0,0.002116,2
1668538303185209714,359382,1668538303266269558,gps,2,1,42.3013823419,-83.6986964398,272.362609863,0.000169,0.0,0.0,0.0,0.000225,0.0,0.0,0.0,0.002116,2
1668538303195175607,359383,1668538303276261085,gps,2,1,42.3013819761,-83.698696263,272.362426758,0.000169,0.0,0.0,0.0,0.000225,0.0,0.0,0.0,0.002116,2
1668538303205144118,359384,1668538303286311467,gps,2,1,42.3013816112,-83.6986960859,272.362060547,0.000169,0.0,0.0,0.0,0.000225,0.0,0.0,0.0,0.002116,2
1668538303215096118,359385,1668538303296355241,gps,2,1,42.3013812489,-83.6986959083,272.362457275,0.000169,0.0,0.0,0.0,0.000225,0.0,0.0,0.0,0.002116,2
1668538303225149164,359386,1668538303306262301,gps,2,1,42.3013808815,-83.6986957327,272.362304688,0.000169,0.0,0.0,0.0,0.000225,0.0,0.0,0.0,0.002116,2
1668538303235241222,359387,1668538303316325978,gps,2,1,42.3013805152,-83.6986955561,272.362060547,0.000169,0.0,0.0,0.0,0.000225,0.0,0.0,0.0,0.002116,2
1668538303244995229,359388,1668538303326256315,gps,2,1,42.3013801512,-83.6986953796,272.362457275,0.000169,0.0,0.0,0.0,0.000225,0.0,0.0,0.0,0.002116,2
1668538303255093677,359389,1668538303336321017,gps,2,1,42.3013797819,-83.6986952048,272.362182617,0.000169,0.0,0.0,0.0,0.000225,0.0,0.0,0.0,0.002116,2
1668538303265338527,359390,1668538303346270579,gps,2,1,42.3013794142,-83.698695029,272.362030029,0.000169,0.0,0.0,0.0,0.000225,0.0,0.0,0.0,0.002116,2
1668538303275451803,359391,1668538303356274152,gps,2,1,42.3013790484,-83.6986948534,272.362243652,0.000169,0.0,0.0,0.0,0.000225,0.0,0.0,0.0,0.002116,2
1668538303285164872,359392,1668538303366278879,gps,2,1,42.3013786773,-83.6986946795,272.361785889,0.000169,0.0,0.0,0.0,0.000225,0.0,0.0,0.0,0.002116,2
1668538303295324387,359393,1668538303376343391,gps,2,1,42.3013783078,-83.6986945049,272.361480713,0.000169,0.0,0.0,0.0,0.000225,0.0,0.0,0.0,0.002116,2
1668538303305162338,359394,1668538303386257068,gps,2,1,42.3013779383,-83.6986943316,272.361480713,0.000169,0.0,0.0,0.0,0.000225,0.0,0.0,0.0,0.002116,2
1668538303315160825,359395,1668538303396256752,gps,2,1,42.3013775655,-83.698694159,272.360870361,0.000169,0.0,0.0,0.0,0.000225,0.0,0.0,0.0,0.002116,2
1668538303325354204,359396,1668538303406307763,gps,2,1,42.3013771943,-83.698693985,272.360412598,0.000169,0.0,0.0,0.0,0.000225,0.0,0.0,0.0,0.002116,2
1668538303335183352,359397,1668538303416245715,gps,2,1,42.3013768232,-83.6986938128,272.360229492,0.000169,0.0,0.0,0.0,0.000225,0.0,0.0,0.0,0.002116,2
1668538303345158197,359398,1668538303426246083,gps,2,1,42.3013764493,-83.698693641,272.359527588,0.000169,0.0,0.0,0.0,0.000225,0.0,0.0,0.0,0.002116,2
1668538303355248541,359399,1668538303436306776,gps,2,1,42.3013760764,-83.6986934685,272.358947754,0.000169,0.0,0.0,0.0,0.000225,0.0,0.0,0.0,0.002116,2
1668538303365036282,359400,1668538303446337179,gps,2,1,42.3013757039,-83.6986932971,272.358673096,0.000169,0.0,0.0,0.0,0.000225,0.0,0.0,0.0,0.002116,2
1668538303375265615,359401,1668538303456333274,gps,2,1,42.3013753283,-83.6986931262,272.357940674,0.000169,0.0,0.0,0.0,0.000225,0.0,0.0,0.0,0.002116,2
1668538303385191250,359402,1668538303466258793,gps,2,1,42.3013749541,-83.6986929549,272.35723877,0.000169,0.0,0.0,0.0,0.000225,0.0,0.0,0.0,0.002116,2
1668538303395437340,359403,1668538303476335340,gps,2,1,42.30137458,-83.698692784,272.356933594,0.000169,0.0,0.0,0.0,0.000225,0.0,0.0,0.0,0.002116,2
1668538303405412681,359404,1668538303486248072,gps,2,1,42.3013742029,-83.6986926133,272.356201172,0.000169,0.0,0.0,0.0,0.000225,0.0,0.0,0.0,0.002116,2
1668538303415457612,359405,1668538303496415285,gps,2,1,42.301373827,-83.6986924421,272.35546875,0.000169,0.0,0.0,0.0,0.000225,0.0,0.0,0.0,0.002116,2
1668538303425353018,359406,1668538303506301345,gps,2,1,42.301373442,-83.6986922837,272.354797363,0.000169,0.0,0.0,0.0,0.000225,0.0,0.0,0.0,0.002116,2
1668538303435203517,359407,1668538303516267058,gps,2,1,42.3013730636,-83.6986921131,272.354064941,0.000169,0.0,0.0,0.0,0.000225,0.0,0.0,0.0,0.002116,2
1668538303445297055,359408,1668538303526363976,gps,2,1,42.3013726863,-83.6986919424,272.35333252,0.000169,0.0,0.0,0.0,0.000225,0.0,0.0,0.0,0.002116,2
1668538303455245334,359409,1668538303536329439,gps,2,1,42.3013723005,-83.698691784,272.352722168,0.000169,0.0,0.0,0.0,0.000225,0.0,0.0,0.0,0.002116,2
1668538303465239576,359410,1668538303546404870,gps,2,1,42.3013719206,-83.6986916139,272.352050781,0.000169,0.0,0.0,0.0,0.000225,0.0,0.0,0.0,0.002116,2
1668538303475277031,359411,1668538303556358266,gps,2,1,42.301371542,-83.6986914435,272.351379395,0.000169,0.0,0.0,0.0,0.000225,0.0,0.0,0.0,0.002116,2
1668538303485234780,359412,1668538303566323575,gps,2,1,42.3013711549,-83.6986912851,272.350830078,0.000169,0.0,0.0,0.0,0.000225,0.0,0.0,0.0,0.002116,2
1668538303495261607,359413,1668538303576282663,gps,2,1,42.3013707736,-83.6986911156,272.350280762,0.000169,0.0,0.0,0.0,0.000225,0.0,0.0,0.0,0.002116,2
1668538303505144487,359414,1668538303586334790,gps,2,1,42.3013703935,-83.6986909457,272.349639893,0.000169,0.0,0.0,0.0,0.000225,0.0,0.0,0.0,0.002116,2
1668538303514995353,359415,1668538303596258592,gps,2,1,42.3013700052,-83.6986907875,272.349151611,0.000169,0.0,0.0,0.0,0.000225,0.0,0.0,0.0,0.002116,2
1668538303525564041,359416,1668538303606353505,gps,2,1,42.3013696226,-83.6986906188,272.34866333,0.000169,0.0,0.0,0.0,0.000225,0.0,0.0,0.0,0.002116,2
1668538303534937527,359417,1668538303616258888,gps,2,1,42.301369241,-83.6986904493,272.348114014,0.000169,0.0,0.0,0.0,0.000225,0.0,0.0,0.0,0.002116,2
1668538303545429231,359418,1668538303626249969,gps,2,1,42.301368851,-83.6986902917,272.347686768,0.000169,0.0,0.0,0.0,0.000225,0.0,0.0,0.0,0.002116,2
1668538303555524606,359419,1668538303636311999,gps,2,1,42.3013684666,-83.6986901235,272.347198486,0.000169,0.0,0.0,0.0,0.000225,0.0,0.0,0.0,0.002116,2
1668538303565311952,359420,1668538303646255497,gps,2,1,42.301368084,-83.698689955,272.346710205,0.000169,0.0,0.0,0.0,0.000225,0.0,0.0,0.0,0.002116,2
1668538303575241267,359421,1668538303656248522,gps,2,1,42.3013676927,-83.6986897979,272.346252441,0.000169,0.0,0.0,0.0,0.000225,0.0,0.0,0.0,0.002116,2
1668538303585176212,359422,1668538303666259290,gps,2,1,42.3013673071,-83.6986896309,272.34576416,0.000169,0.0,0.0,0.0,0.000225,0.0,0.0,0.0,0.002116,2
1668538303595321016,359423,1668538303676388095,gps,2,1,42.3013669223,-83.6986894631,272.345245361,0.000169,0.0,0.0,0.0,0.000225,0.0,0.0,0.0,0.002116,2
1668538303605202225,359424,1668538303686268259,gps,2,1,42.3013665297,-83.6986893065,272.344787598,0.000169,0.0,0.0,0.0,0.000225,0.0,0.0,0.0,0.002116,2
1668538303615159696,359425,1668538303696271532,gps,2,1,42.3013661423,-83.6986891406,272.344268799,0.000169,0.0,0.0,0.0,0.000225,0.0,0.0,0.0,0.002116,2
1668538303625327374,359426,1668538303706301010,gps,2,1,42.3013657564,-83.6986889733,272.343780518,0.000169,0.0,0.0,0.0,0.000225,0.0,0.0,0.0,0.002116,2
1668538303635173487,359427,1668538303716240540,gps,2,1,42.3013653629,-83.6986888171,272.343353271,0.000169,0.0,0.0,0.0,0.000225,0.0,0.0,0.0,0.002116,2
1668538303645082384,359428,1668538303726399073,gps,2,1,42.3013649745,-83.6986886507,272.34286499,0.000169,0.0,0.0,0.0,0.000225,0.0,0.0,0.0,0.002116,2
1668538303655183657,359429,1668538303736238595,gps,2,1,42.3013645872,-83.6986884845,272.342376709,0.000169,0.0,0.0,0.0,0.000225,0.0,0.0,0.0,0.002116,2
1668538303664975615,359430,1668538303746248751,gps,2,1,42.3013641928,-83.6986883277,272.341949463,0.000169,0.0,0.0,0.0,0.000225,0.0,0.0,0.0,0.002116,2
1668538303675220056,359431,1668538303756324796,gps,2,1,42.3013638036,-83.6986881612,272.341491699,0.000169,0.0,0.0,0.0,0.000225,0.0,0.0,0.0,0.002116,2
1668538303685363008,359432,1668538303766258836,gps,2,1,42.3013634152,-83.6986879954,272.341033936,0.000169,0.0,0.0,0.0,0.000225,0.0,0.0,0.0,0.002116,2
1668538303694996277,359433,1668538303776243334,gps,2,1,42.3013630197,-83.698687838,272.340576172,0.000169,0.0,0.0,0.0,0.000225,0.0,0.0,0.0,0.002116,2
1668538303705263618,359434,1668538303786245818,gps,2,1,42.3013626288,-83.6986876716,272.340026855,0.000169,0.0,0.0,0.0,0.000225,0.0,0.0,0.0,0.002116,2
1668538303715277991,359435,1668538303796400277,gps,2,1,42.3013622394,-83.698687505,272.339538574,0.000169,0.0,0.0,0.0,0.000225,0.0,0.0,0.0,0.002116,2
1668538303725287450,359436,1668538303806249395,gps,2,1,42.3013618427,-83.6986873472,272.338989258,0.000169,0.0,0.0,0.0,0.000225,0.0,0.0,0.0,0.002116,2
1668538303735140129,359437,1668538303816257158,gps,2,1,42.3013614506,-83.6986871806,272.338409424,0.000169,0.0,0.0,0.0,0.000225,0.0,0.0,0.0,0.002116,2
1668538303745224249,359438,1668538303826321412,gps,2,1,42.3013610595,-83.6986870137,272.33782959,0.000169,0.0,0.0,0.0,0.000225,0.0,0.0,0.0,0.002116,2
1668538303755155069,359439,1668538303836262579,gps,2,1,42.3013606615,-83.698686856,272.337310791,0.000169,0.0,0.0,0.0,0.000225,0.0,0.0,0.0,0.002116,2
1668538303765295982,359440,1668538303846302291,gps,2,1,42.3013602675,-83.69868669,272.336730957,0.000169,0.0,0.0,0.0,0.000225,0.0,0.0,0.0,0.002116,2
1668538303775375832,359441,1668538303856245310,gps,2,1,42.3013598748,-83.6986865239,272.336120605,0.000169,0.0,0.0,0.0,0.000225,0.0,0.0,0.0,0.002116,2
1668538303785075099,359442,1668538303866224358,gps,2,1,42.3013594753,-83.6986863667,272.335632324,0.000169,0.0,0.0,0.0,0.000225,0.0,0.0,0.0,0.002116,2
1668538303795339362,359443,1668538303876323447,gps,2,1,42.3013590795,-83.6986862021,272.33505249,0.000169,0.0,0.0,0.0,0.000225,0.0,0.0,0.0,0.002116,2
1668538303804982783,359444,1668538303886253929,gps,2,1,42.301358685,-83.6986860365,272.334472656,0.000169,0.0,0.0,0.0,0.000225,0.0,0.0,0.0,0.002116,2
1668538303814931399,359445,1668538303896243487,gps,2,1,42.3013582817,-83.6986858816,272.33392334,0.000169,0.0,0.0,0.0,0.000225,0.0,0.0,0.0,0.002116,2
1668538303825493817,359446,1668538303906312885,gps,2,1,42.3013578842,-83.6986857182,272.333343506,0.000169,0.0,0.0,0.0,0.000225,0.0,0.0,0.0,0.002116,2
1668538303835352293,359447,1668538303916243520,gps,2,1,42.301357488,-83.6986855538,272.332763672,0.000169,0.0,0.0,0.0,0.000225,0.0,0.0,0.0,0.002116,2
1668538303844959019,359448,1668538303926235484,gps,2,1,42.3013570832,-83.6986854,272.332214355,0.000169,0.0,0.0,0.0,0.000225,0.0,0.0,0.0,0.002116,2
1668538303855111286,359449,1668538303936237750,gps,2,1,42.301356684,-83.6986852382,272.331695557,0.000169,0.0,0.0,0.0,0.000225,0.0,0.0,0.0,0.002116,2
1668538303865168668,359450,1668538303946306655,gps,2,1,42.3013562862,-83.6986850746,272.331115723,0.000169,0.0,0.0,0.0,0.000225,0.0,0.0,0.0,0.002116,2
1668538303875285274,359451,1668538303956240156,gps,2,1,42.30135588,-83.6986849222,272.330596924,0.000169,0.0,0.0,0.0,0.000225,0.0,0.0,0.0,0.002116,2
1668538303885281783,359452,1668538303966313671,gps,2,1,42.3013554793,-83.6986847616,272.330108643,0.000169,0.0,0.0,0.0,0.000225,0.0,0.0,0.0,0.002116,2
1668538303895362084,359453,1668538303976324173,gps,2,1,42.30135508,-83.6986846001,272.329559326,0.000169,0.0,0.0,0.0,0.000225,0.0,0.0,0.0,0.002116,2
1668538303905130304,359454,1668538303986225005,gps,2,1,42.3013546723,-83.698684449,272.32901001,0.000169,0.0,0.0,0.0,0.000225,0.0,0.0,0.0,0.002116,2
1668538303915104569,359455,1668538303996351839,gps,2,1,42.3013542698,-83.6986842906,272.328430176,0.000169,0.0,0.0,0.0,0.000225,0.0,0.0,0.0,0.002116,2
1668538303925242945,359456,1668538304006354749,gps,2,1,42.3013538689,-83.6986841306,272.327911377,0.000169,0.0,0.0,0.0,0.000225,0.0,0.0,0.0,0.002116,2
1668538303935053711,359457,1668538304016283529,gps,2,1,42.30135345,-83.6986839904,272.326782227,0.000169,0.0,0.0,0.0,0.000225,0.0,0.0,0.0,0.002116,2
1668538303945521655,359458,1668538304026367397,gps,2,1,42.3013530461,-83.6986838341,272.326171875,0.000169,0.0,0.0,0.0,0.000225,0.0,0.0,0.0,0.002116,2
1668538303955378402,359459,1668538304036297872,gps,2,1,42.3013526432,-83.6986836761,272.325592041,0.000169,0.0,0.0,0.0,0.000225,0.0,0.0,0.0,0.002116,2
1668538303965384197,359460,1668538304046348826,gps,2,1,42.3013522234,-83.6986835372,272.324432373,0.000169,0.0,0.0,0.0,0.000225,0.0,0.0,0.0,0.002116,2
1668538303975569120,359461,1668538304056347278,gps,2,1,42.3013518179,-83.6986833827,272.323822021,0.000169,0.0,0.0,0.0,0.000225,0.0,0.0,0.0,0.002116,2
1668538303985406468,359462,1668538304066300614,gps,2,1,42.3013514136,-83.6986832268,272.323181152,0.000169,0.0,0.0,0.0,0.000225,0.0,0.0,0.0,0.002116,2
1668538303995368564,359463,1668538304076307649,gps,2,1,42.3013509928,-83.698683089,272.32208252,0.000169,0.0,0.0,0.0,0.000225,0.0,0.0,0.0,0.002116,2
1668538304005278653,359464,1668538304086327456,gps,2,1,42.3013505859,-83.6986829363,272.321472168,0.000169,0.0,0.0,0.0,0.000225,0.0,0.0,0.0,0.002116,2
1668538304015120639,359465,1668538304096247199,gps,2,1,42.30135018,-83.6986827818,272.320861816,0.000169,0.0,0.0,0.0,0.000225,0.0,0.0,0.0,0.002116,2
1668538304025303259,359466,1668538304106244584,gps,2,1,42.3013497585,-83.698682645,272.319793701,0.000169,0.0,0.0,0.0,0.000225,0.0,0.0,0.0,0.002116,2
1668538304035309718,359467,1668538304116306282,gps,2,1,42.3013493502,-83.6986824934,272.31918335,0.000169,0.0,0.0,0.0,0.000225,0.0,0.0,0.0,0.002116,2
1668538304045156458,359468,1668538304126233847,gps,2,1,42.3013489428,-83.6986823406,272.318572998,0.000169,0.0,0.0,0.0,0.000225,0.0,0.0,0.0,0.002116,2
1668538304055144580,359469,1668538304136250949,gps,2,1,42.3013485179,-83.6986822047,272.317474365,0.000169,0.0,0.0,0.0,0.000225,0.0,0.0,0.0,0.002116,2
1668538304065093823,359470,1668538304146285528,gps,2,1,42.3013481085,-83.698682054,272.316864014,0.000169,0.0,0.0,0.0,0.000225,0.0,0.0,0.0,0.002116,2
1668538304075140781,359471,1668538304156251472,gps,2,1,42.3013476999,-83.6986819026,272.31628418,0.000169,0.0,0.0,0.0,0.000225,0.0,0.0,0.0,0.002116,2
1668538304085093319,359472,1668538304166253792,gps,2,1,42.3013472744,-83.698681767,272.315216064,0.000169,0.0,0.0,0.0,0.000225,0.0,0.0,0.0,0.002116,2
1668538304095367299,359473,1668538304176301442,gps,2,1,42.3013468638,-83.698681617,272.31463623,0.000169,0.0,0.0,0.0,0.000225,0.0,0.0,0.0,0.002116,2
1668538304104936144,359474,1668538304186240222,gps,2,1,42.3013464539,-83.6986814667,272.314025879,0.000169,0.0,0.0,0.0,0.000225,0.0,0.0,0.0,0.002116,2
1668538304115279534,359475,1668538304196240883,gps,2,1,42.3013460278,-83.6986813312,272.312988281,0.000169,0.0,0.0,0.0,0.000225,0.0,0.0,0.0,0.002116,2
1668538304125557778,359476,1668538304206262464,gps,2,1,42.3013456159,-83.6986811818,272.312438965,0.000169,0.0,0.0,0.0,0.000324,0.0,0.0,0.0,0.002116,2
1668538304135286518,359477,1668538304216310159,gps,2,1,42.301345205,-83.6986810319,272.311859131,0.000169,0.0,0.0,0.0,0.000324,0.0,0.0,0.0,0.002116,2
1668538304145215040,359478,1668538304226322473,gps,2,1,42.3013447783,-83.6986808967,272.310882568,0.000169,0.0,0.0,0.0,0.000324,0.0,0.0,0.0,0.002116,2
1668538304155304183,359479,1668538304236298319,gps,2,1,42.3013443656,-83.6986807486,272.31036377,0.000169,0.0,0.0,0.0,0.000324,0.0,0.0,0.0,0.002116,2
1668538304165095755,359480,1668538304246241936,gps,2,1,42.3013439534,-83.6986805993,272.309814453,0.000169,0.0,0.0,0.0,0.000324,0.0,0.0,0.0,0.002116,2
1668538304175274844,359481,1668538304256253593,gps,2,1,42.3013435262,-83.698680465,272.308837891,0.000169,0.0,0.0,0.0,0.000324,0.0,0.0,0.0,0.002116,2
1668538304185266041,359482,1668538304266318084,gps,2,1,42.3013431121,-83.6986803185,272.308288574,0.000169,0.0,0.0,0.0,0.000324,0.0,0.0,0.0,0.002116,2
1668538304195127736,359483,1668538304276227758,gps,2,1,42.3013426991,-83.6986801705,272.307739258,0.000169,0.0,0.0,0.0,0.000324,0.0,0.0,0.0,0.002116,2
1668538304205134306,359484,1668538304286226871,gps,2,1,42.301342271,-83.6986800376,272.306793213,0.000169,0.0,0.0,0.0,0.000324,0.0,0.0,0.0,0.002116,2
1668538304215440758,359485,1668538304296395924,gps,2,1,42.3013418558,-83.698679893,272.306182861,0.000169,0.0,0.0,0.0,0.000324,0.0,0.0,0.0,0.002116,2
1668538304225131295,359486,1668538304306247861,gps,2,1,42.3013414415,-83.6986797463,272.305664062,0.000169,0.0,0.0,0.0,0.000324,0.0,0.0,0.0,0.002116,2
1668538304235186357,359487,1668538304316245387,gps,2,1,42.3013410128,-83.6986796151,272.304718018,0.000169,0.0,0.0,0.0,0.000324,0.0,0.0,0.0,0.002116,2
1668538304244924838,359488,1668538304326245540,gps,2,1,42.3013405966,-83.6986794723,272.304199219,0.000169,0.0,0.0,0.0,0.000324,0.0,0.0,0.0,0.002116,2
1668538304255434712,359489,1668538304336301934,gps,2,1,42.3013401811,-83.6986793278,272.303649902,0.000169,0.0,0.0,0.0,0.000324,0.0,0.0,0.0,0.002116,2
1668538304265308989,359490,1668538304346247073,gps,2,1,42.301339752,-83.6986791978,272.302825928,0.000169,0.0,0.0,0.0,0.000324,0.0,0.0,0.0,0.002116,2
1668538304275485600,359491,1668538304356274651,gps,2,1,42.3013393349,-83.6986790565,272.302368164,0.000169,0.0,0.0,0.0,0.000324,0.0,0.0,0.0,0.002116,2
1668538304285311885,359492,1668538304366311247,gps,2,1,42.3013389185,-83.6986789141,272.3019104,0.000169,0.0,0.0,0.0,0.000324,0.0,0.0,0.0,0.002116,2
1668538304295121449,359493,1668538304376239249,gps,2,1,42.3013384863,-83.6986787859,272.301055908,0.000169,0.0,0.0,0.0,0.000324,0.0,0.0,0.0,0.002116,2
1668538304305312810,359494,1668538304386246914,gps,2,1,42.3013380684,-83.6986786458,272.300628662,0.000169,0.0,0.0,0.0,0.000324,0.0,0.0,0.0,0.002116,2
1668538304315203546,359495,1668538304396297965,gps,2,1,42.301337651,-83.6986785047,272.300170898,0.000169,0.0,0.0,0.0,0.000324,0.0,0.0,0.0,0.002116,2
1668538304325255269,359496,1668538304406245412,gps,2,1,42.3013372185,-83.6986783773,272.299285889,0.000169,0.0,0.0,0.0,0.000324,0.0,0.0,0.0,0.002116,2
1668538304335258684,359497,1668538304416286346,gps,2,1,42.3013367999,-83.6986782387,272.29876709,0.000169,0.0,0.0,0.0,0.000324,0.0,0.0,0.0,0.002116,2
1668538304345098304,359498,1668538304426234116,gps,2,1,42.3013363817,-83.6986780988,272.298370361,0.000169,0.0,0.0,0.0,0.000324,0.0,0.0,0.0,0.002116,2
1668538304355229791,359499,1668538304436222257,gps,2,1,42.301335949,-83.6986779726,272.297393799,0.000169,0.0,0.0,0.0,0.000324,0.0,0.0,0.0,0.002116,2
1668538304365025263,359500,1668538304446321219,gps,2,1,42.3013355296,-83.6986778359,272.296783447,0.000169,0.0,0.0,0.0,0.000324,0.0,0.0,0.0,0.002116,2
1668538304375270747,359501,1668538304456314100,gps,2,1,42.3013351109,-83.6986776977,272.296234131,0.000169,0.0,0.0,0.0,0.000324,0.0,0.0,0.0,0.002116,2
1668538304385036684,359502,1668538304466241081,gps,2,1,42.3013346779,-83.698677573,272.295166016,0.000169,0.0,0.0,0.0,0.000324,0.0,0.0,0.0,0.002116,2
1668538304395369274,359503,1668538304476329706,gps,2,1,42.3013342578,-83.6986774379,272.294464111,0.000169,0.0,0.0,0.0,0.000324,0.0,0.0,0.0,0.002116,2
1668538304405371117,359504,1668538304486298357,gps,2,1,42.3013338382,-83.6986773016,272.293823242,0.000169,0.0,0.0,0.0,0.000324,0.0,0.0,0.0,0.002116,2
1668538304415302713,359505,1668538304496233625,gps,2,1,42.301333405,-83.6986771784,272.292724609,0.000169,0.0,0.0,0.0,0.000324,0.0,0.0,0.0,0.002116,2
1668538304425293025,359506,1668538304506306896,gps,2,1,42.3013329843,-83.6986770458,272.292022705,0.000169,0.0,0.0,0.0,0.000324,0.0,0.0,0.0,0.002116,2
1668538304435340978,359507,1668538304516358538,gps,2,1,42.3013325639,-83.6986769114,272.291290283,0.000169,0.0,0.0,0.0,0.000324,0.0,0.0,0.0,0.002116,2
1668538304445141676,359508,1668538304526261443,gps,2,1,42.3013321305,-83.69867679,272.29019165,0.000169,0.0,0.0,0.0,0.000324,0.0,0.0,0.0,0.002116,2
1668538304455184660,359509,1668538304536254213,gps,2,1,42.3013317087,-83.6986766592,272.289428711,0.000169,0.0,0.0,0.0,0.000324,0.0,0.0,0.0,0.002116,2
1668538304465219985,359510,1668538304546435663,gps,2,1,42.3013312879,-83.6986765268,272.288726807,0.000169,0.0,0.0,0.0,0.000324,0.0,0.0,0.0,0.002116,2
1668538304475252984,359511,1668538304556332456,gps,2,1,42.3013308389,-83.6986764124,272.286743164,0.000169,0.0,0.0,0.0,0.000324,0.0,0.0,0.0,0.002116,2
1668538304485213082,359512,1668538304566248470,gps,2,1,42.3013304165,-83.6986762843,272.285980225,0.000169,0.0,0.0,0.0,0.000324,0.0,0.0,0.0,0.002116,2
