%time,field.header.seq,field.header.stamp,field.header.frame_id,field.status.status,field.status.service,field.latitude,field.longitude,field.altitude,field.position_covariance0,field.position_covariance1,field.position_covariance2,field.position_covariance3,field.position_covariance4,field.position_covariance5,field.position_covariance6,field.position_covariance7,field.position_covariance8,field.position_covariance_type
1668539403865752877,469450,1668539403950124952,gps,2,1,42.3003180633,-83.6985989217,271.007904053,6.4e-05,0.0,0.0,0.0,8.1e-05,0.0,0.0,0.0,0.001444,2
1668539403875906467,469451,1668539403959970251,gps,2,1,42.3003180628,-83.6985989222,271.007904053,6.4e-05,0.0,0.0,0.0,8.1e-05,0.0,0.0,0.0,0.001444,2
1668539403885754025,469452,1668539403969995693,gps,2,1,42.3003180637,-83.6985989213,271.007904053,6.4e-05,0.0,0.0,0.0,8.1e-05,0.0,0.0,0.0,0.001444,2
1668539403896205624,469453,1668539403980040989,gps,2,1,42.3003180631,-83.6985989217,271.007904053,6.4e-05,0.0,0.0,0.0,8.1e-05,0.0,0.0,0.0,0.001444,2
1668539403906017619,469454,1668539403989982193,gps,2,1,42.3003180626,-83.6985989221,271.007904053,6.4e-05,0.0,0.0,0.0,8.1e-05,0.0,0.0,0.0,0.001444,2
1668539403915732846,469455,1668539404000022714,gps,2,1,42.3003180635,-83.6985989213,271.007904053,6.4e-05,0.0,0.0,0.0,8.1e-05,0.0,0.0,0.0,0.001444,2
1668539403926229665,469456,1668539404010120208,gps,2,1,42.3003180629,-83.6985989217,271.007904053,6.4e-05,0.0,0.0,0.0,8.1e-05,0.0,0.0,0.0,0.001444,2
1668539403936179532,469457,1668539404020172145,gps,2,1,42.3003180624,-83.6985989221,271.007904053,6.4e-05,0.0,0.0,0.0,8.1e-05,0.0,0.0,0.0,0.001444,2
1668539403946169967,469458,1668539404030039978,gps,2,1,42.3003180651,-83.6985989197,271.007843018,6.4e-05,0.0,0.0,0.0,8.1e-05,0.0,0.0,0.0,0.001444,2
1668539403955952865,469459,1668539404040057281,gps,2,1,42.3003180646,-83.69859892,271.007843018,6.4e-05,0.0,0.0,0.0,8.1e-05,0.0,0.0,0.0,0.001444,2
1668539403966090396,469460,1668539404050040392,gps,2,1,42.3003180641,-83.6985989204,271.007843018,6.4e-05,0.0,0.0,0.0,8.1e-05,0.0,0.0,0.0,0.001444,2
1668539403975869020,469461,1668539404060019458,gps,2,1,42.3003180668,-83.6985989181,271.007751465,6.4e-05,0.0,0.0,0.0,8.1e-05,0.0,0.0,0.0,0.001444,2
1668539403986030332,469462,1668539404070059776,gps,2,1,42.3003180663,-83.6985989184,271.007751465,6.4e-05,0.0,0.0,0.0,8.1e-05,0.0,0.0,0.0,0.001444,2
1668539403995799821,469463,1668539404080060123,gps,2,1,42.3003180658,-83.6985989188,271.007751465,6.4e-05,0.0,0.0,0.0,8.1e-05,0.0,0.0,0.0,0.001444,2
1668539404005772763,469464,1668539404089997387,gps,2,1,42.3003180683,-83.6985989165,271.007659912,6.4e-05,0.0,0.0,0.0,8.1e-05,0.0,0.0,0.0,0.001444,2
1668539404016012354,469465,1668539404099984835,gps,2,1,42.3003180678,-83.6985989169,271.007659912,6.4e-05,0.0,0.0,0.0,8.1e-05,0.0,0.0,0.0,0.001444,2
1668539404025622466,469466,1668539404110045234,gps,2,1,42.3003180673,-83.6985989172,271.007659912,6.4e-05,0.0,0.0,0.0,8.1e-05,0.0,0.0,0.0,0.001444,2
1668539404035781695,469467,1668539404119975611,gps,2,1,42.3003180697,-83.6985989151,271.007598877,6.4e-05,0.0,0.0,0.0,8.1e-05,0.0,0.0,0.0,0.001444,2
1668539404046042737,469468,1668539404129986002,gps,2,1,42.3003180692,-83.6985989154,271.007568359,6.4e-05,0.0,0.0,0.0,8.1e-05,0.0,0.0,0.0,0.001444,2
1668539404055674913,469469,1668539404140073570,gps,2,1,42.3003180687,-83.6985989158,271.007568359,6.4e-05,0.0,0.0,0.0,8.1e-05,0.0,0.0,0.0,0.001444,2
1668539404066153927,469470,1668539404149982036,gps,2,1,42.3003180709,-83.6985989137,271.007507324,6.4e-05,0.0,0.0,0.0,8.1e-05,0.0,0.0,0.0,0.001444,2
1668539404076143386,469471,1668539404160010111,gps,2,1,42.3003180703,-83.698598914,271.007507324,6.4e-05,0.0,0.0,0.0,8.1e-05,0.0,0.0,0.0,0.001444,2
1668539404086045634,469472,1668539404170056378,gps,2,1,42.3003180698,-83.6985989144,271.007507324,6.4e-05,0.0,0.0,0.0,8.1e-05,0.0,0.0,0.0,0.001444,2
1668539404095692896,469473,1668539404179980553,gps,2,1,42.3003180719,-83.6985989124,271.007446289,6.4e-05,0.0,0.0,0.0,8.1e-05,0.0,0.0,0.0,0.001444,2
1668539404106228818,469474,1668539404190006430,gps,2,1,42.3003180713,-83.6985989128,271.007446289,6.4e-05,0.0,0.0,0.0,8.1e-05,0.0,0.0,0.0,0.001444,2
1668539404116414775,469475,1668539404200116927,gps,2,1,42.3003180708,-83.6985989131,271.007415771,6.4e-05,0.0,0.0,0.0,8.1e-05,0.0,0.0,0.0,0.001444,2
1668539404125945023,469476,1668539404209972669,gps,2,1,42.3003180727,-83.6985989112,271.007354736,0.000121,0.0,0.0,0.0,0.000144,0.0,0.0,0.0,0.001521,2
1668539404135934794,469477,1668539404219976070,gps,2,1,42.3003180722,-83.6985989116,271.007354736,0.000121,0.0,0.0,0.0,0.000144,0.0,0.0,0.0,0.001521,2
1668539404145760540,469478,1668539404230045195,gps,2,1,42.3003180717,-83.6985989119,271.007354736,0.000121,0.0,0.0,0.0,0.000144,0.0,0.0,0.0,0.001521,2
1668539404156174492,469479,1668539404239972431,gps,2,1,42.3003180736,-83.69859891,271.007293701,0.000121,0.0,0.0,0.0,0.000144,0.0,0.0,0.0,0.001521,2
1668539404165756297,469480,1668539404249991990,gps,2,1,42.300318073,-83.6985989104,271.007293701,0.000121,0.0,0.0,0.0,0.000144,0.0,0.0,0.0,0.001521,2
1668539404176064457,469481,1668539404260059242,gps,2,1,42.3003180725,-83.6985989107,271.007293701,0.000121,0.0,0.0,0.0,0.000144,0.0,0.0,0.0,0.001521,2
1668539404186278665,469482,1668539404270075541,gps,2,1,42.3003180743,-83.6985989089,271.007232666,0.000121,0.0,0.0,0.0,0.000144,0.0,0.0,0.0,0.001521,2
1668539404195744845,469483,1668539404279984260,gps,2,1,42.3003180738,-83.6985989092,271.007232666,0.000121,0.0,0.0,0.0,0.000144,0.0,0.0,0.0,0.001521,2
1668539404206080193,469484,1668539404290109902,gps,2,1,42.3003180733,-83.6985989096,271.007232666,0.000121,0.0,0.0,0.0,0.000144,0.0,0.0,0.0,0.001521,2
1668539404216085214,469485,1668539404300009159,gps,2,1,42.300318075,-83.6985989077,271.007171631,0.000121,0.0,0.0,0.0,0.000144,0.0,0.0,0.0,0.001521,2
1668539404225869638,469486,1668539404310008991,gps,2,1,42.3003180746,-83.6985989081,271.007171631,0.000121,0.0,0.0,0.0,0.000144,0.0,0.0,0.0,0.001521,2
1668539404236056536,469487,1668539404320051483,gps,2,1,42.300318074,-83.6985989084,271.007171631,0.000121,0.0,0.0,0.0,0.000144,0.0,0.0,0.0,0.001521,2
1668539404245855739,469488,1668539404329984594,gps,2,1,42.3003180758,-83.6985989066,271.007110596,0.000121,0.0,0.0,0.0,0.000144,0.0,0.0,0.0,0.001521,2
1668539404255659486,469489,1668539404339977208,gps,2,1,42.3003180753,-83.6985989069,271.007110596,0.000121,0.0,0.0,0.0,0.000144,0.0,0.0,0.0,0.001521,2
1668539404265996981,469490,1668539404350038903,gps,2,1,42.3003180747,-83.6985989072,271.007110596,0.000121,0.0,0.0,0.0,0.000144,0.0,0.0,0.0,0.001521,2
1668539404275916386,469491,1668539404359981198,gps,2,1,42.3003180764,-83.6985989055,271.007080078,0.000121,0.0,0.0,0.0,0.000144,0.0,0.0,0.0,0.001521,2
1668539404285819698,469492,1668539404369968849,gps,2,1,42.3003180759,-83.6985989058,271.007049561,0.000121,0.0,0.0,0.0,0.000144,0.0,0.0,0.0,0.001521,2
1668539404295924260,469493,1668539404380101508,gps,2,1,42.3003180754,-83.6985989061,271.007049561,0.000121,0.0,0.0,0.0,0.000144,0.0,0.0,0.0,0.001521,2
1668539404305712472,469494,1668539404390049093,gps,2,1,42.3003180771,-83.6985989047,271.007019043,0.000121,0.0,0.0,0.0,0.000144,0.0,0.0,0.0,0.001521,2
1668539404315638263,469495,1668539404400010360,gps,2,1,42.3003180767,-83.698598905,271.006988525,0.000121,0.0,0.0,0.0,0.000144,0.0,0.0,0.0,0.001521,2
1668539404326242043,469496,1668539404410043376,gps,2,1,42.3003180762,-83.6985989053,271.006988525,0.000121,0.0,0.0,0.0,0.000144,0.0,0.0,0.0,0.001521,2
1668539404335749673,469497,1668539404419983477,gps,2,1,42.3003180778,-83.6985989039,271.006958008,0.000121,0.0,0.0,0.0,0.000144,0.0,0.0,0.0,0.001521,2
1668539404346069338,469498,1668539404429987929,gps,2,1,42.3003180773,-83.6985989043,271.006958008,0.000121,0.0,0.0,0.0,0.000144,0.0,0.0,0.0,0.001521,2
1668539404355774985,469499,1668539404440049238,gps,2,1,42.3003180769,-83.6985989046,271.00692749,0.000121,0.0,0.0,0.0,0.000144,0.0,0.0,0.0,0.001521,2
1668539404366255589,469500,1668539404450142023,gps,2,1,42.3003180785,-83.6985989033,271.006896973,0.000121,0.0,0.0,0.0,0.000144,0.0,0.0,0.0,0.001521,2
1668539404376040811,469501,1668539404460014356,gps,2,1,42.300318078,-83.6985989036,271.006896973,0.000121,0.0,0.0,0.0,0.000144,0.0,0.0,0.0,0.001521,2
1668539404386036007,469502,1668539404470047225,gps,2,1,42.3003180775,-83.698598904,271.006866455,0.000121,0.0,0.0,0.0,0.000144,0.0,0.0,0.0,0.001521,2
1668539404395927866,469503,1668539404479977465,gps,2,1,42.300318079,-83.6985989027,271.006835938,0.000121,0.0,0.0,0.0,0.000144,0.0,0.0,0.0,0.001521,2
1668539404406156149,469504,1668539404489986424,gps,2,1,42.3003180786,-83.698598903,271.006835938,0.000121,0.0,0.0,0.0,0.000144,0.0,0.0,0.0,0.001521,2
1668539404415979021,469505,1668539404500093304,gps,2,1,42.3003180781,-83.6985989033,271.00680542,0.000121,0.0,0.0,0.0,0.000144,0.0,0.0,0.0,0.001521,2
1668539404425882641,469506,1668539404510063727,gps,2,1,42.3003180798,-83.6985989012,271.006835938,0.000121,0.0,0.0,0.0,0.000144,0.0,0.0,0.0,0.001521,2
1668539404436053629,469507,1668539404520104810,gps,2,1,42.3003180794,-83.6985989015,271.00680542,0.000121,0.0,0.0,0.0,0.000144,0.0,0.0,0.0,0.001521,2
1668539404445864448,469508,1668539404530090819,gps,2,1,42.3003180789,-83.6985989018,271.00680542,0.000121,0.0,0.0,0.0,0.000144,0.0,0.0,0.0,0.001521,2
1668539404455836243,469509,1668539404540071571,gps,2,1,42.3003180806,-83.6985988998,271.006835938,0.000121,0.0,0.0,0.0,0.000144,0.0,0.0,0.0,0.001521,2
1668539404466319097,469510,1668539404550039443,gps,2,1,42.30031808,-83.6985989,271.00680542,0.000121,0.0,0.0,0.0,0.000144,0.0,0.0,0.0,0.001521,2
1668539404476131064,469511,1668539404560066013,gps,2,1,42.3003180796,-83.6985989003,271.00680542,0.000121,0.0,0.0,0.0,0.000144,0.0,0.0,0.0,0.001521,2
1668539404486359782,469512,1668539404569976310,gps,2,1,42.3003180812,-83.6985988983,271.00680542,0.000121,0.0,0.0,0.0,0.000144,0.0,0.0,0.0,0.001521,2
1668539404495883142,469513,1668539404580049256,gps,2,1,42.3003180806,-83.6985988986,271.00680542,0.000121,0.0,0.0,0.0,0.000144,0.0,0.0,0.0,0.001521,2
1668539404505987063,469514,1668539404590060973,gps,2,1,42.3003180802,-83.6985988988,271.00680542,0.000121,0.0,0.0,0.0,0.000144,0.0,0.0,0.0,0.001521,2
1668539404515647939,469515,1668539404599985379,gps,2,1,42.3003180817,-83.6985988969,271.00680542,0.000121,0.0,0.0,0.0,0.000144,0.0,0.0,0.0,0.001521,2
1668539404526071497,469516,1668539404609994769,gps,2,1,42.3003180812,-83.6985988972,271.00680542,0.000121,0.0,0.0,0.0,0.000144,0.0,0.0,0.0,0.001521,2
1668539404536451884,469517,1668539404620064058,gps,2,1,42.3003180807,-83.6985988974,271.006774902,0.000121,0.0,0.0,0.0,0.000144,0.0,0.0,0.0,0.001521,2
1668539404546150857,469518,1668539404630000517,gps,2,1,42.3003180821,-83.6985988954,271.00680542,0.000121,0.0,0.0,0.0,0.000144,0.0,0.0,0.0,0.001521,2
1668539404556265374,469519,1668539404639974884,gps,2,1,42.3003180816,-83.6985988956,271.00680542,0.000121,0.0,0.0,0.0,0.000144,0.0,0.0,0.0,0.001521,2
1668539404566256601,469520,1668539404650051334,gps,2,1,42.3003180811,-83.6985988959,271.00680542,0.000121,0.0,0.0,0.0,0.000144,0.0,0.0,0.0,0.001521,2
1668539404575706814,469521,1668539404659965550,gps,2,1,42.3003180825,-83.6985988939,271.00680542,0.000121,0.0,0.0,0.0,0.000144,0.0,0.0,0.0,0.001521,2
1668539404585801573,469522,1668539404669975523,gps,2,1,42.3003180821,-83.698598894,271.00680542,0.000121,0.0,0.0,0.0,0.000144,0.0,0.0,0.0,0.001521,2
1668539404596043888,469523,1668539404680039827,gps,2,1,42.3003180816,-83.6985988943,271.00680542,0.000121,0.0,0.0,0.0,0.000144,0.0,0.0,0.0,0.001521,2
1668539404605724400,469524,1668539404689988751,gps,2,1,42.300318083,-83.6985988923,271.006835938,0.000121,0.0,0.0,0.0,0.000144,0.0,0.0,0.0,0.001521,2
1668539404616084068,469525,1668539404700091859,gps,2,1,42.3003180825,-83.6985988925,271.006835938,0.000121,0.0,0.0,0.0,0.000144,0.0,0.0,0.0,0.001521,2
1668539404626138113,469526,1668539404710047543,gps,2,1,42.3003180821,-83.6985988926,271.00680542,0.000121,0.0,0.0,0.0,0.000144,0.0,0.0,0.0,0.001521,2
1668539404635761437,469527,1668539404719984360,gps,2,1,42.3003180835,-83.6985988907,271.006835938,0.000121,0.0,0.0,0.0,0.000144,0.0,0.0,0.0,0.001521,2
1668539404645670419,469528,1668539404729987118,gps,2,1,42.3003180831,-83.6985988908,271.006835938,0.000121,0.0,0.0,0.0,0.000144,0.0,0.0,0.0,0.001521,2
1668539404656432594,469529,1668539404740042380,gps,2,1,42.3003180826,-83.698598891,271.006835938,0.000121,0.0,0.0,0.0,0.000144,0.0,0.0,0.0,0.001521,2
1668539404666116456,469530,1668539404749986193,gps,2,1,42.3003180839,-83.6985988891,271.006866455,0.000121,0.0,0.0,0.0,0.000144,0.0,0.0,0.0,0.001521,2
1668539404676297999,469531,1668539404760009096,gps,2,1,42.3003180835,-83.6985988892,271.006835938,0.000121,0.0,0.0,0.0,0.000144,0.0,0.0,0.0,0.001521,2
1668539404686301670,469532,1668539404770131043,gps,2,1,42.3003180831,-83.6985988894,271.006835938,0.000121,0.0,0.0,0.0,0.000144,0.0,0.0,0.0,0.001521,2
1668539404696019912,469533,1668539404779972221,gps,2,1,42.3003180843,-83.6985988875,271.006866455,0.000121,0.0,0.0,0.0,0.000144,0.0,0.0,0.0,0.001521,2
1668539404706291057,469534,1668539404790001455,gps,2,1,42.3003180839,-83.6985988877,271.006866455,0.000121,0.0,0.0,0.0,0.000144,0.0,0.0,0.0,0.001521,2
1668539404716068874,469535,1668539404800040238,gps,2,1,42.3003180834,-83.6985988879,271.006866455,0.000121,0.0,0.0,0.0,0.000144,0.0,0.0,0.0,0.001521,2
1668539404725835154,469536,1668539404809977654,gps,2,1,42.3003180846,-83.6985988861,271.006866455,0.000121,0.0,0.0,0.0,0.000144,0.0,0.0,0.0,0.001521,2
1668539404735876753,469537,1668539404820010336,gps,2,1,42.3003180841,-83.6985988863,271.006866455,0.000121,0.0,0.0,0.0,0.000144,0.0,0.0,0.0,0.001521,2
1668539404746394212,469538,1668539404830046593,gps,2,1,42.3003180837,-83.6985988865,271.006866455,0.000121,0.0,0.0,0.0,0.000144,0.0,0.0,0.0,0.001521,2
1668539404755908672,469539,1668539404839973421,gps,2,1,42.3003180849,-83.6985988848,271.006866455,0.000121,0.0,0.0,0.0,0.000144,0.0,0.0,0.0,0.001521,2
1668539404766338104,469540,1668539404850005638,gps,2,1,42.3003180844,-83.6985988851,271.006866455,0.000121,0.0,0.0,0.0,0.000144,0.0,0.0,0.0,0.001521,2
1668539404775886751,469541,1668539404860044208,gps,2,1,42.3003180839,-83.6985988853,271.006866455,0.000121,0.0,0.0,0.0,0.000144,0.0,0.0,0.0,0.001521,2
1668539404785957245,469542,1668539404869998758,gps,2,1,42.300318085,-83.6985988837,271.006866455,0.000121,0.0,0.0,0.0,0.000144,0.0,0.0,0.0,0.001521,2
1668539404796296970,469543,1668539404880071633,gps,2,1,42.3003180845,-83.6985988839,271.006866455,0.000121,0.0,0.0,0.0,0.000144,0.0,0.0,0.0,0.001521,2
1668539404806139279,469544,1668539404889996047,gps,2,1,42.300318084,-83.6985988841,271.006866455,0.000121,0.0,0.0,0.0,0.000144,0.0,0.0,0.0,0.001521,2
1668539404816328700,469545,1668539404899992196,gps,2,1,42.3003180851,-83.6985988824,271.006866455,0.000121,0.0,0.0,0.0,0.000144,0.0,0.0,0.0,0.001521,2
1668539404826089385,469546,1668539404910034366,gps,2,1,42.3003180846,-83.6985988826,271.006866455,0.000121,0.0,0.0,0.0,0.000144,0.0,0.0,0.0,0.001521,2
1668539404836337097,469547,1668539404919977458,gps,2,1,42.3003180841,-83.6985988828,271.006835938,0.000121,0.0,0.0,0.0,0.000144,0.0,0.0,0.0,0.001521,2
1668539404846170156,469548,1668539404929970803,gps,2,1,42.3003180852,-83.6985988811,271.006866455,0.000121,0.0,0.0,0.0,0.000144,0.0,0.0,0.0,0.001521,2
1668539404856130042,469549,1668539404939974234,gps,2,1,42.3003180848,-83.6985988813,271.006835938,0.000121,0.0,0.0,0.0,0.000144,0.0,0.0,0.0,0.001521,2
1668539404865892650,469550,1668539404950132097,gps,2,1,42.3003180843,-83.6985988815,271.006835938,0.000121,0.0,0.0,0.0,0.000144,0.0,0.0,0.0,0.001521,2
1668539404876166646,469551,1668539404959973934,gps,2,1,42.3003180854,-83.6985988799,271.006866455,0.000121,0.0,0.0,0.0,0.000144,0.0,0.0,0.0,0.001521,2
1668539404885680640,469552,1668539404970003105,gps,2,1,42.300318085,-83.69859888,271.006866455,0.000121,0.0,0.0,0.0,0.000144,0.0,0.0,0.0,0.001521,2
1668539404896025695,469553,1668539404980041539,gps,2,1,42.3003180846,-83.6985988802,271.006835938,0.000121,0.0,0.0,0.0,0.000144,0.0,0.0,0.0,0.001521,2
1668539404906363568,469554,1668539404989982487,gps,2,1,42.3003180857,-83.6985988786,271.006866455,0.000121,0.0,0.0,0.0,0.000144,0.0,0.0,0.0,0.001521,2
1668539404916156055,469555,1668539405000119475,gps,2,1,42.3003180853,-83.6985988787,271.006866455,0.000121,0.0,0.0,0.0,0.000144,0.0,0.0,0.0,0.001521,2
1668539404926198976,469556,1668539405010076849,gps,2,1,42.3003180849,-83.6985988788,271.006866455,0.000121,0.0,0.0,0.0,0.000144,0.0,0.0,0.0,0.001521,2
1668539404936645018,469557,1668539405020143361,gps,2,1,42.3003180864,-83.698598875,271.006988525,0.000121,0.0,0.0,0.0,0.000144,0.0,0.0,0.0,0.001521,2
1668539404946145311,469558,1668539405030075106,gps,2,1,42.300318086,-83.6985988752,271.006988525,0.000121,0.0,0.0,0.0,0.000144,0.0,0.0,0.0,0.001521,2
1668539404956214757,469559,1668539405040111223,gps,2,1,42.3003180857,-83.6985988753,271.006988525,0.000121,0.0,0.0,0.0,0.000144,0.0,0.0,0.0,0.001521,2
1668539404966003038,469560,1668539405049982326,gps,2,1,42.3003180871,-83.6985988716,271.007110596,0.000121,0.0,0.0,0.0,0.000144,0.0,0.0,0.0,0.001521,2
1668539404976016464,469561,1668539405060036852,gps,2,1,42.3003180867,-83.6985988718,271.007110596,0.000121,0.0,0.0,0.0,0.000144,0.0,0.0,0.0,0.001521,2
1668539404986154660,469562,1668539405070090124,gps,2,1,42.3003180863,-83.6985988719,271.007110596,0.000121,0.0,0.0,0.0,0.000144,0.0,0.0,0.0,0.001521,2
1668539404996199757,469563,1668539405080058605,gps,2,1,42.3003180877,-83.6985988684,271.007232666,0.000121,0.0,0.0,0.0,0.000144,0.0,0.0,0.0,0.001521,2
1668539405005913075,469564,1668539405090032851,gps,2,1,42.3003180873,-83.6985988685,271.007232666,0.000121,0.0,0.0,0.0,0.000144,0.0,0.0,0.0,0.001521,2
1668539405015988275,469565,1668539405100051395,gps,2,1,42.3003180869,-83.6985988686,271.007232666,0.000121,0.0,0.0,0.0,0.000144,0.0,0.0,0.0,0.001521,2
1668539405025717996,469566,1668539405109983407,gps,2,1,42.3003180883,-83.6985988652,271.007354736,0.000121,0.0,0.0,0.0,0.000144,0.0,0.0,0.0,0.001521,2
1668539405035799680,469567,1668539405119990386,gps,2,1,42.3003180879,-83.6985988653,271.007354736,0.000121,0.0,0.0,0.0,0.000144,0.0,0.0,0.0,0.001521,2
1668539405046255058,469568,1668539405130074009,gps,2,1,42.3003180876,-83.6985988654,271.007324219,0.000121,0.0,0.0,0.0,0.000144,0.0,0.0,0.0,0.001521,2
1668539405055673146,469569,1668539405139991355,gps,2,1,42.300318089,-83.6985988623,271.007446289,0.000121,0.0,0.0,0.0,0.000144,0.0,0.0,0.0,0.001521,2
1668539405066224668,469570,1668539405149990252,gps,2,1,42.3003180887,-83.6985988624,271.007446289,0.000121,0.0,0.0,0.0,0.000144,0.0,0.0,0.0,0.001521,2
1668539405076555802,469571,1668539405160050047,gps,2,1,42.3003180884,-83.6985988625,271.007446289,0.000121,0.0,0.0,0.0,0.000144,0.0,0.0,0.0,0.001521,2
1668539405086171716,469572,1668539405169998974,gps,2,1,42.3003180898,-83.6985988595,271.007537842,0.000121,0.0,0.0,0.0,0.000144,0.0,0.0,0.0,0.001521,2
1668539405096009252,469573,1668539405179991108,gps,2,1,42.3003180897,-83.6985988596,271.007537842,0.000121,0.0,0.0,0.0,0.000144,0.0,0.0,0.0,0.001521,2
1668539405106018420,469574,1668539405190048396,gps,2,1,42.3003180894,-83.6985988596,271.007537842,0.000121,0.0,0.0,0.0,0.000144,0.0,0.0,0.0,0.001521,2
1668539405115972979,469575,1668539405200090461,gps,2,1,42.3003180909,-83.6985988567,271.007629395,0.000121,0.0,0.0,0.0,0.000144,0.0,0.0,0.0,0.001521,2
1668539405125924198,469576,1668539405210046160,gps,2,1,42.3003180908,-83.6985988567,271.007629395,0.000121,0.0,0.0,0.0,0.000144,0.0,0.0,0.0,0.001521,2
1668539405136080893,469577,1668539405219998223,gps,2,1,42.3003180907,-83.6985988568,271.007629395,0.000121,0.0,0.0,0.0,0.000144,0.0,0.0,0.0,0.001521,2
1668539405145777053,469578,1668539405229970498,gps,2,1,42.3003180923,-83.6985988539,271.007720947,0.000121,0.0,0.0,0.0,0.000144,0.0,0.0,0.0,0.001521,2
1668539405155882706,469579,1668539405240046529,gps,2,1,42.3003180924,-83.698598854,271.007720947,0.000121,0.0,0.0,0.0,0.000144,0.0,0.0,0.0,0.001521,2
1668539405165775609,469580,1668539405249994073,gps,2,1,42.3003180924,-83.698598854,271.007720947,0.000121,0.0,0.0,0.0,0.000144,0.0,0.0,0.0,0.001521,2
1668539405176021171,469581,1668539405260005130,gps,2,1,42.3003180941,-83.6985988512,271.007843018,0.000121,0.0,0.0,0.0,0.000144,0.0,0.0,0.0,0.001521,2
1668539405186345043,469582,1668539405270108275,gps,2,1,42.3003180946,-83.6985988513,271.007843018,0.000121,0.0,0.0,0.0,0.000144,0.0,0.0,0.0,0.001521,2
1668539405195771333,469583,1668539405280050092,gps,2,1,42.3003180948,-83.6985988513,271.0078125,0.000121,0.0,0.0,0.0,0.000144,0.0,0.0,0.0,0.001521,2
1668539405206044618,469584,1668539405289985085,gps,2,1,42.3003180969,-83.6985988486,271.007904053,0.000121,0.0,0.0,0.0,0.000144,0.0,0.0,0.0,0.001521,2
1668539405215815095,469585,1668539405300045080,gps,2,1,42.3003180978,-83.6985988486,271.007904053,0.000121,0.0,0.0,0.0,0.000144,0.0,0.0,0.0,0.001521,2
1668539405225949515,469586,1668539405310073930,gps,2,1,42.3003180983,-83.6985988487,271.007904053,0.000121,0.0,0.0,0.0,0.000144,0.0,0.0,0.0,0.001521,2
1668539405236164885,469587,1668539405319995988,gps,2,1,42.3003181008,-83.698598846,271.007995605,0.000121,0.0,0.0,0.0,0.000144,0.0,0.0,0.0,0.001521,2
1668539405246221433,469588,1668539405330052579,gps,2,1,42.3003181022,-83.6985988461,271.007995605,0.000121,0.0,0.0,0.0,0.000144,0.0,0.0,0.0,0.001521,2
1668539405256287145,469589,1668539405339992608,gps,2,1,42.3003181032,-83.6985988461,271.007995605,0.000121,0.0,0.0,0.0,0.000144,0.0,0.0,0.0,0.001521,2
1668539405266090326,469590,1668539405349975061,gps,2,1,42.3003181062,-83.6985988436,271.008056641,0.000121,0.0,0.0,0.0,0.000144,0.0,0.0,0.0,0.001521,2
1668539405276061528,469591,1668539405359994947,gps,2,1,42.3003181083,-83.6985988436,271.008056641,0.000121,0.0,0.0,0.0,0.000144,0.0,0.0,0.0,0.001521,2
1668539405285850294,469592,1668539405370072598,gps,2,1,42.3003181099,-83.6985988437,271.008056641,0.000121,0.0,0.0,0.0,0.000144,0.0,0.0,0.0,0.001521,2
1668539405296148522,469593,1668539405379985961,gps,2,1,42.3003181135,-83.6985988409,271.008148193,0.000121,0.0,0.0,0.0,0.000144,0.0,0.0,0.0,0.001521,2
1668539405306025415,469594,1668539405389992437,gps,2,1,42.3003181164,-83.6985988409,271.008148193,0.000121,0.0,0.0,0.0,0.000144,0.0,0.0,0.0,0.001521,2
1668539405316212029,469595,1668539405400133802,gps,2,1,42.3003181186,-83.698598841,271.008148193,0.000121,0.0,0.0,0.0,0.000144,0.0,0.0,0.0,0.001521,2
1668539405325909594,469596,1668539405410000986,gps,2,1,42.3003181231,-83.6985988383,271.008209229,0.000121,0.0,0.0,0.0,0.000144,0.0,0.0,0.0,0.001521,2
1668539405335835562,469597,1668539405419986550,gps,2,1,42.3003181269,-83.6985988383,271.008209229,0.000121,0.0,0.0,0.0,0.000144,0.0,0.0,0.0,0.001521,2
1668539405346186930,469598,1668539405430057676,gps,2,1,42.3003181299,-83.6985988383,271.008209229,0.000121,0.0,0.0,0.0,0.000144,0.0,0.0,0.0,0.001521,2
1668539405355981120,469599,1668539405439991692,gps,2,1,42.3003181353,-83.6985988357,271.008300781,0.000121,0.0,0.0,0.0,0.000144,0.0,0.0,0.0,0.001521,2
1668539405366174935,469600,1668539405450165080,gps,2,1,42.30031814,-83.6985988356,271.008300781,0.000121,0.0,0.0,0.0,0.000144,0.0,0.0,0.0,0.001521,2
1668539405376073226,469601,1668539405459997950,gps,2,1,42.3003181441,-83.6985988356,271.008300781,0.000121,0.0,0.0,0.0,0.000144,0.0,0.0,0.0,0.001521,2
1668539405386059311,469602,1668539405470001458,gps,2,1,42.3003181504,-83.698598833,271.008392334,0.000121,0.0,0.0,0.0,0.000144,0.0,0.0,0.0,0.001521,2
1668539405395848711,469603,1668539405480003135,gps,2,1,42.3003181562,-83.698598833,271.008422852,0.000121,0.0,0.0,0.0,0.000144,0.0,0.0,0.0,0.001521,2
1668539405406233314,469604,1668539405490050961,gps,2,1,42.3003181611,-83.698598833,271.008422852,0.000121,0.0,0.0,0.0,0.000144,0.0,0.0,0.0,0.001521,2
1668539405415932443,469605,1668539405499983898,gps,2,1,42.3003181683,-83.6985988305,271.008514404,0.000121,0.0,0.0,0.0,0.000144,0.0,0.0,0.0,0.001521,2
1668539405426017154,469606,1668539405510047980,gps,2,1,42.3003181751,-83.6985988304,271.008514404,0.000121,0.0,0.0,0.0,0.000144,0.0,0.0,0.0,0.001521,2
1668539405435905221,469607,1668539405520191210,gps,2,1,42.300318181,-83.6985988303,271.008544922,0.000121,0.0,0.0,0.0,0.000144,0.0,0.0,0.0,0.001521,2
1668539405445668467,469608,1668539405530014296,gps,2,1,42.3003181892,-83.6985988279,271.008636475,0.000121,0.0,0.0,0.0,0.000144,0.0,0.0,0.0,0.001521,2
1668539405456160787,469609,1668539405540049432,gps,2,1,42.300318197,-83.6985988279,271.008636475,0.000121,0.0,0.0,0.0,0.000144,0.0,0.0,0.0,0.001521,2
1668539405466025078,469610,1668539405550168740,gps,2,1,42.3003182039,-83.6985988278,271.008636475,0.000121,0.0,0.0,0.0,0.000144,0.0,0.0,0.0,0.001521,2
1668539405475635519,469611,1668539405560080749,gps,2,1,42.3003182133,-83.6985988256,271.008758545,0.000121,0.0,0.0,0.0,0.000144,0.0,0.0,0.0,0.001521,2
1668539405485635134,469612,1668539405570028399,gps,2,1,42.3003182222,-83.6985988256,271.008789062,0.000121,0.0,0.0,0.0,0.000144,0.0,0.0,0.0,0.001521,2
1668539405495805210,469613,1668539405580055598,gps,2,1,42.3003182301,-83.6985988255,271.008789062,0.000121,0.0,0.0,0.0,0.000144,0.0,0.0,0.0,0.001521,2
1668539405505766752,469614,1668539405589985769,gps,2,1,42.3003182405,-83.6985988234,271.008911133,0.000121,0.0,0.0,0.0,0.000144,0.0,0.0,0.0,0.001521,2
1668539405515822590,469615,1668539405599997786,gps,2,1,42.3003182505,-83.6985988233,271.008911133,0.000121,0.0,0.0,0.0,0.000144,0.0,0.0,0.0,0.001521,2
1668539405525997768,469616,1668539405610083247,gps,2,1,42.3003182595,-83.6985988232,271.008911133,0.000121,0.0,0.0,0.0,0.000144,0.0,0.0,0.0,0.001521,2
1668539405535760832,469617,1668539405619988240,gps,2,1,42.3003182711,-83.6985988212,271.009033203,0.000121,0.0,0.0,0.0,0.000144,0.0,0.0,0.0,0.001521,2
1668539405545724474,469618,1668539405629979348,gps,2,1,42.3003182822,-83.6985988211,271.009033203,0.000121,0.0,0.0,0.0,0.000144,0.0,0.0,0.0,0.001521,2
1668539405555951184,469619,1668539405640064321,gps,2,1,42.3003182924,-83.698598821,271.009033203,0.000121,0.0,0.0,0.0,0.000144,0.0,0.0,0.0,0.001521,2
1668539405565799883,469620,1668539405649981050,gps,2,1,42.3003183052,-83.698598819,271.009124756,0.000121,0.0,0.0,0.0,0.000144,0.0,0.0,0.0,0.001521,2
1668539405575752099,469621,1668539405659985167,gps,2,1,42.3003183175,-83.6985988189,271.009124756,0.000121,0.0,0.0,0.0,0.000144,0.0,0.0,0.0,0.001521,2
1668539405585669477,469622,1668539405670058997,gps,2,1,42.3003183288,-83.6985988188,271.009124756,0.000121,0.0,0.0,0.0,0.000144,0.0,0.0,0.0,0.001521,2
1668539405595664772,469623,1668539405679987952,gps,2,1,42.3003183428,-83.6985988168,271.009216309,0.000121,0.0,0.0,0.0,0.000144,0.0,0.0,0.0,0.001521,2
1668539405605519640,469624,1668539405689996208,gps,2,1,42.3003183562,-83.6985988166,271.009216309,0.000121,0.0,0.0,0.0,0.000144,0.0,0.0,0.0,0.001521,2
1668539405616015869,469625,1668539405700152338,gps,2,1,42.3003183687,-83.6985988165,271.009216309,0.000121,0.0,0.0,0.0,0.000144,0.0,0.0,0.0,0.001521,2
1668539405626064480,469626,1668539405709991608,gps,2,1,42.3003183837,-83.6985988145,271.009307861,0.000121,0.0,0.0,0.0,0.000144,0.0,0.0,0.0,0.001521,2
1668539405636106084,469627,1668539405719996145,gps,2,1,42.3003183983,-83.6985988143,271.009307861,0.000121,0.0,0.0,0.0,0.000144,0.0,0.0,0.0,0.001521,2
1668539405646000735,469628,1668539405730057168,gps,2,1,42.3003184119,-83.6985988141,271.009338379,0.000121,0.0,0.0,0.0,0.000144,0.0,0.0,0.0,0.001521,2
1668539405655768852,469629,1668539405739997025,gps,2,1,42.3003184281,-83.6985988122,271.009399414,0.000121,0.0,0.0,0.0,0.000144,0.0,0.0,0.0,0.001521,2
1668539405665848788,469630,1668539405749997353,gps,2,1,42.3003184438,-83.698598812,271.009429932,0.000121,0.0,0.0,0.0,0.000144,0.0,0.0,0.0,0.001521,2
1668539405675923821,469631,1668539405760061015,gps,2,1,42.3003184587,-83.6985988118,271.009429932,0.000121,0.0,0.0,0.0,0.000144,0.0,0.0,0.0,0.001521,2
1668539405685887845,469632,1668539405769977414,gps,2,1,42.300318476,-83.6985988099,271.009490967,0.000121,0.0,0.0,0.0,0.000144,0.0,0.0,0.0,0.001521,2
1668539405695772223,469633,1668539405779981192,gps,2,1,42.3003184931,-83.6985988098,271.009521484,0.000121,0.0,0.0,0.0,0.000144,0.0,0.0,0.0,0.001521,2
1668539405705756013,469634,1668539405790044243,gps,2,1,42.300318509,-83.6985988095,271.009521484,0.000121,0.0,0.0,0.0,0.000144,0.0,0.0,0.0,0.001521,2
1668539405715774096,469635,1668539405799982653,gps,2,1,42.3003185275,-83.6985988077,271.009613037,0.000121,0.0,0.0,0.0,0.000144,0.0,0.0,0.0,0.001521,2
1668539405725748424,469636,1668539405809989277,gps,2,1,42.3003185457,-83.6985988075,271.009613037,0.000121,0.0,0.0,0.0,0.000144,0.0,0.0,0.0,0.001521,2
1668539405736102955,469637,1668539405820062069,gps,2,1,42.300318563,-83.6985988074,271.009643555,0.000121,0.0,0.0,0.0,0.000144,0.0,0.0,0.0,0.001521,2
1668539405745570577,469638,1668539405829991780,gps,2,1,42.3003185827,-83.6985988056,271.009735107,0.000121,0.0,0.0,0.0,0.000144,0.0,0.0,0.0,0.001521,2
1668539405755611344,469639,1668539405839990877,gps,2,1,42.3003186021,-83.6985988054,271.009735107,0.000121,0.0,0.0,0.0,0.000144,0.0,0.0,0.0,0.001521,2
1668539405766094337,469640,1668539405850060914,gps,2,1,42.3003186205,-83.6985988052,271.009765625,0.000121,0.0,0.0,0.0,0.000144,0.0,0.0,0.0,0.001521,2
1668539405775989458,469641,1668539405859986329,gps,2,1,42.3003186415,-83.6985988035,271.009857178,0.000121,0.0,0.0,0.0,0.000144,0.0,0.0,0.0,0.001521,2
1668539405785637874,469642,1668539405869992418,gps,2,1,42.3003186622,-83.6985988033,271.009857178,0.000121,0.0,0.0,0.0,0.000144,0.0,0.0,0.0,0.001521,2
1668539405795831095,469643,1668539405880079393,gps,2,1,42.3003186818,-83.6985988031,271.009887695,0.000121,0.0,0.0,0.0,0.000144,0.0,0.0,0.0,0.001521,2
1668539405805872350,469644,1668539405889992090,gps,2,1,42.3003187038,-83.6985988016,271.009979248,0.000121,0.0,0.0,0.0,0.000144,0.0,0.0,0.0,0.001521,2
1668539405815891313,469645,1668539405899999673,gps,2,1,42.3003187258,-83.6985988013,271.010009766,0.000121,0.0,0.0,0.0,0.000144,0.0,0.0,0.0,0.001521,2
1668539405825856267,469646,1668539405910059810,gps,2,1,42.3003187467,-83.6985988011,271.010040283,0.000121,0.0,0.0,0.0,0.000144,0.0,0.0,0.0,0.001521,2
1668539405835798139,469647,1668539405919978476,gps,2,1,42.3003187701,-83.6985987996,271.010101318,0.000121,0.0,0.0,0.0,0.000144,0.0,0.0,0.0,0.001521,2
1668539405845885895,469648,1668539405929989991,gps,2,1,42.3003187932,-83.6985987993,271.010131836,0.000121,0.0,0.0,0.0,0.000144,0.0,0.0,0.0,0.001521,2
1668539405855827287,469649,1668539405940043889,gps,2,1,42.3003188153,-83.6985987991,271.010162354,0.000121,0.0,0.0,0.0,0.000144,0.0,0.0,0.0,0.001521,2
1668539405865909374,469650,1668539405950095631,gps,2,1,42.3003188399,-83.6985987976,271.010253906,0.000121,0.0,0.0,0.0,0.000144,0.0,0.0,0.0,0.001521,2
1668539405875654398,469651,1668539405960012646,gps,2,1,42.3003188643,-83.6985987973,271.010284424,0.000121,0.0,0.0,0.0,0.000144,0.0,0.0,0.0,0.001521,2
1668539405885800049,469652,1668539405970065620,gps,2,1,42.3003188877,-83.6985987971,271.010314941,0.000121,0.0,0.0,0.0,0.000144,0.0,0.0,0.0,0.001521,2
1668539405896002287,469653,1668539405979995480,gps,2,1,42.3003189134,-83.6985987956,271.010406494,0.000121,0.0,0.0,0.0,0.000144,0.0,0.0,0.0,0.001521,2
1668539405905973724,469654,1668539405990000598,gps,2,1,42.300318939,-83.6985987954,271.010437012,0.000121,0.0,0.0,0.0,0.000144,0.0,0.0,0.0,0.001521,2
1668539405916035837,469655,1668539406000078382,gps,2,1,42.3003189637,-83.6985987952,271.010467529,0.000121,0.0,0.0,0.0,0.000144,0.0,0.0,0.0,0.001521,2
1668539405925992634,469656,1668539406010025545,gps,2,1,42.3003189917,-83.6985987949,271.010437012,0.000121,0.0,0.0,0.0,0.000144,0.0,0.0,0.0,0.001521,2
1668539405936196797,469657,1668539406020159694,gps,2,1,42.3003190186,-83.6985987947,271.010467529,0.000121,0.0,0.0,0.0,0.000144,0.0,0.0,0.0,0.001521,2
1668539405945982334,469658,1668539406030151258,gps,2,1,42.3003190445,-83.6985987945,271.010528564,0.000121,0.0,0.0,0.0,0.000144,0.0,0.0,0.0,0.001521,2
1668539405955887012,469659,1668539406040013770,gps,2,1,42.3003190736,-83.6985987942,271.010498047,0.000121,0.0,0.0,0.0,0.000144,0.0,0.0,0.0,0.001521,2
1668539405965921064,469660,1668539406050053809,gps,2,1,42.3003191017,-83.698598794,271.010528564,0.000121,0.0,0.0,0.0,0.000144,0.0,0.0,0.0,0.001521,2
1668539405976071555,469661,1668539406060111491,gps,2,1,42.3003191287,-83.6985987937,271.0105896,0.000121,0.0,0.0,0.0,0.000144,0.0,0.0,0.0,0.001521,2
1668539405985834646,469662,1668539406069999992,gps,2,1,42.300319159,-83.6985987934,271.010559082,0.000121,0.0,0.0,0.0,0.000144,0.0,0.0,0.0,0.001521,2
1668539405996074530,469663,1668539406080095768,gps,2,1,42.3003191884,-83.6985987932,271.010620117,0.000121,0.0,0.0,0.0,0.000144,0.0,0.0,0.0,0.001521,2
1668539406006189150,469664,1668539406090125965,gps,2,1,42.3003192166,-83.6985987929,271.010650635,0.000121,0.0,0.0,0.0,0.000144,0.0,0.0,0.0,0.001521,2
1668539406015839436,469665,1668539406100018140,gps,2,1,42.3003192481,-83.6985987926,271.010620117,0.000121,0.0,0.0,0.0,0.000144,0.0,0.0,0.0,0.001521,2
1668539406026011085,469666,1668539406110004641,gps,2,1,42.3003192787,-83.6985987923,271.010681152,0.000121,0.0,0.0,0.0,0.000144,0.0,0.0,0.0,0.001521,2
1668539406036297323,469667,1668539406120079997,gps,2,1,42.3003193082,-83.698598792,271.010742188,0.000121,0.0,0.0,0.0,0.000144,0.0,0.0,0.0,0.001521,2
1668539406046089017,469668,1668539406130001904,gps,2,1,42.300319341,-83.6985987918,271.01071167,0.000121,0.0,0.0,0.0,0.000144,0.0,0.0,0.0,0.001521,2
1668539406056078087,469669,1668539406139998065,gps,2,1,42.3003193728,-83.6985987916,271.010772705,0.000121,0.0,0.0,0.0,0.000144,0.0,0.0,0.0,0.001521,2
1668539406065996341,469670,1668539406150061019,gps,2,1,42.3003194036,-83.6985987913,271.01083374,0.000121,0.0,0.0,0.0,0.000144,0.0,0.0,0.0,0.001521,2
1668539406075946310,469671,1668539406160000385,gps,2,1,42.3003194376,-83.6985987912,271.010803223,0.000121,0.0,0.0,0.0,0.000144,0.0,0.0,0.0,0.001521,2
1668539406085903679,469672,1668539406170003750,gps,2,1,42.3003194706,-83.698598791,271.010864258,0.000121,0.0,0.0,0.0,0.000144,0.0,0.0,0.0,0.001521,2
1668539406096001868,469673,1668539406180055828,gps,2,1,42.3003195026,-83.6985987907,271.010925293,0.000121,0.0,0.0,0.0,0.000144,0.0,0.0,0.0,0.001521,2
1668539406105861780,469674,1668539406189989593,gps,2,1,42.3003195377,-83.6985987906,271.010925293,0.000121,0.0,0.0,0.0,0.000144,0.0,0.0,0.0,0.001521,2
1668539406116017416,469675,1668539406200078558,gps,2,1,42.3003195718,-83.6985987904,271.010986328,0.000121,0.0,0.0,0.0,0.000144,0.0,0.0,0.0,0.001521,2
1668539406125855771,469676,1668539406210051875,gps,2,1,42.300319605,-83.6985987902,271.011047363,6.4e-05,0.0,0.0,0.0,8.1e-05,0.0,0.0,0.0,0.001444,2
1668539406135905035,469677,1668539406219989617,gps,2,1,42.3003196413,-83.6985987901,271.011047363,6.4e-05,0.0,0.0,0.0,8.1e-05,0.0,0.0,0.0,0.001444,2
1668539406145803218,469678,1668539406229989976,gps,2,1,42.3003196766,-83.69859879,271.011108398,6.4e-05,0.0,0.0,0.0,8.1e-05,0.0,0.0,0.0,0.001444,2
1668539406155710768,469679,1668539406240062086,gps,2,1,42.300319711,-83.6985987898,271.011169434,6.4e-05,0.0,0.0,0.0,8.1e-05,0.0,0.0,0.0,0.001444,2
1668539406165916196,469680,1668539406249992825,gps,2,1,42.3003197484,-83.6985987897,271.011169434,6.4e-05,0.0,0.0,0.0,8.1e-05,0.0,0.0,0.0,0.001444,2
1668539406176019943,469681,1668539406260034852,gps,2,1,42.3003197849,-83.6985987895,271.011199951,6.4e-05,0.0,0.0,0.0,8.1e-05,0.0,0.0,0.0,0.001444,2
1668539406186010958,469682,1668539406270151283,gps,2,1,42.3003198205,-83.6985987894,271.011260986,6.4e-05,0.0,0.0,0.0,8.1e-05,0.0,0.0,0.0,0.001444,2
1668539406195988839,469683,1668539406279999008,gps,2,1,42.300319859,-83.6985987892,271.011260986,6.4e-05,0.0,0.0,0.0,8.1e-05,0.0,0.0,0.0,0.001444,2
1668539406206018848,469684,1668539406290000850,gps,2,1,42.3003198968,-83.698598789,271.011322021,6.4e-05,0.0,0.0,0.0,8.1e-05,0.0,0.0,0.0,0.001444,2
1668539406216045174,469685,1668539406300064207,gps,2,1,42.3003199335,-83.6985987888,271.011352539,6.4e-05,0.0,0.0,0.0,8.1e-05,0.0,0.0,0.0,0.001444,2
1668539406225948759,469686,1668539406310010233,gps,2,1,42.3003199732,-83.6985987885,271.011352539,6.4e-05,0.0,0.0,0.0,8.1e-05,0.0,0.0,0.0,0.001444,2
1668539406236014881,469687,1668539406320022393,gps,2,1,42.3003200121,-83.6985987883,271.011383057,6.4e-05,0.0,0.0,0.0,8.1e-05,0.0,0.0,0.0,0.001444,2
1668539406245907452,469688,1668539406330075588,gps,2,1,42.3003200501,-83.698598788,271.011444092,6.4e-05,0.0,0.0,0.0,8.1e-05,0.0,0.0,0.0,0.001444,2
1668539406255819484,469689,1668539406339994380,gps,2,1,42.3003200909,-83.6985987878,271.011444092,6.4e-05,0.0,0.0,0.0,8.1e-05,0.0,0.0,0.0,0.001444,2
1668539406265854318,469690,1668539406349994943,gps,2,1,42.300320131,-83.6985987875,271.011474609,6.4e-05,0.0,0.0,0.0,8.1e-05,0.0,0.0,0.0,0.001444,2
1668539406275835300,469691,1668539406360068368,gps,2,1,42.3003201701,-83.6985987873,271.011535645,6.4e-05,0.0,0.0,0.0,8.1e-05,0.0,0.0,0.0,0.001444,2
1668539406285788860,469692,1668539406369994740,gps,2,1,42.3003202121,-83.6985987871,271.011535645,6.4e-05,0.0,0.0,0.0,8.1e-05,0.0,0.0,0.0,0.001444,2
1668539406295732222,469693,1668539406380017521,gps,2,1,42.3003202534,-83.6985987869,271.01159668,6.4e-05,0.0,0.0,0.0,8.1e-05,0.0,0.0,0.0,0.001444,2
1668539406305806532,469694,1668539406390073838,gps,2,1,42.3003202937,-83.6985987867,271.011657715,6.4e-05,0.0,0.0,0.0,8.1e-05,0.0,0.0,0.0,0.001444,2
1668539406315698459,469695,1668539406400002594,gps,2,1,42.3003203368,-83.6985987865,271.011688232,6.4e-05,0.0,0.0,0.0,8.1e-05,0.0,0.0,0.0,0.001444,2
1668539406326080164,469696,1668539406410005565,gps,2,1,42.3003203793,-83.6985987864,271.011749268,6.4e-05,0.0,0.0,0.0,8.1e-05,0.0,0.0,0.0,0.001444,2
1668539406335902766,469697,1668539406420058282,gps,2,1,42.3003204208,-83.6985987863,271.011810303,6.4e-05,0.0,0.0,0.0,8.1e-05,0.0,0.0,0.0,0.001444,2
1668539406345992862,469698,1668539406430003390,gps,2,1,42.300320465,-83.6985987861,271.01184082,6.4e-05,0.0,0.0,0.0,8.1e-05,0.0,0.0,0.0,0.001444,2
1668539406355851080,469699,1668539406439998880,gps,2,1,42.3003205086,-83.6985987862,271.011932373,6.4e-05,0.0,0.0,0.0,8.1e-05,0.0,0.0,0.0,0.001444,2
1668539406366187771,469700,1668539406450225663,gps,2,1,42.3003205513,-83.6985987861,271.011993408,6.4e-05,0.0,0.0,0.0,8.1e-05,0.0,0.0,0.0,0.001444,2
1668539406375945503,469701,1668539406460014359,gps,2,1,42.3003205966,-83.6985987861,271.012023926,6.4e-05,0.0,0.0,0.0,8.1e-05,0.0,0.0,0.0,0.001444,2
1668539406385941727,469702,1668539406470022788,gps,2,1,42.3003206414,-83.6985987862,271.012115479,6.4e-05,0.0,0.0,0.0,8.1e-05,0.0,0.0,0.0,0.001444,2
1668539406395918770,469703,1668539406480049136,gps,2,1,42.3003206852,-83.6985987862,271.012176514,6.4e-05,0.0,0.0,0.0,8.1e-05,0.0,0.0,0.0,0.001444,2
1668539406405852838,469704,1668539406489995388,gps,2,1,42.3003207316,-83.6985987862,271.012237549,6.4e-05,0.0,0.0,0.0,8.1e-05,0.0,0.0,0.0,0.001444,2
1668539406415970446,469705,1668539406500032040,gps,2,1,42.3003207775,-83.6985987864,271.012298584,6.4e-05,0.0,0.0,0.0,8.1e-05,0.0,0.0,0.0,0.001444,2
1668539406425840257,469706,1668539406510122463,gps,2,1,42.3003208225,-83.6985987865,271.012359619,6.4e-05,0.0,0.0,0.0,8.1e-05,0.0,0.0,0.0,0.001444,2
1668539406436252719,469707,1668539406520156123,gps,2,1,42.3003208699,-83.6985987866,271.012420654,6.4e-05,0.0,0.0,0.0,8.1e-05,0.0,0.0,0.0,0.001444,2
1668539406445710181,469708,1668539406530063878,gps,2,1,42.3003209169,-83.6985987868,271.012481689,6.4e-05,0.0,0.0,0.0,8.1e-05,0.0,0.0,0.0,0.001444,2
1668539406456147220,469709,1668539406540128827,gps,2,1,42.3003209629,-83.698598787,271.012542725,6.4e-05,0.0,0.0,0.0,8.1e-05,0.0,0.0,0.0,0.001444,2
1668539406466203612,469710,1668539406550029982,gps,2,1,42.3003210115,-83.6985987886,271.01260376,6.4e-05,0.0,0.0,0.0,8.1e-05,0.0,0.0,0.0,0.001444,2
1668539406475977002,469711,1668539406560086290,gps,2,1,42.3003210596,-83.698598789,271.012664795,6.4e-05,0.0,0.0,0.0,8.1e-05,0.0,0.0,0.0,0.001444,2
1668539406486137882,469712,1668539406570140137,gps,2,1,42.3003211067,-83.6985987892,271.01272583,6.4e-05,0.0,0.0,0.0,8.1e-05,0.0,0.0,0.0,0.001444,2
1668539406495893244,469713,1668539406580020980,gps,2,1,42.3003211564,-83.6985987909,271.012756348,6.4e-05,0.0,0.0,0.0,8.1e-05,0.0,0.0,0.0,0.001444,2
1668539406505917949,469714,1668539406590067304,gps,2,1,42.3003212055,-83.6985987913,271.0128479,6.4e-05,0.0,0.0,0.0,8.1e-05,0.0,0.0,0.0,0.001444,2
1668539406515944807,469715,1668539406600006113,gps,2,1,42.3003212538,-83.6985987917,271.012908936,6.4e-05,0.0,0.0,0.0,8.1e-05,0.0,0.0,0.0,0.001444,2
1668539406525969012,469716,1668539406610043102,gps,2,1,42.3003213045,-83.6985987934,271.012969971,6.4e-05,0.0,0.0,0.0,8.1e-05,0.0,0.0,0.0,0.001444,2
1668539406535915299,469717,1668539406620011898,gps,2,1,42.3003213547,-83.6985987939,271.013031006,6.4e-05,0.0,0.0,0.0,8.1e-05,0.0,0.0,0.0,0.001444,2
1668539406545859117,469718,1668539406630067683,gps,2,1,42.3003214041,-83.6985987944,271.013122559,6.4e-05,0.0,0.0,0.0,8.1e-05,0.0,0.0,0.0,0.001444,2
1668539406555947757,469719,1668539406640021635,gps,2,1,42.3003214559,-83.6985987962,271.013183594,6.4e-05,0.0,0.0,0.0,8.1e-05,0.0,0.0,0.0,0.001444,2
1668539406565859295,469720,1668539406649992859,gps,2,1,42.3003215072,-83.6985987967,271.013244629,6.4e-05,0.0,0.0,0.0,8.1e-05,0.0,0.0,0.0,0.001444,2
1668539406575809354,469721,1668539406660063676,gps,2,1,42.3003215576,-83.6985987973,271.013336182,6.4e-05,0.0,0.0,0.0,8.1e-05,0.0,0.0,0.0,0.001444,2
1668539406585667861,469722,1668539406669999463,gps,2,1,42.3003216104,-83.6985987991,271.013397217,6.4e-05,0.0,0.0,0.0,8.1e-05,0.0,0.0,0.0,0.001444,2
1668539406595623710,469723,1668539406680003168,gps,2,1,42.3003216627,-83.6985987997,271.01348877,6.4e-05,0.0,0.0,0.0,8.1e-05,0.0,0.0,0.0,0.001444,2
1668539406606087260,469724,1668539406690067940,gps,2,1,42.3003217142,-83.6985988002,271.013580322,6.4e-05,0.0,0.0,0.0,8.1e-05,0.0,0.0,0.0,0.001444,2
1668539406616217879,469725,1668539406700093301,gps,2,1,42.300321768,-83.698598802,271.013641357,6.4e-05,0.0,0.0,0.0,8.1e-05,0.0,0.0,0.0,0.001444,2
1668539406626068012,469726,1668539406710010581,gps,2,1,42.3003218214,-83.6985988026,271.013763428,6.4e-05,0.0,0.0,0.0,8.1e-05,0.0,0.0,0.0,0.001444,2
1668539406636140856,469727,1668539406720065521,gps,2,1,42.3003218738,-83.6985988031,271.013824463,6.4e-05,0.0,0.0,0.0,8.1e-05,0.0,0.0,0.0,0.001444,2
1668539406645976036,469728,1668539406730002076,gps,2,1,42.3003219286,-83.6985988049,271.013916016,6.4e-05,0.0,0.0,0.0,8.1e-05,0.0,0.0,0.0,0.001444,2
1668539406655965099,469729,1668539406740109731,gps,2,1,42.300321983,-83.6985988055,271.013977051,6.4e-05,0.0,0.0,0.0,8.1e-05,0.0,0.0,0.0,0.001444,2
1668539406666055893,469730,1668539406750027925,gps,2,1,42.3003220365,-83.6985988061,271.014099121,6.4e-05,0.0,0.0,0.0,8.1e-05,0.0,0.0,0.0,0.001444,2
1668539406675952151,469731,1668539406760025430,gps,2,1,42.3003220922,-83.6985988078,271.014160156,6.4e-05,0.0,0.0,0.0,8.1e-05,0.0,0.0,0.0,0.001444,2
1668539406686243253,469732,1668539406770143643,gps,2,1,42.3003221476,-83.6985988085,271.014221191,6.4e-05,0.0,0.0,0.0,8.1e-05,0.0,0.0,0.0,0.001444,2
1668539406696043141,469733,1668539406780004746,gps,2,1,42.3003222022,-83.6985988091,271.014312744,6.4e-05,0.0,0.0,0.0,8.1e-05,0.0,0.0,0.0,0.001444,2
1668539406705857720,469734,1668539406789988062,gps,2,1,42.300322259,-83.6985988108,271.014373779,6.4e-05,0.0,0.0,0.0,8.1e-05,0.0,0.0,0.0,0.001444,2
1668539406715866604,469735,1668539406799994974,gps,2,1,42.3003223154,-83.6985988115,271.014434814,6.4e-05,0.0,0.0,0.0,8.1e-05,0.0,0.0,0.0,0.001444,2
1668539406725971074,469736,1668539406810089055,gps,2,1,42.3003223709,-83.6985988122,271.014526367,6.4e-05,0.0,0.0,0.0,8.1e-05,0.0,0.0,0.0,0.001444,2
1668539406735884283,469737,1668539406820010289,gps,2,1,42.3003224286,-83.6985988139,271.014587402,6.4e-05,0.0,0.0,0.0,8.1e-05,0.0,0.0,0.0,0.001444,2
1668539406746092188,469738,1668539406830012128,gps,2,1,42.300322486,-83.6985988146,271.014648438,6.4e-05,0.0,0.0,0.0,8.1e-05,0.0,0.0,0.0,0.001444,2
1668539406756053097,469739,1668539406840075709,gps,2,1,42.3003225426,-83.6985988152,271.014709473,6.4e-05,0.0,0.0,0.0,8.1e-05,0.0,0.0,0.0,0.001444,2
1668539406765990885,469740,1668539406849998704,gps,2,1,42.3003226014,-83.698598817,271.014770508,6.4e-05,0.0,0.0,0.0,8.1e-05,0.0,0.0,0.0,0.001444,2
1668539406776006023,469741,1668539406860084206,gps,2,1,42.3003226598,-83.6985988177,271.014831543,6.4e-05,0.0,0.0,0.0,8.1e-05,0.0,0.0,0.0,0.001444,2
1668539406785956989,469742,1668539406870005364,gps,2,1,42.3003227174,-83.6985988183,271.014923096,6.4e-05,0.0,0.0,0.0,8.1e-05,0.0,0.0,0.0,0.001444,2
1668539406795849162,469743,1668539406880002463,gps,2,1,42.3003227771,-83.6985988202,271.014953613,6.4e-05,0.0,0.0,0.0,8.1e-05,0.0,0.0,0.0,0.001444,2
1668539406805922014,469744,1668539406890063324,gps,2,1,42.3003228365,-83.6985988211,271.015045166,6.4e-05,0.0,0.0,0.0,8.1e-05,0.0,0.0,0.0,0.001444,2
1668539406815974165,469745,1668539406899994443,gps,2,1,42.3003228951,-83.6985988219,271.015106201,6.4e-05,0.0,0.0,0.0,8.1e-05,0.0,0.0,0.0,0.001444,2
1668539406825953899,469746,1668539406909989720,gps,2,1,42.3003229558,-83.6985988238,271.015167236,6.4e-05,0.0,0.0,0.0,8.1e-05,0.0,0.0,0.0,0.001444,2
1668539406836000065,469747,1668539406920046658,gps,2,1,42.3003230161,-83.6985988248,271.015258789,6.4e-05,0.0,0.0,0.0,8.1e-05,0.0,0.0,0.0,0.001444,2
1668539406845882500,469748,1668539406929987706,gps,2,1,42.3003230757,-83.6985988257,271.015319824,6.4e-05,0.0,0.0,0.0,8.1e-05,0.0,0.0,0.0,0.001444,2
1668539406855755585,469749,1668539406939994659,gps,2,1,42.3003231373,-83.6985988278,271.015380859,6.4e-05,0.0,0.0,0.0,8.1e-05,0.0,0.0,0.0,0.001444,2
1668539406865802403,469750,1668539406950086673,gps,2,1,42.3003231987,-83.6985988289,271.015441895,6.4e-05,0.0,0.0,0.0,8.1e-05,0.0,0.0,0.0,0.001444,2
1668539406875747769,469751,1668539406960063115,gps,2,1,42.3003232592,-83.6985988299,271.015533447,6.4e-05,0.0,0.0,0.0,8.1e-05,0.0,0.0,0.0,0.001444,2
1668539406885706710,469752,1668539406970010857,gps,2,1,42.3003233218,-83.698598832,271.015594482,6.4e-05,0.0,0.0,0.0,8.1e-05,0.0,0.0,0.0,0.001444,2
1668539406896057610,469753,1668539406980057567,gps,2,1,42.3003233841,-83.6985988332,271.015686035,6.4e-05,0.0,0.0,0.0,8.1e-05,0.0,0.0,0.0,0.001444,2
1668539406906157875,469754,1668539406990014233,gps,2,1,42.3003234455,-83.6985988343,271.01574707,6.4e-05,0.0,0.0,0.0,8.1e-05,0.0,0.0,0.0,0.001444,2
1668539406916102886,469755,1668539406999995447,gps,2,1,42.3003235091,-83.6985988365,271.015838623,6.4e-05,0.0,0.0,0.0,8.1e-05,0.0,0.0,0.0,0.001444,2
1668539406926084261,469756,1668539407010129812,gps,2,1,42.3003235724,-83.6985988377,271.015899658,6.4e-05,0.0,0.0,0.0,8.1e-05,0.0,0.0,0.0,0.001444,2
1668539406936146425,469757,1668539407020220412,gps,2,1,42.3003236349,-83.6985988389,271.015991211,6.4e-05,0.0,0.0,0.0,8.1e-05,0.0,0.0,0.0,0.001444,2
1668539406945957382,469758,1668539407030026363,gps,2,1,42.3003236998,-83.6985988429,271.016113281,6.4e-05,0.0,0.0,0.0,8.1e-05,0.0,0.0,0.0,0.001444,2
1668539406955948006,469759,1668539407040118897,gps,2,1,42.3003237641,-83.6985988442,271.016204834,6.4e-05,0.0,0.0,0.0,8.1e-05,0.0,0.0,0.0,0.001444,2
1668539406965991972,469760,1668539407050075190,gps,2,1,42.3003238276,-83.6985988455,271.016296387,6.4e-05,0.0,0.0,0.0,8.1e-05,0.0,0.0,0.0,0.001444,2
1668539406975936831,469761,1668539407059990766,gps,2,1,42.3003238936,-83.6985988494,271.016418457,6.4e-05,0.0,0.0,0.0,8.1e-05,0.0,0.0,0.0,0.001444,2
1668539406985985398,469762,1668539407070112711,gps,2,1,42.3003239589,-83.6985988507,271.01651001,6.4e-05,0.0,0.0,0.0,8.1e-05,0.0,0.0,0.0,0.001444,2
1668539406995876887,469763,1668539407080084926,gps,2,1,42.3003240234,-83.698598852,271.016601562,6.4e-05,0.0,0.0,0.0,8.1e-05,0.0,0.0,0.0,0.001444,2
1668539407005728361,469764,1668539407090020424,gps,2,1,42.3003240904,-83.6985988558,271.016723633,6.4e-05,0.0,0.0,0.0,8.1e-05,0.0,0.0,0.0,0.001444,2
1668539407016193711,469765,1668539407100056033,gps,2,1,42.3003241568,-83.6985988572,271.016815186,6.4e-05,0.0,0.0,0.0,8.1e-05,0.0,0.0,0.0,0.001444,2
1668539407026070468,469766,1668539407110139372,gps,2,1,42.3003242224,-83.6985988585,271.016876221,6.4e-05,0.0,0.0,0.0,8.1e-05,0.0,0.0,0.0,0.001444,2
1668539407036263358,469767,1668539407120017245,gps,2,1,42.3003242905,-83.6985988623,271.016998291,6.4e-05,0.0,0.0,0.0,8.1e-05,0.0,0.0,0.0,0.001444,2
1668539407045960913,469768,1668539407130104041,gps,2,1,42.3003243581,-83.6985988636,271.017089844,6.4e-05,0.0,0.0,0.0,8.1e-05,0.0,0.0,0.0,0.001444,2
1668539407056047361,469769,1668539407140087208,gps,2,1,42.3003244249,-83.6985988649,271.017150879,6.4e-05,0.0,0.0,0.0,8.1e-05,0.0,0.0,0.0,0.001444,2
1668539407065993616,469770,1668539407150070636,gps,2,1,42.3003244942,-83.6985988687,271.017272949,6.4e-05,0.0,0.0,0.0,8.1e-05,0.0,0.0,0.0,0.001444,2
1668539407076049650,469771,1668539407160112290,gps,2,1,42.3003245631,-83.6985988701,271.017333984,6.4e-05,0.0,0.0,0.0,8.1e-05,0.0,0.0,0.0,0.001444,2
1668539407086011871,469772,1668539407170062877,gps,2,1,42.300324631,-83.6985988713,271.01739502,6.4e-05,0.0,0.0,0.0,8.1e-05,0.0,0.0,0.0,0.001444,2
1668539407095921410,469773,1668539407180058045,gps,2,1,42.3003247016,-83.6985988751,271.017486572,6.4e-05,0.0,0.0,0.0,8.1e-05,0.0,0.0,0.0,0.001444,2
1668539407105937665,469774,1668539407190131361,gps,2,1,42.3003247718,-83.6985988763,271.017547607,6.4e-05,0.0,0.0,0.0,8.1e-05,0.0,0.0,0.0,0.001444,2
1668539407116015831,469775,1668539407200159808,gps,2,1,42.3003248408,-83.6985988776,271.017608643,6.4e-05,0.0,0.0,0.0,8.1e-05,0.0,0.0,0.0,0.001444,2
1668539407125895109,469776,1668539407210027563,gps,2,1,42.3003249127,-83.6985988813,271.017730713,0.000121,0.0,0.0,0.0,0.000144,0.0,0.0,0.0,0.001521,2
1668539407135977229,469777,1668539407220000207,gps,2,1,42.3003249841,-83.6985988825,271.017791748,0.000121,0.0,0.0,0.0,0.000144,0.0,0.0,0.0,0.001521,2
1668539407145749839,469778,1668539407230086554,gps,2,1,42.3003250546,-83.6985988837,271.017852783,0.000121,0.0,0.0,0.0,0.000144,0.0,0.0,0.0,0.001521,2
1668539407155688941,469779,1668539407240005184,gps,2,1,42.3003251277,-83.6985988873,271.017944336,0.000121,0.0,0.0,0.0,0.000144,0.0,0.0,0.0,0.001521,2
1668539407166147233,469780,1668539407250001700,gps,2,1,42.3003252006,-83.6985988884,271.018035889,0.000121,0.0,0.0,0.0,0.000144,0.0,0.0,0.0,0.001521,2
1668539407176084165,469781,1668539407260080419,gps,2,1,42.3003252723,-83.6985988897,271.018096924,0.000121,0.0,0.0,0.0,0.000144,0.0,0.0,0.0,0.001521,2
1668539407186210899,469782,1668539407270004037,gps,2,1,42.3003253467,-83.6985988931,271.018188477,0.000121,0.0,0.0,0.0,0.000144,0.0,0.0,0.0,0.001521,2
1668539407196029625,469783,1668539407280060864,gps,2,1,42.300325421,-83.6985988942,271.018249512,0.000121,0.0,0.0,0.0,0.000144,0.0,0.0,0.0,0.001521,2
1668539407205843319,469784,1668539407290010705,gps,2,1,42.3003254941,-83.6985988953,271.018310547,0.000121,0.0,0.0,0.0,0.000144,0.0,0.0,0.0,0.001521,2
1668539407215995970,469785,1668539407300010575,gps,2,1,42.3003255699,-83.6985988987,271.018432617,0.000121,0.0,0.0,0.0,0.000144,0.0,0.0,0.0,0.001521,2
1668539407226010391,469786,1668539407310078290,gps,2,1,42.3003256456,-83.6985988998,271.018493652,0.000121,0.0,0.0,0.0,0.000144,0.0,0.0,0.0,0.001521,2
1668539407235847858,469787,1668539407320026591,gps,2,1,42.3003257201,-83.698598901,271.018585205,0.000121,0.0,0.0,0.0,0.000144,0.0,0.0,0.0,0.001521,2
1668539407245861832,469788,1668539407329995028,gps,2,1,42.3003257973,-83.6985989043,271.018676758,0.000121,0.0,0.0,0.0,0.000144,0.0,0.0,0.0,0.001521,2
1668539407255822222,469789,1668539407340007925,gps,2,1,42.3003258745,-83.6985989055,271.018737793,0.000121,0.0,0.0,0.0,0.000144,0.0,0.0,0.0,0.001521,2
1668539407265888316,469790,1668539407350068927,gps,2,1,42.3003259504,-83.6985989066,271.018829346,0.000121,0.0,0.0,0.0,0.000144,0.0,0.0,0.0,0.001521,2
1668539407275836182,469791,1668539407359991643,gps,2,1,42.3003260291,-83.69859891,271.018951416,0.000121,0.0,0.0,0.0,0.000144,0.0,0.0,0.0,0.001521,2
1668539407285726620,469792,1668539407369996062,gps,2,1,42.3003261078,-83.6985989113,271.019012451,0.000121,0.0,0.0,0.0,0.000144,0.0,0.0,0.0,0.001521,2
1668539407295759971,469793,1668539407380087904,gps,2,1,42.3003261853,-83.6985989126,271.019104004,0.000121,0.0,0.0,0.0,0.000144,0.0,0.0,0.0,0.001521,2
1668539407305674163,469794,1668539407390017113,gps,2,1,42.3003262657,-83.6985989154,271.019226074,0.000121,0.0,0.0,0.0,0.000144,0.0,0.0,0.0,0.001521,2
1668539407316280237,469795,1668539407400011611,gps,2,1,42.300326346,-83.6985989169,271.019287109,0.000121,0.0,0.0,0.0,0.000144,0.0,0.0,0.0,0.001521,2
1668539407326182024,469796,1668539407410063896,gps,2,1,42.300326425,-83.6985989184,271.019378662,0.000121,0.0,0.0,0.0,0.000144,0.0,0.0,0.0,0.001521,2
1668539407336143586,469797,1668539407420007404,gps,2,1,42.300326507,-83.6985989214,271.019500732,0.000121,0.0,0.0,0.0,0.000144,0.0,0.0,0.0,0.001521,2
1668539407346058241,469798,1668539407430010027,gps,2,1,42.300326589,-83.6985989233,271.019561768,0.000121,0.0,0.0,0.0,0.000144,0.0,0.0,0.0,0.001521,2
1668539407355970660,469799,1668539407440153844,gps,2,1,42.3003266696,-83.6985989248,271.01965332,0.000121,0.0,0.0,0.0,0.000144,0.0,0.0,0.0,0.001521,2
1668539407366021851,469800,1668539407450118170,gps,2,1,42.3003267533,-83.6985989281,271.019744873,0.000121,0.0,0.0,0.0,0.000144,0.0,0.0,0.0,0.001521,2
1668539407375998030,469801,1668539407460082196,gps,2,1,42.300326837,-83.6985989303,271.019836426,0.000121,0.0,0.0,0.0,0.000144,0.0,0.0,0.0,0.001521,2
1668539407385845208,469802,1668539407470024418,gps,2,1,42.3003269193,-83.6985989321,271.019927979,0.000121,0.0,0.0,0.0,0.000144,0.0,0.0,0.0,0.001521,2
1668539407395989465,469803,1668539407479996915,gps,2,1,42.3003270047,-83.6985989357,271.020019531,0.000121,0.0,0.0,0.0,0.000144,0.0,0.0,0.0,0.001521,2
1668539407405838027,469804,1668539407490009212,gps,2,1,42.3003270903,-83.698598938,271.020111084,0.000121,0.0,0.0,0.0,0.000144,0.0,0.0,0.0,0.001521,2
1668539407415987986,469805,1668539407500154005,gps,2,1,42.3003271744,-83.6985989402,271.020172119,0.000121,0.0,0.0,0.0,0.000144,0.0,0.0,0.0,0.001521,2
1668539407425674362,469806,1668539407510090382,gps,2,1,42.3003272637,-83.6985989429,271.020263672,0.000121,0.0,0.0,0.0,0.000144,0.0,0.0,0.0,0.001521,2
1668539407435869435,469807,1668539407520024612,gps,2,1,42.3003273512,-83.6985989456,271.020355225,0.000121,0.0,0.0,0.0,0.000144,0.0,0.0,0.0,0.001521,2
1668539407446147233,469808,1668539407530118141,gps,2,1,42.3003274371,-83.6985989479,271.020446777,0.000121,0.0,0.0,0.0,0.000144,0.0,0.0,0.0,0.001521,2
1668539407455726327,469809,1668539407540082685,gps,2,1,42.3003275282,-83.6985989508,271.02053833,0.000121,0.0,0.0,0.0,0.000144,0.0,0.0,0.0,0.001521,2
1668539407466194675,469810,1668539407550063209,gps,2,1,42.3003276177,-83.6985989536,271.020629883,0.000121,0.0,0.0,0.0,0.000144,0.0,0.0,0.0,0.001521,2
1668539407476038052,469811,1668539407560124551,gps,2,1,42.3003277056,-83.698598956,271.020721436,0.000121,0.0,0.0,0.0,0.000144,0.0,0.0,0.0,0.001521,2
1668539407486117499,469812,1668539407570093516,gps,2,1,42.3003277987,-83.6985989591,271.020812988,0.000121,0.0,0.0,0.0,0.000144,0.0,0.0,0.0,0.001521,2
1668539407495854512,469813,1668539407580026827,gps,2,1,42.3003278902,-83.6985989618,271.020935059,0.000121,0.0,0.0,0.0,0.000144,0.0,0.0,0.0,0.001521,2
1668539407505935313,469814,1668539407590071297,gps,2,1,42.30032798,-83.6985989644,271.020996094,0.000121,0.0,0.0,0.0,0.000144,0.0,0.0,0.0,0.001521,2
1668539407515984460,469815,1668539407600012956,gps,2,1,42.3003280751,-83.6985989676,271.021118164,0.000121,0.0,0.0,0.0,0.000144,0.0,0.0,0.0,0.001521,2
1668539407525934615,469816,1668539407610003718,gps,2,1,42.3003281687,-83.6985989703,271.021209717,0.000121,0.0,0.0,0.0,0.000144,0.0,0.0,0.0,0.001521,2
1668539407536113340,469817,1668539407620082783,gps,2,1,42.3003282606,-83.6985989731,271.02130127,0.000121,0.0,0.0,0.0,0.000144,0.0,0.0,0.0,0.001521,2
1668539407545649071,469818,1668539407630045351,gps,2,1,42.3003283578,-83.6985989764,271.021392822,0.000121,0.0,0.0,0.0,0.000144,0.0,0.0,0.0,0.001521,2
1668539407555744742,469819,1668539407640000632,gps,2,1,42.3003284537,-83.6985989793,271.021484375,0.000121,0.0,0.0,0.0,0.000144,0.0,0.0,0.0,0.001521,2
1668539407565753261,469820,1668539407650120786,gps,2,1,42.3003285476,-83.6985989821,271.021575928,0.000121,0.0,0.0,0.0,0.000144,0.0,0.0,0.0,0.001521,2
1668539407575721010,469821,1668539407660024591,gps,2,1,42.3003286469,-83.6985989854,271.021697998,0.000121,0.0,0.0,0.0,0.000144,0.0,0.0,0.0,0.001521,2
1668539407585640753,469822,1668539407670011646,gps,2,1,42.3003287451,-83.6985989882,271.021789551,0.000121,0.0,0.0,0.0,0.000144,0.0,0.0,0.0,0.001521,2
1668539407596069565,469823,1668539407680072310,gps,2,1,42.3003288414,-83.6985989912,271.021881104,0.000121,0.0,0.0,0.0,0.000144,0.0,0.0,0.0,0.001521,2
1668539407606010393,469824,1668539407690012942,gps,2,1,42.3003289429,-83.6985989945,271.022003174,0.000121,0.0,0.0,0.0,0.000144,0.0,0.0,0.0,0.001521,2
1668539407616065885,469825,1668539407700207823,gps,2,1,42.3003290434,-83.6985989973,271.022094727,0.000121,0.0,0.0,0.0,0.000144,0.0,0.0,0.0,0.001521,2
1668539407625904406,469826,1668539407710037652,gps,2,1,42.300329142,-83.6985990002,271.022186279,0.000121,0.0,0.0,0.0,0.000144,0.0,0.0,0.0,0.001521,2
1668539407635904637,469827,1668539407720003687,gps,2,1,42.3003292457,-83.6985990036,271.02230835,0.000121,0.0,0.0,0.0,0.000144,0.0,0.0,0.0,0.001521,2
1668539407645866568,469828,1668539407730012009,gps,2,1,42.3003293484,-83.6985990065,271.02243042,0.000121,0.0,0.0,0.0,0.000144,0.0,0.0,0.0,0.001521,2
1668539407655855480,469829,1668539407740075095,gps,2,1,42.3003294492,-83.6985990094,271.022521973,0.000121,0.0,0.0,0.0,0.000144,0.0,0.0,0.0,0.001521,2
1668539407665914473,469830,1668539407750051270,gps,2,1,42.3003295551,-83.6985990128,271.022644043,0.000121,0.0,0.0,0.0,0.000144,0.0,0.0,0.0,0.001521,2
1668539407675910346,469831,1668539407760021770,gps,2,1,42.3003296602,-83.6985990157,271.022796631,0.000121,0.0,0.0,0.0,0.000144,0.0,0.0,0.0,0.001521,2
1668539407685948379,469832,1668539407770061795,gps,2,1,42.3003297633,-83.6985990186,271.022888184,0.000121,0.0,0.0,0.0,0.000144,0.0,0.0,0.0,0.001521,2
1668539407695746394,469833,1668539407779989176,gps,2,1,42.3003298716,-83.698599022,271.023010254,0.000121,0.0,0.0,0.0,0.000144,0.0,0.0,0.0,0.001521,2
1668539407705702341,469834,1668539407790068499,gps,2,1,42.300329979,-83.6985990251,271.023162842,0.000121,0.0,0.0,0.0,0.000144,0.0,0.0,0.0,0.001521,2
1668539407715746016,469835,1668539407800010875,gps,2,1,42.3003300845,-83.6985990281,271.023284912,0.000121,0.0,0.0,0.0,0.000144,0.0,0.0,0.0,0.001521,2
1668539407725712754,469836,1668539407810018375,gps,2,1,42.3003301951,-83.6985990317,271.023406982,0.000121,0.0,0.0,0.0,0.000144,0.0,0.0,0.0,0.001521,2
1668539407736253691,469837,1668539407820088403,gps,2,1,42.300330305,-83.6985990348,271.02355957,0.000121,0.0,0.0,0.0,0.000144,0.0,0.0,0.0,0.001521,2
1668539407746067112,469838,1668539407830011775,gps,2,1,42.3003304128,-83.6985990379,271.023681641,0.000121,0.0,0.0,0.0,0.000144,0.0,0.0,0.0,0.001521,2
1668539407755974669,469839,1668539407840004034,gps,2,1,42.3003305258,-83.6985990416,271.023834229,0.000121,0.0,0.0,0.0,0.000144,0.0,0.0,0.0,0.001521,2
1668539407765700210,469840,1668539407850012365,gps,2,1,42.3003306382,-83.6985990451,271.023986816,0.000121,0.0,0.0,0.0,0.000144,0.0,0.0,0.0,0.001521,2
1668539407775928760,469841,1668539407860066533,gps,2,1,42.3003307486,-83.6985990484,271.024108887,0.000121,0.0,0.0,0.0,0.000144,0.0,0.0,0.0,0.001521,2
1668539407786173924,469842,1668539407870006648,gps,2,1,42.300330864,-83.6985990524,271.024261475,0.000121,0.0,0.0,0.0,0.000144,0.0,0.0,0.0,0.001521,2
1668539407795803649,469843,1668539407880015873,gps,2,1,42.300330979,-83.6985990562,271.024383545,0.000121,0.0,0.0,0.0,0.000144,0.0,0.0,0.0,0.001521,2
1668539407805865029,469844,1668539407890071275,gps,2,1,42.3003310919,-83.6985990597,271.024536133,0.000121,0.0,0.0,0.0,0.000144,0.0,0.0,0.0,0.001521,2
1668539407815867671,469845,1668539407900005050,gps,2,1,42.3003312099,-83.6985990646,271.024658203,0.000121,0.0,0.0,0.0,0.000144,0.0,0.0,0.0,0.001521,2
1668539407826136025,469846,1668539407910070584,gps,2,1,42.3003313275,-83.6985990686,271.024810791,0.000121,0.0,0.0,0.0,0.000144,0.0,0.0,0.0,0.001521,2
