%time,field.header.seq,field.header.stamp,field.header.frame_id,field.status.status,field.status.service,field.latitude,field.longitude,field.altitude,field.position_covariance0,field.position_covariance1,field.position_covariance2,field.position_covariance3,field.position_covariance4,field.position_covariance5,field.position_covariance6,field.position_covariance7,field.position_covariance8,field.position_covariance_type
1668538562255289433,385289,1668538562331524048,gps,2,1,42.300856542,-83.6991757521,270.822662354,0.000121,0.0,0.0,0.0,0.000144,0.0,0.0,0.0,0.001936,2
1668538562265333336,385290,1668538562341500281,gps,2,1,42.3008565634,-83.6991755068,270.822265625,0.000121,0.0,0.0,0.0,0.000144,0.0,0.0,0.0,0.001936,2
1668538562275309421,385291,1668538562351704890,gps,2,1,42.300856585,-83.6991752596,270.822052002,0.000121,0.0,0.0,0.0,0.000144,0.0,0.0,0.0,0.001936,2
1668538562285305451,385292,1668538562361506279,gps,2,1,42.3008566061,-83.6991750155,270.821777344,0.000121,0.0,0.0,0.0,0.000144,0.0,0.0,0.0,0.001936,2
1668538562295247130,385293,1668538562371510645,gps,2,1,42.3008566269,-83.699174766,270.821472168,0.000121,0.0,0.0,0.0,0.000144,0.0,0.0,0.0,0.001936,2
1668538562305178811,385294,1668538562381570105,gps,2,1,42.3008566489,-83.6991745139,270.821258545,0.000121,0.0,0.0,0.0,0.000144,0.0,0.0,0.0,0.001936,2
1668538562315186414,385295,1668538562391513284,gps,2,1,42.3008566704,-83.6991742656,270.821044922,0.000121,0.0,0.0,0.0,0.000144,0.0,0.0,0.0,0.001936,2
1668538562325631425,385296,1668538562401528759,gps,2,1,42.3008566916,-83.6991740115,270.820770264,0.000121,0.0,0.0,0.0,0.000144,0.0,0.0,0.0,0.001936,2
1668538562335383227,385297,1668538562411579332,gps,2,1,42.3008567139,-83.6991737547,270.820556641,0.000121,0.0,0.0,0.0,0.000144,0.0,0.0,0.0,0.001936,2
1668538562345589334,385298,1668538562421598624,gps,2,1,42.3008567359,-83.6991735017,270.820373535,0.000121,0.0,0.0,0.0,0.000144,0.0,0.0,0.0,0.001936,2
1668538562355519719,385299,1668538562431507084,gps,2,1,42.3008567575,-83.6991732427,270.820068359,0.000121,0.0,0.0,0.0,0.000144,0.0,0.0,0.0,0.001936,2
1668538562365456827,385300,1668538562441568160,gps,2,1,42.3008567801,-83.6991729809,270.819854736,0.000121,0.0,0.0,0.0,0.000144,0.0,0.0,0.0,0.001936,2
1668538562375494345,385301,1668538562451507621,gps,2,1,42.3008568024,-83.6991727233,270.819641113,0.000121,0.0,0.0,0.0,0.000144,0.0,0.0,0.0,0.001936,2
1668538562385502682,385302,1668538562461511799,gps,2,1,42.3008568243,-83.6991724593,270.81930542,0.000121,0.0,0.0,0.0,0.000144,0.0,0.0,0.0,0.001936,2
1668538562395425343,385303,1668538562471646266,gps,2,1,42.3008568471,-83.6991721927,270.819000244,0.000121,0.0,0.0,0.0,0.000144,0.0,0.0,0.0,0.001936,2
1668538562405300442,385304,1668538562481525307,gps,2,1,42.3008568698,-83.6991719303,270.818756104,0.000121,0.0,0.0,0.0,0.000144,0.0,0.0,0.0,0.001936,2
1668538562415286037,385305,1668538562491568154,gps,2,1,42.3008568921,-83.699171662,270.818389893,0.000121,0.0,0.0,0.0,0.000144,0.0,0.0,0.0,0.001936,2
1668538562425562613,385306,1668538562501568873,gps,2,1,42.3008569155,-83.6991713917,270.818084717,0.000121,0.0,0.0,0.0,0.000144,0.0,0.0,0.0,0.001936,2
1668538562435244088,385307,1668538562511577431,gps,2,1,42.3008569385,-83.6991711243,270.817779541,0.000121,0.0,0.0,0.0,0.000144,0.0,0.0,0.0,0.001936,2
1668538562445169442,385308,1668538562521569517,gps,2,1,42.3008569608,-83.6991708516,270.817230225,0.000121,0.0,0.0,0.0,0.000144,0.0,0.0,0.0,0.001936,2
1668538562455344079,385309,1668538562531596078,gps,2,1,42.3008569852,-83.6991705773,270.816864014,0.000121,0.0,0.0,0.0,0.000144,0.0,0.0,0.0,0.001936,2
1668538562465577594,385310,1668538562541584656,gps,2,1,42.3008570088,-83.6991703061,270.816558838,0.000121,0.0,0.0,0.0,0.000144,0.0,0.0,0.0,0.001936,2
1668538562475260288,385311,1668538562551528520,gps,2,1,42.3008570321,-83.6991700298,270.816040039,0.000121,0.0,0.0,0.0,0.000144,0.0,0.0,0.0,0.001936,2
1668538562485532247,385312,1668538562561572871,gps,2,1,42.3008570578,-83.699169752,270.815704346,0.000121,0.0,0.0,0.0,0.000144,0.0,0.0,0.0,0.001936,2
1668538562495035821,385313,1668538562571511246,gps,2,1,42.3008570824,-83.699169477,270.815368652,0.000121,0.0,0.0,0.0,0.000144,0.0,0.0,0.0,0.001936,2
1668538562505100930,385314,1668538562581499499,gps,2,1,42.3008571069,-83.6991691971,270.814849854,0.000121,0.0,0.0,0.0,0.000144,0.0,0.0,0.0,0.001936,2
1668538562515367051,385315,1668538562591564463,gps,2,1,42.3008571339,-83.6991689158,270.814575195,0.000121,0.0,0.0,0.0,0.000144,0.0,0.0,0.0,0.001936,2
1668538562525547792,385316,1668538562601672073,gps,2,1,42.3008571595,-83.6991686373,270.814239502,0.000121,0.0,0.0,0.0,0.000144,0.0,0.0,0.0,0.001936,2
1668538562535435669,385317,1668538562611528719,gps,2,1,42.3008571852,-83.6991683541,270.813781738,0.000121,0.0,0.0,0.0,0.000144,0.0,0.0,0.0,0.001936,2
1668538562545399502,385318,1668538562621594375,gps,2,1,42.3008572134,-83.699168069,270.813537598,0.000121,0.0,0.0,0.0,0.000144,0.0,0.0,0.0,0.001936,2
1668538562555434830,385319,1668538562631518744,gps,2,1,42.3008572398,-83.6991677874,270.813262939,0.000121,0.0,0.0,0.0,0.000144,0.0,0.0,0.0,0.001936,2
1668538562565337520,385320,1668538562641483995,gps,2,1,42.3008572665,-83.699167501,270.812896729,0.000121,0.0,0.0,0.0,0.000144,0.0,0.0,0.0,0.001936,2
1668538562575228882,385321,1668538562651556605,gps,2,1,42.300857295,-83.6991672132,270.812713623,0.000121,0.0,0.0,0.0,0.000144,0.0,0.0,0.0,0.001936,2
1668538562585204872,385322,1668538562661505207,gps,2,1,42.3008573226,-83.6991669276,270.812469482,0.000121,0.0,0.0,0.0,0.000144,0.0,0.0,0.0,0.001936,2
1668538562595312263,385323,1668538562671590943,gps,2,1,42.3008573497,-83.699166638,270.812133789,0.000121,0.0,0.0,0.0,0.000144,0.0,0.0,0.0,0.001936,2
1668538562605525807,385324,1668538562681515807,gps,2,1,42.3008573775,-83.699166346,270.811950684,0.000121,0.0,0.0,0.0,0.000144,0.0,0.0,0.0,0.001936,2
1668538562615392404,385325,1668538562691597466,gps,2,1,42.3008574055,-83.6991660572,270.811767578,0.000121,0.0,0.0,0.0,0.000144,0.0,0.0,0.0,0.001936,2
1668538562625460743,385326,1668538562701517580,gps,2,1,42.3008574318,-83.6991657637,270.811462402,0.000121,0.0,0.0,0.0,0.000144,0.0,0.0,0.0,0.001936,2
1668538562635457221,385327,1668538562711509198,gps,2,1,42.3008574587,-83.6991654681,270.811340332,0.000121,0.0,0.0,0.0,0.000144,0.0,0.0,0.0,0.001936,2
1668538562645531036,385328,1668538562721590794,gps,2,1,42.3008574868,-83.6991651753,270.811126709,0.000121,0.0,0.0,0.0,0.000144,0.0,0.0,0.0,0.001936,2
1668538562655402572,385329,1668538562731519626,gps,2,1,42.300857512,-83.6991648781,270.810821533,0.000121,0.0,0.0,0.0,0.000144,0.0,0.0,0.0,0.001936,2
1668538562665397748,385330,1668538562741515385,gps,2,1,42.3008575379,-83.6991645786,270.810638428,0.000121,0.0,0.0,0.0,0.000144,0.0,0.0,0.0,0.001936,2
1668538562675585201,385331,1668538562751594539,gps,2,1,42.3008575644,-83.6991642828,270.81048584,0.000121,0.0,0.0,0.0,0.000144,0.0,0.0,0.0,0.001936,2
1668538562685312106,385332,1668538562761502287,gps,2,1,42.3008575885,-83.6991639819,270.810180664,0.000121,0.0,0.0,0.0,0.000144,0.0,0.0,0.0,0.001936,2
1668538562695313439,385333,1668538562771509615,gps,2,1,42.3008576129,-83.6991636792,270.809997559,0.000121,0.0,0.0,0.0,0.000144,0.0,0.0,0.0,0.001936,2
1668538562705444851,385334,1668538562781548385,gps,2,1,42.3008576384,-83.6991633794,270.809814453,0.000121,0.0,0.0,0.0,0.000144,0.0,0.0,0.0,0.001936,2
1668538562715257061,385335,1668538562791490123,gps,2,1,42.3008576615,-83.6991630751,270.809448242,0.000121,0.0,0.0,0.0,0.000144,0.0,0.0,0.0,0.001936,2
1668538562725347054,385336,1668538562801562228,gps,2,1,42.3008576852,-83.6991627689,270.809265137,0.000121,0.0,0.0,0.0,0.000144,0.0,0.0,0.0,0.001936,2
1668538562735122024,385337,1668538562811484749,gps,2,1,42.3008577099,-83.6991624654,270.809051514,0.000121,0.0,0.0,0.0,0.000144,0.0,0.0,0.0,0.001936,2
1668538562745250930,385338,1668538562821490204,gps,2,1,42.3008577325,-83.6991621575,270.808685303,0.000121,0.0,0.0,0.0,0.000144,0.0,0.0,0.0,0.001936,2
1668538562755637435,385339,1668538562831509197,gps,2,1,42.3008577563,-83.6991618478,270.80847168,0.000121,0.0,0.0,0.0,0.000144,0.0,0.0,0.0,0.001936,2
1668538562765617304,385340,1668538562841561785,gps,2,1,42.3008577801,-83.699161541,270.808258057,0.000121,0.0,0.0,0.0,0.000144,0.0,0.0,0.0,0.001936,2
1668538562775657330,385341,1668538562851594868,gps,2,1,42.3008578028,-83.69916123,270.807891846,0.000121,0.0,0.0,0.0,0.000144,0.0,0.0,0.0,0.001936,2
1668538562785457774,385342,1668538562861510087,gps,2,1,42.300857827,-83.6991609169,270.807647705,0.000121,0.0,0.0,0.0,0.000144,0.0,0.0,0.0,0.001936,2
1668538562795538164,385343,1668538562871586326,gps,2,1,42.3008578507,-83.6991606068,270.807403564,0.000121,0.0,0.0,0.0,0.000144,0.0,0.0,0.0,0.001936,2
1668538562805510436,385344,1668538562881501179,gps,2,1,42.300857874,-83.6991602915,270.806976318,0.000121,0.0,0.0,0.0,0.000144,0.0,0.0,0.0,0.001936,2
1668538562815412648,385345,1668538562891521634,gps,2,1,42.3008578985,-83.6991599754,270.80670166,0.000121,0.0,0.0,0.0,0.000144,0.0,0.0,0.0,0.001936,2
1668538562825411558,385346,1668538562901551265,gps,2,1,42.3008579224,-83.699159662,270.806427002,0.000121,0.0,0.0,0.0,0.000144,0.0,0.0,0.0,0.001936,2
1668538562835301857,385347,1668538562911481704,gps,2,1,42.3008579462,-83.6991593435,270.805999756,0.000121,0.0,0.0,0.0,0.000144,0.0,0.0,0.0,0.001936,2
1668538562845315652,385348,1668538562921637848,gps,2,1,42.3008579712,-83.6991590241,270.805725098,0.000121,0.0,0.0,0.0,0.000144,0.0,0.0,0.0,0.001936,2
1668538562855385632,385349,1668538562931501018,gps,2,1,42.3008579958,-83.6991587076,270.805419922,0.000121,0.0,0.0,0.0,0.000144,0.0,0.0,0.0,0.001936,2
1668538562865293929,385350,1668538562941489492,gps,2,1,42.30085802,-83.6991583859,270.804962158,0.000121,0.0,0.0,0.0,0.000144,0.0,0.0,0.0,0.001936,2
1668538562875386196,385351,1668538562951489716,gps,2,1,42.3008580455,-83.6991580635,270.804656982,0.000121,0.0,0.0,0.0,0.000144,0.0,0.0,0.0,0.001936,2
1668538562885142214,385352,1668538562961568164,gps,2,1,42.3008580707,-83.6991577436,270.804382324,0.000121,0.0,0.0,0.0,0.000144,0.0,0.0,0.0,0.001936,2
1668538562895212613,385353,1668538562971505230,gps,2,1,42.3008580954,-83.6991574189,270.803894043,0.000121,0.0,0.0,0.0,0.000144,0.0,0.0,0.0,0.001936,2
1668538562905755941,385354,1668538562981503329,gps,2,1,42.3008581214,-83.6991570933,270.803527832,0.000121,0.0,0.0,0.0,0.000144,0.0,0.0,0.0,0.001936,2
1668538562915711259,385355,1668538562991641468,gps,2,1,42.300858147,-83.6991567703,270.803192139,0.000121,0.0,0.0,0.0,0.000144,0.0,0.0,0.0,0.001936,2
1668538562925182840,385356,1668538563001527662,gps,2,1,42.3008581729,-83.6991564404,270.802093506,0.000121,0.0,0.0,0.0,0.000144,0.0,0.0,0.0,0.001936,2
1668538562935225886,385357,1668538563011560134,gps,2,1,42.3008581995,-83.6991561116,270.80166626,0.000121,0.0,0.0,0.0,0.000144,0.0,0.0,0.0,0.001936,2
1668538562945467560,385358,1668538563021645110,gps,2,1,42.3008582255,-83.6991557854,270.801300049,0.000121,0.0,0.0,0.0,0.000144,0.0,0.0,0.0,0.001936,2
1668538562955458795,385359,1668538563031523024,gps,2,1,42.300858252,-83.6991554526,270.800201416,0.000121,0.0,0.0,0.0,0.000144,0.0,0.0,0.0,0.001936,2
1668538562965423638,385360,1668538563041550687,gps,2,1,42.3008582792,-83.6991551207,270.799743652,0.000121,0.0,0.0,0.0,0.000144,0.0,0.0,0.0,0.001936,2
1668538562975693156,385361,1668538563051637983,gps,2,1,42.3008583056,-83.6991547914,270.799346924,0.000121,0.0,0.0,0.0,0.000144,0.0,0.0,0.0,0.001936,2
1668538562985500014,385362,1668538563061544484,gps,2,1,42.3008583328,-83.6991544555,270.798278809,0.000121,0.0,0.0,0.0,0.000144,0.0,0.0,0.0,0.001936,2
1668538562995277505,385363,1668538563071530038,gps,2,1,42.3008583604,-83.6991541204,270.797851562,0.000121,0.0,0.0,0.0,0.000144,0.0,0.0,0.0,0.001936,2
1668538563005368827,385364,1668538563081537330,gps,2,1,42.3008583874,-83.6991537882,270.797424316,0.000121,0.0,0.0,0.0,0.000144,0.0,0.0,0.0,0.001936,2
1668538563015262064,385365,1668538563091488266,gps,2,1,42.3008584151,-83.6991534492,270.796386719,0.000121,0.0,0.0,0.0,0.000144,0.0,0.0,0.0,0.001936,2
1668538563025887047,385366,1668538563101603661,gps,2,1,42.3008584432,-83.6991531113,270.79598999,0.000121,0.0,0.0,0.0,0.000144,0.0,0.0,0.0,0.001936,2
1668538563035234708,385367,1668538563111580737,gps,2,1,42.3008584708,-83.6991527756,270.795562744,0.000121,0.0,0.0,0.0,0.000144,0.0,0.0,0.0,0.001936,2
1668538563045074258,385368,1668538563121485418,gps,2,1,42.3008584993,-83.6991524332,270.794586182,0.000121,0.0,0.0,0.0,0.000144,0.0,0.0,0.0,0.001936,2
1668538563055261431,385369,1668538563131555345,gps,2,1,42.3008585275,-83.6991520918,270.794158936,0.000121,0.0,0.0,0.0,0.000144,0.0,0.0,0.0,0.001936,2
1668538563065585316,385370,1668538563141499969,gps,2,1,42.3008585556,-83.6991517534,270.793762207,0.000121,0.0,0.0,0.0,0.000144,0.0,0.0,0.0,0.001936,2
1668538563075551872,385371,1668538563151507846,gps,2,1,42.3008585842,-83.6991514078,270.792816162,0.000121,0.0,0.0,0.0,0.000144,0.0,0.0,0.0,0.001936,2
1668538563085384904,385372,1668538563161495686,gps,2,1,42.3008586125,-83.6991510632,270.792419434,0.000121,0.0,0.0,0.0,0.000144,0.0,0.0,0.0,0.001936,2
1668538563095449595,385373,1668538563171644217,gps,2,1,42.3008586407,-83.6991507213,270.791992188,0.000121,0.0,0.0,0.0,0.000144,0.0,0.0,0.0,0.001936,2
1668538563105465602,385374,1668538563181508651,gps,2,1,42.3008586694,-83.6991503726,270.79107666,0.000121,0.0,0.0,0.0,0.000144,0.0,0.0,0.0,0.001936,2
1668538563115381796,385375,1668538563191499623,gps,2,1,42.3008586978,-83.6991500248,270.790679932,0.000121,0.0,0.0,0.0,0.000144,0.0,0.0,0.0,0.001936,2
1668538563125486612,385376,1668538563201549793,gps,2,1,42.3008587261,-83.6991496797,270.790283203,6.4e-05,0.0,0.0,0.0,0.0001,0.0,0.0,0.0,0.001849,2
1668538563135551002,385377,1668538563211511452,gps,2,1,42.3008587548,-83.6991493279,270.789367676,6.4e-05,0.0,0.0,0.0,0.0001,0.0,0.0,0.0,0.001849,2
1668538563145330301,385378,1668538563221494551,gps,2,1,42.3008587831,-83.6991489768,270.789001465,6.4e-05,0.0,0.0,0.0,0.0001,0.0,0.0,0.0,0.001849,2
1668538563155325326,385379,1668538563231554980,gps,2,1,42.3008588116,-83.6991486287,270.788635254,6.4e-05,0.0,0.0,0.0,0.0001,0.0,0.0,0.0,0.001849,2
1668538563165217890,385380,1668538563241533683,gps,2,1,42.3008588404,-83.6991482738,270.787750244,6.4e-05,0.0,0.0,0.0,0.0001,0.0,0.0,0.0,0.001849,2
1668538563175312261,385381,1668538563251542345,gps,2,1,42.3008588688,-83.6991479196,270.787414551,6.4e-05,0.0,0.0,0.0,0.0001,0.0,0.0,0.0,0.001849,2
1668538563185514764,385382,1668538563261545247,gps,2,1,42.3008588972,-83.6991475681,270.78704834,6.4e-05,0.0,0.0,0.0,0.0001,0.0,0.0,0.0,0.001849,2
1668538563195134982,385383,1668538563271491220,gps,2,1,42.300858926,-83.6991472099,270.786224365,6.4e-05,0.0,0.0,0.0,0.0001,0.0,0.0,0.0,0.001849,2
1668538563205581784,385384,1668538563281562225,gps,2,1,42.3008589548,-83.6991468525,270.785919189,6.4e-05,0.0,0.0,0.0,0.0001,0.0,0.0,0.0,0.001849,2
1668538563215450523,385385,1668538563291578707,gps,2,1,42.3008589832,-83.6991464977,270.785552979,6.4e-05,0.0,0.0,0.0,0.0001,0.0,0.0,0.0,0.001849,2
1668538563225393893,385386,1668538563301514971,gps,2,1,42.3008590124,-83.6991461363,270.784759521,6.4e-05,0.0,0.0,0.0,0.0001,0.0,0.0,0.0,0.001849,2
1668538563235412383,385387,1668538563311497610,gps,2,1,42.3008590415,-83.6991457757,270.784454346,6.4e-05,0.0,0.0,0.0,0.0001,0.0,0.0,0.0,0.001849,2
1668538563245297812,385388,1668538563321558828,gps,2,1,42.3008590702,-83.6991454175,270.784118652,6.4e-05,0.0,0.0,0.0,0.0001,0.0,0.0,0.0,0.001849,2
1668538563255327232,385389,1668538563331500299,gps,2,1,42.3008590998,-83.699145053,270.783355713,6.4e-05,0.0,0.0,0.0,0.0001,0.0,0.0,0.0,0.001849,2
1668538563265285335,385390,1668538563341480295,gps,2,1,42.3008591297,-83.699144689,270.783050537,6.4e-05,0.0,0.0,0.0,0.0001,0.0,0.0,0.0,0.001849,2
1668538563275401559,385391,1668538563351630533,gps,2,1,42.3008591587,-83.6991443277,270.782745361,6.4e-05,0.0,0.0,0.0,0.0001,0.0,0.0,0.0,0.001849,2
1668538563285277672,385392,1668538563361478958,gps,2,1,42.3008591889,-83.69914396,270.782012939,6.4e-05,0.0,0.0,0.0,0.0001,0.0,0.0,0.0,0.001849,2
1668538563295138596,385393,1668538563371482564,gps,2,1,42.3008592192,-83.6991435927,270.781768799,6.4e-05,0.0,0.0,0.0,0.0001,0.0,0.0,0.0,0.001849,2
1668538563305381444,385394,1668538563381559157,gps,2,1,42.3008592488,-83.6991432281,270.781463623,6.4e-05,0.0,0.0,0.0,0.0001,0.0,0.0,0.0,0.001849,2
1668538563315267414,385395,1668538563391549577,gps,2,1,42.300859281,-83.6991428572,270.780822754,6.4e-05,0.0,0.0,0.0,0.0001,0.0,0.0,0.0,0.001849,2
1668538563325778857,385396,1668538563401600007,gps,2,1,42.3008593117,-83.6991424867,270.780639648,6.4e-05,0.0,0.0,0.0,0.0001,0.0,0.0,0.0,0.001849,2
1668538563335108559,385397,1668538563411562262,gps,2,1,42.300859342,-83.6991421188,270.780395508,6.4e-05,0.0,0.0,0.0,0.0001,0.0,0.0,0.0,0.001849,2
1668538563345494758,385398,1668538563421480555,gps,2,1,42.3008593745,-83.6991417448,270.779846191,6.4e-05,0.0,0.0,0.0,0.0001,0.0,0.0,0.0,0.001849,2
1668538563355501523,385399,1668538563431492455,gps,2,1,42.3008594055,-83.699141371,270.779754639,6.4e-05,0.0,0.0,0.0,0.0001,0.0,0.0,0.0,0.001849,2
1668538563365394870,385400,1668538563441549361,gps,2,1,42.3008594364,-83.6991409999,270.779602051,6.4e-05,0.0,0.0,0.0,0.0001,0.0,0.0,0.0,0.001849,2
1668538563375313045,385401,1668538563451490300,gps,2,1,42.3008594689,-83.6991406228,270.779174805,6.4e-05,0.0,0.0,0.0,0.0001,0.0,0.0,0.0,0.001849,2
1668538563385300599,385402,1668538563461486174,gps,2,1,42.3008595,-83.6991402462,270.779144287,6.4e-05,0.0,0.0,0.0,0.0001,0.0,0.0,0.0,0.001849,2
1668538563395286924,385403,1668538563471551451,gps,2,1,42.3008595308,-83.6991398716,270.779052734,6.4e-05,0.0,0.0,0.0,0.0001,0.0,0.0,0.0,0.001849,2
1668538563405373040,385404,1668538563481544120,gps,2,1,42.3008595633,-83.6991394913,270.778656006,6.4e-05,0.0,0.0,0.0,0.0001,0.0,0.0,0.0,0.001849,2
1668538563415305173,385405,1668538563491550339,gps,2,1,42.300859594,-83.6991391108,270.778594971,6.4e-05,0.0,0.0,0.0,0.0001,0.0,0.0,0.0,0.001849,2
1668538563425289537,385406,1668538563501614130,gps,2,1,42.300859625,-83.6991387332,270.778564453,6.4e-05,0.0,0.0,0.0,0.0001,0.0,0.0,0.0,0.001849,2
1668538563435235494,385407,1668538563511581576,gps,2,1,42.3008596571,-83.6991383494,270.778106689,6.4e-05,0.0,0.0,0.0,0.0001,0.0,0.0,0.0,0.001849,2
1668538563445265954,385408,1668538563521552145,gps,2,1,42.3008596873,-83.699137965,270.777893066,6.4e-05,0.0,0.0,0.0,0.0001,0.0,0.0,0.0,0.001849,2
1668538563455257218,385409,1668538563531579608,gps,2,1,42.300859718,-83.6991375837,270.777801514,6.4e-05,0.0,0.0,0.0,0.0001,0.0,0.0,0.0,0.001849,2
1668538563465529066,385410,1668538563541562408,gps,2,1,42.3008597501,-83.699137195,270.77734375,6.4e-05,0.0,0.0,0.0,0.0001,0.0,0.0,0.0,0.001849,2
1668538563475164873,385411,1668538563551563482,gps,2,1,42.30085978,-83.699136807,270.777099609,6.4e-05,0.0,0.0,0.0,0.0001,0.0,0.0,0.0,0.001849,2
1668538563485442084,385412,1668538563561485941,gps,2,1,42.3008598103,-83.6991364221,270.776855469,6.4e-05,0.0,0.0,0.0,0.0001,0.0,0.0,0.0,0.001849,2
1668538563495041741,385413,1668538563571484020,gps,2,1,42.3008598427,-83.6991360305,270.776428223,6.4e-05,0.0,0.0,0.0,0.0001,0.0,0.0,0.0,0.001849,2
1668538563505400206,385414,1668538563581539103,gps,2,1,42.3008598737,-83.6991356398,270.776245117,6.4e-05,0.0,0.0,0.0,0.0001,0.0,0.0,0.0,0.001849,2
1668538563515455935,385415,1668538563591482577,gps,2,1,42.3008599041,-83.6991352516,270.776000977,6.4e-05,0.0,0.0,0.0,0.0001,0.0,0.0,0.0,0.001849,2
1668538563525311726,385416,1668538563601564462,gps,2,1,42.3008599376,-83.6991348569,270.775665283,6.4e-05,0.0,0.0,0.0,0.0001,0.0,0.0,0.0,0.001849,2
1668538563535323011,385417,1668538563611517117,gps,2,1,42.3008599702,-83.6991344629,270.775543213,6.4e-05,0.0,0.0,0.0,0.0001,0.0,0.0,0.0,0.001849,2
1668538563545279312,385418,1668538563621523994,gps,2,1,42.3008600009,-83.699134072,270.775360107,6.4e-05,0.0,0.0,0.0,0.0001,0.0,0.0,0.0,0.001849,2
1668538563555442657,385419,1668538563631512672,gps,2,1,42.3008600356,-83.699133674,270.775115967,6.4e-05,0.0,0.0,0.0,0.0001,0.0,0.0,0.0,0.001849,2
1668538563565282992,385420,1668538563641523626,gps,2,1,42.3008600686,-83.6991332767,270.775146484,6.4e-05,0.0,0.0,0.0,0.0001,0.0,0.0,0.0,0.001849,2
1668538563575327489,385421,1668538563651484830,gps,2,1,42.3008601009,-83.6991328823,270.775024414,6.4e-05,0.0,0.0,0.0,0.0001,0.0,0.0,0.0,0.001849,2
1668538563585172837,385422,1668538563661478243,gps,2,1,42.3008601344,-83.6991324814,270.774963379,6.4e-05,0.0,0.0,0.0,0.0001,0.0,0.0,0.0,0.001849,2
1668538563595195196,385423,1668538563671626019,gps,2,1,42.3008601677,-83.6991320812,270.775115967,6.4e-05,0.0,0.0,0.0,0.0001,0.0,0.0,0.0,0.001849,2
1668538563605118461,385424,1668538563681484459,gps,2,1,42.3008602011,-83.6991316832,270.775085449,6.4e-05,0.0,0.0,0.0,0.0001,0.0,0.0,0.0,0.001849,2
1668538563615057258,385425,1668538563691474485,gps,2,1,42.300860234,-83.6991312784,270.775146484,6.4e-05,0.0,0.0,0.0,0.0001,0.0,0.0,0.0,0.001849,2
1668538563625749615,385426,1668538563701541623,gps,2,1,42.3008602661,-83.6991308735,270.775390625,6.4e-05,0.0,0.0,0.0,0.0001,0.0,0.0,0.0,0.001849,2
1668538563635469998,385427,1668538563711481360,gps,2,1,42.3008602984,-83.6991304729,270.775482178,6.4e-05,0.0,0.0,0.0,0.0001,0.0,0.0,0.0,0.001849,2
1668538563645387634,385428,1668538563721482084,gps,2,1,42.3008603298,-83.6991300642,270.77557373,6.4e-05,0.0,0.0,0.0,0.0001,0.0,0.0,0.0,0.001849,2
1668538563655304246,385429,1668538563731537383,gps,2,1,42.3008603596,-83.6991296561,270.775848389,6.4e-05,0.0,0.0,0.0,0.0001,0.0,0.0,0.0,0.001849,2
1668538563665360698,385430,1668538563741516749,gps,2,1,42.300860391,-83.6991292502,270.776062012,6.4e-05,0.0,0.0,0.0,0.0001,0.0,0.0,0.0,0.001849,2
1668538563675361070,385431,1668538563751495499,gps,2,1,42.3008604205,-83.699128838,270.7762146,6.4e-05,0.0,0.0,0.0,0.0001,0.0,0.0,0.0,0.001849,2
1668538563685356558,385432,1668538563761520133,gps,2,1,42.3008604485,-83.6991284258,270.776519775,6.4e-05,0.0,0.0,0.0,0.0001,0.0,0.0,0.0,0.001849,2
1668538563695209790,385433,1668538563771462322,gps,2,1,42.3008604784,-83.699128017,270.776794434,6.4e-05,0.0,0.0,0.0,0.0001,0.0,0.0,0.0,0.001849,2
1668538563705293156,385434,1668538563781483510,gps,2,1,42.3008605062,-83.6991276009,270.776977539,6.4e-05,0.0,0.0,0.0,0.0001,0.0,0.0,0.0,0.001849,2
1668538563715258960,385435,1668538563791518704,gps,2,1,42.3008605335,-83.6991271842,270.777313232,6.4e-05,0.0,0.0,0.0,0.0001,0.0,0.0,0.0,0.001849,2
1668538563725181400,385436,1668538563801471925,gps,2,1,42.3008605615,-83.699126772,270.777648926,6.4e-05,0.0,0.0,0.0,0.0001,0.0,0.0,0.0,0.001849,2
1668538563735143668,385437,1668538563811469189,gps,2,1,42.3008605888,-83.6991263518,270.777862549,6.4e-05,0.0,0.0,0.0,0.0001,0.0,0.0,0.0,0.001849,2
1668538563745577200,385438,1668538563821551339,gps,2,1,42.3008606154,-83.6991259314,270.778198242,6.4e-05,0.0,0.0,0.0,0.0001,0.0,0.0,0.0,0.001849,2
1668538563755502399,385439,1668538563831471050,gps,2,1,42.3008606428,-83.6991255149,270.778503418,6.4e-05,0.0,0.0,0.0,0.0001,0.0,0.0,0.0,0.001849,2
1668538563765444206,385440,1668538563841471219,gps,2,1,42.3008606698,-83.6991250912,270.778686523,6.4e-05,0.0,0.0,0.0,0.0001,0.0,0.0,0.0,0.001849,2
1668538563775634499,385441,1668538563851653796,gps,2,1,42.3008606971,-83.6991246674,270.778961182,6.4e-05,0.0,0.0,0.0,0.0001,0.0,0.0,0.0,0.001849,2
1668538563785323127,385442,1668538563861501527,gps,2,1,42.3008607239,-83.6991242465,270.77923584,6.4e-05,0.0,0.0,0.0,0.0001,0.0,0.0,0.0,0.001849,2
1668538563795319067,385443,1668538563871481402,gps,2,1,42.3008607511,-83.6991238193,270.779418945,6.4e-05,0.0,0.0,0.0,0.0001,0.0,0.0,0.0,0.001849,2
1668538563805394732,385444,1668538563881552931,gps,2,1,42.3008607787,-83.6991233916,270.779663086,6.4e-05,0.0,0.0,0.0,0.0001,0.0,0.0,0.0,0.001849,2
1668538563815308721,385445,1668538563891489699,gps,2,1,42.3008608055,-83.6991229674,270.779937744,6.4e-05,0.0,0.0,0.0,0.0001,0.0,0.0,0.0,0.001849,2
1668538563825226458,385446,1668538563901489598,gps,2,1,42.3008608329,-83.6991225364,270.780059814,6.4e-05,0.0,0.0,0.0,0.0001,0.0,0.0,0.0,0.001849,2
1668538563835318388,385447,1668538563911473124,gps,2,1,42.3008608603,-83.699122105,270.780273438,6.4e-05,0.0,0.0,0.0,0.0001,0.0,0.0,0.0,0.001849,2
1668538563845220328,385448,1668538563921531256,gps,2,1,42.3008608872,-83.6991216766,270.780487061,6.4e-05,0.0,0.0,0.0,0.0001,0.0,0.0,0.0,0.001849,2
1668538563855261689,385449,1668538563931475383,gps,2,1,42.3008609147,-83.6991212417,270.780578613,6.4e-05,0.0,0.0,0.0,0.0001,0.0,0.0,0.0,0.001849,2
1668538563865234905,385450,1668538563941537848,gps,2,1,42.3008609419,-83.6991208062,270.780731201,6.4e-05,0.0,0.0,0.0,0.0001,0.0,0.0,0.0,0.001849,2
1668538563875155732,385451,1668538563951479659,gps,2,1,42.3008609693,-83.6991203739,270.780914307,6.4e-05,0.0,0.0,0.0,0.0001,0.0,0.0,0.0,0.001849,2
1668538563885235288,385452,1668538563961480803,gps,2,1,42.3008609967,-83.6991199353,270.780975342,6.4e-05,0.0,0.0,0.0,0.0001,0.0,0.0,0.0,0.001849,2
1668538563895501379,385453,1668538563971548082,gps,2,1,42.3008610241,-83.6991194961,270.781066895,6.4e-05,0.0,0.0,0.0,0.0001,0.0,0.0,0.0,0.001849,2
1668538563905465980,385454,1668538563981483166,gps,2,1,42.3008610515,-83.6991190598,270.781219482,6.4e-05,0.0,0.0,0.0,0.0001,0.0,0.0,0.0,0.001849,2
1668538563915546423,385455,1668538563991526875,gps,2,1,42.3008610792,-83.6991186173,270.781219482,6.4e-05,0.0,0.0,0.0,0.0001,0.0,0.0,0.0,0.001849,2
1668538563925435844,385456,1668538564001617687,gps,2,1,42.3008611071,-83.6991181742,270.78125,6.4e-05,0.0,0.0,0.0,0.0001,0.0,0.0,0.0,0.001849,2
1668538563935323147,385457,1668538564011543005,gps,2,1,42.3008611346,-83.6991177343,270.781311035,6.4e-05,0.0,0.0,0.0,0.0001,0.0,0.0,0.0,0.001849,2
1668538563945286682,385458,1668538564021539811,gps,2,1,42.3008611579,-83.6991172886,270.781585693,6.4e-05,0.0,0.0,0.0,0.0001,0.0,0.0,0.0,0.001849,2
1668538563955331866,385459,1668538564031572046,gps,2,1,42.3008611865,-83.6991168418,270.781585693,6.4e-05,0.0,0.0,0.0,0.0001,0.0,0.0,0.0,0.001849,2
1668538563965474465,385460,1668538564041518667,gps,2,1,42.3008612143,-83.6991163979,270.781585693,6.4e-05,0.0,0.0,0.0,0.0001,0.0,0.0,0.0,0.001849,2
1668538563975680670,385461,1668538564051508772,gps,2,1,42.3008612384,-83.6991159487,270.781799316,6.4e-05,0.0,0.0,0.0,0.0001,0.0,0.0,0.0,0.001849,2
1668538563985450708,385462,1668538564061587108,gps,2,1,42.3008612677,-83.6991154985,270.781768799,6.4e-05,0.0,0.0,0.0,0.0001,0.0,0.0,0.0,0.001849,2
1668538563995702441,385463,1668538564071614217,gps,2,1,42.3008612964,-83.6991150512,270.781768799,6.4e-05,0.0,0.0,0.0,0.0001,0.0,0.0,0.0,0.001849,2
1668538564005360475,385464,1668538564081485404,gps,2,1,42.3008613212,-83.6991145986,270.781982422,6.4e-05,0.0,0.0,0.0,0.0001,0.0,0.0,0.0,0.001849,2
1668538564015234672,385465,1668538564091542886,gps,2,1,42.3008613507,-83.6991141449,270.781982422,6.4e-05,0.0,0.0,0.0,0.0001,0.0,0.0,0.0,0.001849,2
1668538564025864613,385466,1668538564101568887,gps,2,1,42.3008613802,-83.6991136942,270.781951904,6.4e-05,0.0,0.0,0.0,0.0001,0.0,0.0,0.0,0.001849,2
1668538564035464312,385467,1668538564111472861,gps,2,1,42.3008614053,-83.699113238,270.782165527,6.4e-05,0.0,0.0,0.0,0.0001,0.0,0.0,0.0,0.001849,2
1668538564045455148,385468,1668538564121471938,gps,2,1,42.3008614349,-83.6991127808,270.782226562,6.4e-05,0.0,0.0,0.0,0.0001,0.0,0.0,0.0,0.001849,2
1668538564055453984,385469,1668538564131557808,gps,2,1,42.3008614644,-83.6991123263,270.782226562,6.4e-05,0.0,0.0,0.0,0.0001,0.0,0.0,0.0,0.001849,2
1668538564065694289,385470,1668538564141480874,gps,2,1,42.3008614897,-83.6991118663,270.782531738,6.4e-05,0.0,0.0,0.0,0.0001,0.0,0.0,0.0,0.001849,2
1668538564075300016,385471,1668538564151476437,gps,2,1,42.3008615195,-83.6991114054,270.782623291,6.4e-05,0.0,0.0,0.0,0.0001,0.0,0.0,0.0,0.001849,2
1668538564085450215,385472,1668538564161533006,gps,2,1,42.3008615492,-83.6991109474,270.782684326,6.4e-05,0.0,0.0,0.0,0.0001,0.0,0.0,0.0,0.001849,2
1668538564095343133,385473,1668538564171476206,gps,2,1,42.3008615748,-83.699110484,270.78302002,6.4e-05,0.0,0.0,0.0,0.0001,0.0,0.0,0.0,0.001849,2
1668538564105445027,385474,1668538564181484135,gps,2,1,42.3008616048,-83.6991100193,270.783203125,6.4e-05,0.0,0.0,0.0,0.0001,0.0,0.0,0.0,0.001849,2
1668538564115539911,385475,1668538564191545578,gps,2,1,42.3008616345,-83.6991095579,270.783325195,6.4e-05,0.0,0.0,0.0,0.0001,0.0,0.0,0.0,0.001849,2
1668538564125423887,385476,1668538564201514328,gps,2,1,42.3008616604,-83.6991090908,270.783691406,0.000121,0.0,0.0,0.0,0.000196,0.0,0.0,0.0,0.001936,2
1668538564135381811,385477,1668538564211506178,gps,2,1,42.3008616903,-83.6991086225,270.783843994,0.000121,0.0,0.0,0.0,0.000196,0.0,0.0,0.0,0.001936,2
1668538564145306870,385478,1668538564221415069,gps,2,1,42.3008617204,-83.6991081576,270.784057617,0.000121,0.0,0.0,0.0,0.000196,0.0,0.0,0.0,0.001936,2
1668538564155302529,385479,1668538564231414299,gps,2,1,42.3008617464,-83.699107687,270.784393311,0.000121,0.0,0.0,0.0,0.000196,0.0,0.0,0.0,0.001936,2
1668538564165289824,385480,1668538564241420348,gps,2,1,42.300861776,-83.6991072154,270.784576416,0.000121,0.0,0.0,0.0,0.000196,0.0,0.0,0.0,0.001936,2
1668538564175147823,385481,1668538564251458581,gps,2,1,42.3008618058,-83.6991067464,270.784790039,0.000121,0.0,0.0,0.0,0.000196,0.0,0.0,0.0,0.001936,2
1668538564185534038,385482,1668538564261487716,gps,2,1,42.3008618314,-83.6991062723,270.785125732,0.000121,0.0,0.0,0.0,0.000196,0.0,0.0,0.0,0.001936,2
1668538564195179903,385483,1668538564271541675,gps,2,1,42.30086186,-83.6991057968,270.785339355,0.000121,0.0,0.0,0.0,0.000196,0.0,0.0,0.0,0.001936,2
1668538564205295479,385484,1668538564281501311,gps,2,1,42.3008618896,-83.6991053245,270.785522461,0.000121,0.0,0.0,0.0,0.000196,0.0,0.0,0.0,0.001936,2
1668538564215335750,385485,1668538564291526076,gps,2,1,42.3008619143,-83.6991048467,270.78604126,0.000121,0.0,0.0,0.0,0.000196,0.0,0.0,0.0,0.001936,2
1668538564225425843,385486,1668538564301508776,gps,2,1,42.3008619417,-83.6991043674,270.786254883,0.000121,0.0,0.0,0.0,0.000196,0.0,0.0,0.0,0.001936,2
1668538564235379312,385487,1668538564311538426,gps,2,1,42.3008619705,-83.6991038914,270.786437988,0.000121,0.0,0.0,0.0,0.000196,0.0,0.0,0.0,0.001936,2
1668538564245423925,385488,1668538564321471937,gps,2,1,42.3008619942,-83.6991034097,270.786956787,0.000121,0.0,0.0,0.0,0.000196,0.0,0.0,0.0,0.001936,2
1668538564255455566,385489,1668538564331475566,gps,2,1,42.3008620208,-83.6991029267,270.787109375,0.000121,0.0,0.0,0.0,0.000196,0.0,0.0,0.0,0.001936,2
1668538564265391307,385490,1668538564341513385,gps,2,1,42.3008620484,-83.699102447,270.787353516,0.000121,0.0,0.0,0.0,0.000196,0.0,0.0,0.0,0.001936,2
1668538564275416899,385491,1668538564351573076,gps,2,1,42.3008620713,-83.6991019614,270.787780762,0.000121,0.0,0.0,0.0,0.000196,0.0,0.0,0.0,0.001936,2
1668538564285252193,385492,1668538564361465062,gps,2,1,42.3008620976,-83.6991014746,270.787872314,0.000121,0.0,0.0,0.0,0.000196,0.0,0.0,0.0,0.001936,2
1668538564295164125,385493,1668538564371541979,gps,2,1,42.3008621243,-83.6991009909,270.788024902,0.000121,0.0,0.0,0.0,0.000196,0.0,0.0,0.0,0.001936,2
1668538564305201025,385494,1668538564381464852,gps,2,1,42.3008621464,-83.699100502,270.788421631,0.000121,0.0,0.0,0.0,0.000196,0.0,0.0,0.0,0.001936,2
1668538564315606669,385495,1668538564391518120,gps,2,1,42.3008621724,-83.6991000116,270.788482666,0.000121,0.0,0.0,0.0,0.000196,0.0,0.0,0.0,0.001936,2
1668538564325686335,385496,1668538564401600063,gps,2,1,42.3008621981,-83.6990995243,270.788543701,0.000121,0.0,0.0,0.0,0.000196,0.0,0.0,0.0,0.001936,2
1668538564335393234,385497,1668538564411477180,gps,2,1,42.3008622201,-83.6990990318,270.788909912,0.000121,0.0,0.0,0.0,0.000196,0.0,0.0,0.0,0.001936,2
1668538564345433888,385498,1668538564421464293,gps,2,1,42.3008622459,-83.6990985379,270.788970947,0.000121,0.0,0.0,0.0,0.000196,0.0,0.0,0.0,0.001936,2
1668538564355473991,385499,1668538564431524718,gps,2,1,42.3008622715,-83.6990980471,270.7890625,0.000121,0.0,0.0,0.0,0.000196,0.0,0.0,0.0,0.001936,2
1668538564365404168,385500,1668538564441495016,gps,2,1,42.3008622934,-83.699097551,270.789398193,0.000121,0.0,0.0,0.0,0.000196,0.0,0.0,0.0,0.001936,2
1668538564375589646,385501,1668538564451470966,gps,2,1,42.3008623186,-83.6990970536,270.789459229,0.000121,0.0,0.0,0.0,0.000196,0.0,0.0,0.0,0.001936,2
1668538564385496662,385502,1668538564461574183,gps,2,1,42.3008623443,-83.6990965592,270.789489746,0.000121,0.0,0.0,0.0,0.000196,0.0,0.0,0.0,0.001936,2
1668538564395318689,385503,1668538564471457325,gps,2,1,42.3008623658,-83.6990960597,270.789794922,0.000121,0.0,0.0,0.0,0.000196,0.0,0.0,0.0,0.001936,2
1668538564405426133,385504,1668538564481466297,gps,2,1,42.3008623909,-83.6990955588,270.789794922,0.000121,0.0,0.0,0.0,0.000196,0.0,0.0,0.0,0.001936,2
1668538564415360838,385505,1668538564491531124,gps,2,1,42.300862416,-83.6990950609,270.789794922,0.000121,0.0,0.0,0.0,0.000196,0.0,0.0,0.0,0.001936,2
1668538564425328203,385506,1668538564501496983,gps,2,1,42.3008624306,-83.6990945589,270.790435791,0.000121,0.0,0.0,0.0,0.000196,0.0,0.0,0.0,0.001936,2
1668538564435360641,385507,1668538564511550704,gps,2,1,42.3008624553,-83.6990940548,270.790374756,0.000121,0.0,0.0,0.0,0.000196,0.0,0.0,0.0,0.001936,2
1668538564445587059,385508,1668538564521541820,gps,2,1,42.30086248,-83.6990935531,270.790344238,0.000121,0.0,0.0,0.0,0.000196,0.0,0.0,0.0,0.001936,2
1668538564455783352,385509,1668538564531512279,gps,2,1,42.3008624947,-83.6990930478,270.790924072,0.000121,0.0,0.0,0.0,0.000196,0.0,0.0,0.0,0.001936,2
1668538564465831683,385510,1668538564541589811,gps,2,1,42.300862519,-83.6990925404,270.790802002,0.000121,0.0,0.0,0.0,0.000196,0.0,0.0,0.0,0.001936,2
1668538564475758303,385511,1668538564551545656,gps,2,1,42.3008625435,-83.6990920351,270.790710449,0.000121,0.0,0.0,0.0,0.000196,0.0,0.0,0.0,0.001936,2
1668538564485496553,385512,1668538564561471646,gps,2,1,42.3008625585,-83.6990915262,270.79119873,0.000121,0.0,0.0,0.0,0.000196,0.0,0.0,0.0,0.001936,2
1668538564495631776,385513,1668538564571478498,gps,2,1,42.3008625831,-83.6990910148,270.79095459,0.000121,0.0,0.0,0.0,0.000196,0.0,0.0,0.0,0.001936,2
1668538564505439891,385514,1668538564581519955,gps,2,1,42.3008626073,-83.6990905064,270.790863037,0.000121,0.0,0.0,0.0,0.000196,0.0,0.0,0.0,0.001936,2
1668538564515421949,385515,1668538564591483263,gps,2,1,42.3008626228,-83.6990899942,270.79119873,0.000121,0.0,0.0,0.0,0.000196,0.0,0.0,0.0,0.001936,2
1668538564525466673,385516,1668538564601553722,gps,2,1,42.3008626472,-83.6990894799,270.79095459,0.000121,0.0,0.0,0.0,0.000196,0.0,0.0,0.0,0.001936,2
1668538564535481418,385517,1668538564611558359,gps,2,1,42.3008626719,-83.6990889678,270.790740967,0.000121,0.0,0.0,0.0,0.000196,0.0,0.0,0.0,0.001936,2
1668538564545374226,385518,1668538564621443421,gps,2,1,42.3008626877,-83.6990884517,270.79095459,0.000121,0.0,0.0,0.0,0.000196,0.0,0.0,0.0,0.001936,2
1668538564555462215,385519,1668538564631455672,gps,2,1,42.300862712,-83.6990879331,270.790527344,0.000121,0.0,0.0,0.0,0.000196,0.0,0.0,0.0,0.001936,2
1668538564565333344,385520,1668538564641517520,gps,2,1,42.3008627367,-83.6990874186,270.790313721,0.000121,0.0,0.0,0.0,0.000196,0.0,0.0,0.0,0.001936,2
1668538564575494677,385521,1668538564651437886,gps,2,1,42.3008627523,-83.6990868983,270.790374756,0.000121,0.0,0.0,0.0,0.000196,0.0,0.0,0.0,0.001936,2
1668538564585227334,385522,1668538564661475720,gps,2,1,42.3008627757,-83.6990863754,270.789764404,0.000121,0.0,0.0,0.0,0.000196,0.0,0.0,0.0,0.001936,2
1668538564595551832,385523,1668538564671534343,gps,2,1,42.3008628003,-83.6990858566,270.789337158,0.000121,0.0,0.0,0.0,0.000196,0.0,0.0,0.0,0.001936,2
1668538564605605807,385524,1668538564681450095,gps,2,1,42.3008628157,-83.6990853331,270.789215088,0.000121,0.0,0.0,0.0,0.000196,0.0,0.0,0.0,0.001936,2
1668538564615559410,385525,1668538564691468210,gps,2,1,42.3008628396,-83.6990848086,270.788543701,0.000121,0.0,0.0,0.0,0.000196,0.0,0.0,0.0,0.001936,2
1668538564625662173,385526,1668538564701520572,gps,2,1,42.3008628634,-83.6990842837,270.787902832,0.000121,0.0,0.0,0.0,0.000196,0.0,0.0,0.0,0.001936,2
1668538564635519339,385527,1668538564711481724,gps,2,1,42.30086288,-83.6990837567,270.787719727,0.000121,0.0,0.0,0.0,0.000196,0.0,0.0,0.0,0.001936,2
1668538564645308000,385528,1668538564721475554,gps,2,1,42.3008629048,-83.6990832288,270.787078857,0.000121,0.0,0.0,0.0,0.000196,0.0,0.0,0.0,0.001936,2
1668538564655627540,385529,1668538564731540553,gps,2,1,42.3008629291,-83.699082704,270.786468506,0.000121,0.0,0.0,0.0,0.000196,0.0,0.0,0.0,0.001936,2
1668538564665397101,385530,1668538564741480569,gps,2,1,42.3008629465,-83.6990821755,270.786315918,0.000121,0.0,0.0,0.0,0.000196,0.0,0.0,0.0,0.001936,2
1668538564675714154,385531,1668538564751539785,gps,2,1,42.3008629709,-83.6990816453,270.785705566,0.000121,0.0,0.0,0.0,0.000196,0.0,0.0,0.0,0.001936,2
1668538564685369754,385532,1668538564761471137,gps,2,1,42.3008629969,-83.6990811166,270.785125732,0.000121,0.0,0.0,0.0,0.000196,0.0,0.0,0.0,0.001936,2
1668538564695315777,385533,1668538564771456687,gps,2,1,42.3008630143,-83.6990805844,270.785003662,0.000121,0.0,0.0,0.0,0.000196,0.0,0.0,0.0,0.001936,2
1668538564705391369,385534,1668538564781469906,gps,2,1,42.3008630395,-83.699080051,270.784545898,0.000121,0.0,0.0,0.0,0.000196,0.0,0.0,0.0,0.001936,2
1668538564715278006,385535,1668538564791535255,gps,2,1,42.3008630649,-83.6990795203,270.783966064,0.000121,0.0,0.0,0.0,0.000196,0.0,0.0,0.0,0.001936,2
1668538564725312011,385536,1668538564801465205,gps,2,1,42.3008630827,-83.6990789859,270.783966064,0.000121,0.0,0.0,0.0,0.000196,0.0,0.0,0.0,0.001936,2
1668538564735323828,385537,1668538564811474875,gps,2,1,42.3008631077,-83.6990784496,270.783660889,0.000121,0.0,0.0,0.0,0.000196,0.0,0.0,0.0,0.001936,2
1668538564745519595,385538,1668538564821523612,gps,2,1,42.300863133,-83.6990779155,270.783203125,0.000121,0.0,0.0,0.0,0.000196,0.0,0.0,0.0,0.001936,2
1668538564755273216,385539,1668538564831466311,gps,2,1,42.3008631502,-83.699077378,270.783355713,0.000121,0.0,0.0,0.0,0.000196,0.0,0.0,0.0,0.001936,2
1668538564765519373,385540,1668538564841467441,gps,2,1,42.3008631747,-83.699076839,270.783203125,0.000121,0.0,0.0,0.0,0.000196,0.0,0.0,0.0,0.001936,2
1668538564775525026,385541,1668538564851618391,gps,2,1,42.300863199,-83.6990763019,270.782836914,0.000121,0.0,0.0,0.0,0.000196,0.0,0.0,0.0,0.001936,2
1668538564785352963,385542,1668538564861449893,gps,2,1,42.3008632162,-83.6990757614,270.783111572,0.000121,0.0,0.0,0.0,0.000196,0.0,0.0,0.0,0.001936,2
1668538564795412229,385543,1668538564871538120,gps,2,1,42.3008632399,-83.6990752192,270.783081055,0.000121,0.0,0.0,0.0,0.000196,0.0,0.0,0.0,0.001936,2
1668538564805504658,385544,1668538564881476229,gps,2,1,42.3008632635,-83.6990746797,270.782897949,0.000121,0.0,0.0,0.0,0.000196,0.0,0.0,0.0,0.001936,2
1668538564815316885,385545,1668538564891475787,gps,2,1,42.3008632806,-83.699074137,270.783325195,0.000121,0.0,0.0,0.0,0.000196,0.0,0.0,0.0,0.001936,2
1668538564825351145,385546,1668538564901498222,gps,2,1,42.3008633037,-83.6990735921,270.783416748,0.000121,0.0,0.0,0.0,0.000196,0.0,0.0,0.0,0.001936,2
1668538564835229938,385547,1668538564911437161,gps,2,1,42.3008633275,-83.6990730491,270.78338623,0.000121,0.0,0.0,0.0,0.000196,0.0,0.0,0.0,0.001936,2
1668538564845169546,385548,1668538564921438469,gps,2,1,42.3008633443,-83.6990725035,270.783874512,0.000121,0.0,0.0,0.0,0.000196,0.0,0.0,0.0,0.001936,2
1668538564855378482,385549,1668538564931448353,gps,2,1,42.3008633674,-83.6990719559,270.784057617,0.000121,0.0,0.0,0.0,0.000196,0.0,0.0,0.0,0.001936,2
1668538564865183089,385550,1668538564941523778,gps,2,1,42.300863391,-83.6990714103,270.78414917,0.000121,0.0,0.0,0.0,0.000196,0.0,0.0,0.0,0.001936,2
1668538564875159465,385551,1668538564951444676,gps,2,1,42.3008634076,-83.6990708624,270.784759521,0.000121,0.0,0.0,0.0,0.000196,0.0,0.0,0.0,0.001936,2
1668538564885458312,385552,1668538564961448034,gps,2,1,42.3008634302,-83.699070312,270.784973145,0.000121,0.0,0.0,0.0,0.000196,0.0,0.0,0.0,0.001936,2
1668538564895392601,385553,1668538564971508742,gps,2,1,42.300863453,-83.699069764,270.785125732,0.000121,0.0,0.0,0.0,0.000196,0.0,0.0,0.0,0.001936,2
1668538564905478561,385554,1668538564981448195,gps,2,1,42.3008634694,-83.6990692133,270.785736084,0.000121,0.0,0.0,0.0,0.000196,0.0,0.0,0.0,0.001936,2
1668538564915552107,385555,1668538564991562548,gps,2,1,42.3008634914,-83.6990686603,270.785888672,0.000121,0.0,0.0,0.0,0.000196,0.0,0.0,0.0,0.001936,2
1668538564925345265,385556,1668538565001558392,gps,2,1,42.3008635137,-83.6990681097,270.786102295,0.000121,0.0,0.0,0.0,0.000196,0.0,0.0,0.0,0.001936,2
1668538564935364841,385557,1668538565011467916,gps,2,1,42.3008635291,-83.6990675567,270.786865234,0.000121,0.0,0.0,0.0,0.000196,0.0,0.0,0.0,0.001936,2
1668538564945320469,385558,1668538565021568107,gps,2,1,42.3008635509,-83.6990670011,270.786956787,0.000121,0.0,0.0,0.0,0.000196,0.0,0.0,0.0,0.001936,2
1668538564955386087,385559,1668538565031524393,gps,2,1,42.3008635733,-83.6990664477,270.787109375,0.000121,0.0,0.0,0.0,0.000196,0.0,0.0,0.0,0.001936,2
1668538564965413669,385560,1668538565041436939,gps,2,1,42.3008635885,-83.699065892,270.787811279,0.000121,0.0,0.0,0.0,0.000196,0.0,0.0,0.0,0.001936,2
1668538564975324523,385561,1668538565051556764,gps,2,1,42.30086361,-83.6990653335,270.787872314,0.000121,0.0,0.0,0.0,0.000196,0.0,0.0,0.0,0.001936,2
1668538564985298742,385562,1668538565061582317,gps,2,1,42.3008636321,-83.6990647772,270.787963867,0.000121,0.0,0.0,0.0,0.000196,0.0,0.0,0.0,0.001936,2
1668538564995200965,385563,1668538565071471792,gps,2,1,42.3008636467,-83.6990642185,270.788574219,0.000121,0.0,0.0,0.0,0.000196,0.0,0.0,0.0,0.001936,2
1668538565005177549,385564,1668538565081497862,gps,2,1,42.3008636677,-83.699063657,270.788604736,0.000121,0.0,0.0,0.0,0.000196,0.0,0.0,0.0,0.001936,2
1668538565015148389,385565,1668538565091525685,gps,2,1,42.3008636889,-83.6990630982,270.788665771,0.000121,0.0,0.0,0.0,0.000196,0.0,0.0,0.0,0.001936,2
1668538565025521820,385566,1668538565101557165,gps,2,1,42.3008637032,-83.6990625366,270.789245605,0.000121,0.0,0.0,0.0,0.000196,0.0,0.0,0.0,0.001936,2
1668538565035484835,385567,1668538565111530791,gps,2,1,42.3008637232,-83.6990619727,270.789245605,0.000121,0.0,0.0,0.0,0.000196,0.0,0.0,0.0,0.001936,2
1668538565045350074,385568,1668538565121452498,gps,2,1,42.3008637439,-83.6990614107,270.789306641,0.000121,0.0,0.0,0.0,0.000196,0.0,0.0,0.0,0.001936,2
1668538565055080802,385569,1668538565131455472,gps,2,1,42.3008637577,-83.6990608471,270.789855957,0.000121,0.0,0.0,0.0,0.000196,0.0,0.0,0.0,0.001936,2
1668538565065421157,385570,1668538565141528762,gps,2,1,42.3008637776,-83.6990602806,270.78994751,0.000121,0.0,0.0,0.0,0.000196,0.0,0.0,0.0,0.001936,2
1668538565075579358,385571,1668538565151484271,gps,2,1,42.3008637979,-83.6990597161,270.789978027,0.000121,0.0,0.0,0.0,0.000196,0.0,0.0,0.0,0.001936,2
1668538565085230759,385572,1668538565161469713,gps,2,1,42.3008638118,-83.6990591502,270.790588379,0.000121,0.0,0.0,0.0,0.000196,0.0,0.0,0.0,0.001936,2
1668538565095268302,385573,1668538565171512870,gps,2,1,42.300863832,-83.699058581,270.790740967,0.000121,0.0,0.0,0.0,0.000196,0.0,0.0,0.0,0.001936,2
1668538565105309984,385574,1668538565181473020,gps,2,1,42.300863852,-83.6990580142,270.79083252,0.000121,0.0,0.0,0.0,0.000196,0.0,0.0,0.0,0.001936,2
1668538565115282109,385575,1668538565191431756,gps,2,1,42.3008638663,-83.6990574458,270.791503906,0.000121,0.0,0.0,0.0,0.000196,0.0,0.0,0.0,0.001936,2
1668538565125384044,385576,1668538565201520144,gps,2,1,42.3008638867,-83.6990568742,270.791717529,0.000121,0.0,0.0,0.0,0.000196,0.0,0.0,0.0,0.001936,2
1668538565135177674,385577,1668538565211463805,gps,2,1,42.3008639069,-83.6990563049,270.791900635,0.000121,0.0,0.0,0.0,0.000196,0.0,0.0,0.0,0.001936,2
1668538565145129154,385578,1668538565221443890,gps,2,1,42.3008639216,-83.6990557341,270.792572021,0.000121,0.0,0.0,0.0,0.000196,0.0,0.0,0.0,0.001936,2
1668538565155569117,385579,1668538565231512804,gps,2,1,42.300863942,-83.6990551605,270.792816162,0.000121,0.0,0.0,0.0,0.000196,0.0,0.0,0.0,0.001936,2
1668538565165098210,385580,1668538565241452859,gps,2,1,42.3008639625,-83.6990545887,270.793060303,0.000121,0.0,0.0,0.0,0.000196,0.0,0.0,0.0,0.001936,2
1668538565175166807,385581,1668538565251483972,gps,2,1,42.3008639772,-83.6990540157,270.793731689,0.000121,0.0,0.0,0.0,0.000196,0.0,0.0,0.0,0.001936,2
1668538565185498602,385582,1668538565261507788,gps,2,1,42.300863997,-83.69905344,270.794006348,0.000121,0.0,0.0,0.0,0.000196,0.0,0.0,0.0,0.001936,2
1668538565195215575,385583,1668538565271459140,gps,2,1,42.3008640174,-83.6990528661,270.794250488,0.000121,0.0,0.0,0.0,0.000196,0.0,0.0,0.0,0.001936,2
1668538565205511377,385584,1668538565281470266,gps,2,1,42.3008640313,-83.6990522906,270.79486084,0.000121,0.0,0.0,0.0,0.000196,0.0,0.0,0.0,0.001936,2
1668538565215414962,385585,1668538565291572530,gps,2,1,42.3008640497,-83.6990517121,270.794952393,0.000121,0.0,0.0,0.0,0.000196,0.0,0.0,0.0,0.001936,2
1668538565225270672,385586,1668538565301490477,gps,2,1,42.3008640698,-83.6990511357,270.795288086,0.000121,0.0,0.0,0.0,0.000196,0.0,0.0,0.0,0.001936,2
1668538565235312010,385587,1668538565311452241,gps,2,1,42.3008640828,-83.6990505577,270.79574585,0.000121,0.0,0.0,0.0,0.000196,0.0,0.0,0.0,0.001936,2
1668538565245301906,385588,1668538565321513097,gps,2,1,42.3008641011,-83.6990499775,270.795837402,0.000121,0.0,0.0,0.0,0.000196,0.0,0.0,0.0,0.001936,2
1668538565255306547,385589,1668538565331432213,gps,2,1,42.3008641202,-83.6990493977,270.796051025,0.000121,0.0,0.0,0.0,0.000196,0.0,0.0,0.0,0.001936,2
1668538565265297080,385590,1668538565341449759,gps,2,1,42.3008641339,-83.6990488179,270.796661377,0.000121,0.0,0.0,0.0,0.000196,0.0,0.0,0.0,0.001936,2
1668538565275840985,385591,1668538565351638965,gps,2,1,42.3008641529,-83.6990482366,270.797058105,0.000121,0.0,0.0,0.0,0.000196,0.0,0.0,0.0,0.001936,2
1668538565285242788,385592,1668538565361439571,gps,2,1,42.3008641711,-83.6990476546,270.797119141,0.000121,0.0,0.0,0.0,0.000196,0.0,0.0,0.0,0.001936,2
1668538565295071288,385593,1668538565371440216,gps,2,1,42.3008641846,-83.6990470731,270.797912598,0.000121,0.0,0.0,0.0,0.000196,0.0,0.0,0.0,0.001936,2
1668538565305117001,385594,1668538565381467169,gps,2,1,42.3008642017,-83.6990464891,270.798461914,0.000121,0.0,0.0,0.0,0.000196,0.0,0.0,0.0,0.001936,2
1668538565315639584,385595,1668538565391584518,gps,2,1,42.3008642201,-83.6990459062,270.798858643,0.000121,0.0,0.0,0.0,0.000196,0.0,0.0,0.0,0.001936,2
1668538565325468877,385596,1668538565401491608,gps,2,1,42.3008642326,-83.6990453218,270.799743652,0.000121,0.0,0.0,0.0,0.000196,0.0,0.0,0.0,0.001936,2
1668538565335462841,385597,1668538565411515902,gps,2,1,42.3008642491,-83.6990447345,270.800476074,0.000121,0.0,0.0,0.0,0.000196,0.0,0.0,0.0,0.001936,2
1668538565345206650,385598,1668538565421442788,gps,2,1,42.3008642656,-83.6990441501,270.801086426,0.000121,0.0,0.0,0.0,0.000196,0.0,0.0,0.0,0.001936,2
1668538565355290003,385599,1668538565431435984,gps,2,1,42.3008642778,-83.6990435633,270.802124023,0.000121,0.0,0.0,0.0,0.000196,0.0,0.0,0.0,0.001936,2
1668538565365346256,385600,1668538565441505441,gps,2,1,42.3008642936,-83.6990429747,270.803070068,0.000121,0.0,0.0,0.0,0.000196,0.0,0.0,0.0,0.001936,2
1668538565375381949,385601,1668538565451448141,gps,2,1,42.3008643106,-83.6990423876,270.803741455,0.000121,0.0,0.0,0.0,0.000196,0.0,0.0,0.0,0.001936,2
1668538565385220225,385602,1668538565461424845,gps,2,1,42.3008643223,-83.6990417994,270.804992676,0.000121,0.0,0.0,0.0,0.000196,0.0,0.0,0.0,0.001936,2
1668538565395249702,385603,1668538565471528177,gps,2,1,42.3008643382,-83.6990412092,270.806030273,0.000121,0.0,0.0,0.0,0.000196,0.0,0.0,0.0,0.001936,2
1668538565405311644,385604,1668538565481469676,gps,2,1,42.3008643548,-83.6990406206,270.807006836,0.000121,0.0,0.0,0.0,0.000196,0.0,0.0,0.0,0.001936,2
1668538565415256087,385605,1668538565491455630,gps,2,1,42.3008643663,-83.6990400305,270.808410645,0.000121,0.0,0.0,0.0,0.000196,0.0,0.0,0.0,0.001936,2
1668538565425117033,385606,1668538565501513573,gps,2,1,42.3008643821,-83.6990394383,270.809692383,0.000121,0.0,0.0,0.0,0.000196,0.0,0.0,0.0,0.001936,2
1668538565435684354,385607,1668538565511574147,gps,2,1,42.3008643978,-83.6990388478,270.810791016,0.000121,0.0,0.0,0.0,0.000196,0.0,0.0,0.0,0.001936,2
1668538565445235093,385608,1668538565521471485,gps,2,1,42.3008644094,-83.6990382557,270.81237793,0.000121,0.0,0.0,0.0,0.000196,0.0,0.0,0.0,0.001936,2
1668538565455244428,385609,1668538565531587063,gps,2,1,42.3008644251,-83.6990376622,270.813812256,0.000121,0.0,0.0,0.0,0.000196,0.0,0.0,0.0,0.001936,2
1668538565465451583,385610,1668538565541591961,gps,2,1,42.3008644401,-83.6990370694,270.815155029,0.000121,0.0,0.0,0.0,0.000196,0.0,0.0,0.0,0.001936,2
1668538565475395043,385611,1668538565551478842,gps,2,1,42.3008644515,-83.6990364776,270.816497803,0.000121,0.0,0.0,0.0,0.000196,0.0,0.0,0.0,0.001936,2
1668538565485414050,385612,1668538565561446700,gps,2,1,42.3008644666,-83.6990358831,270.818054199,0.000121,0.0,0.0,0.0,0.000196,0.0,0.0,0.0,0.001936,2
1668538565495412782,385613,1668538565571511411,gps,2,1,42.300864482,-83.6990352891,270.819488525,0.000121,0.0,0.0,0.0,0.000196,0.0,0.0,0.0,0.001936,2
1668538565505315360,385614,1668538565581436156,gps,2,1,42.300864493,-83.6990346962,270.820922852,0.000121,0.0,0.0,0.0,0.000196,0.0,0.0,0.0,0.001936,2
1668538565515359738,385615,1668538565591504987,gps,2,1,42.300864508,-83.6990341002,270.822509766,0.000121,0.0,0.0,0.0,0.000196,0.0,0.0,0.0,0.001936,2
1668538565525298943,385616,1668538565601568887,gps,2,1,42.3008645234,-83.6990335052,270.82409668,0.000121,0.0,0.0,0.0,0.000196,0.0,0.0,0.0,0.001936,2
1668538565535238620,385617,1668538565611449334,gps,2,1,42.3008645345,-83.6990329105,270.825592041,0.000121,0.0,0.0,0.0,0.000196,0.0,0.0,0.0,0.001936,2
1668538565545082047,385618,1668538565621439356,gps,2,1,42.3008645494,-83.6990323127,270.827148438,0.000121,0.0,0.0,0.0,0.000196,0.0,0.0,0.0,0.001936,2
1668538565555399130,385619,1668538565631511439,gps,2,1,42.3008645643,-83.6990317167,270.828735352,0.000121,0.0,0.0,0.0,0.000196,0.0,0.0,0.0,0.001936,2
1668538565565239510,385620,1668538565641422335,gps,2,1,42.3008645757,-83.6990311206,270.830200195,0.000121,0.0,0.0,0.0,0.000196,0.0,0.0,0.0,0.001936,2
1668538565575101319,385621,1668538565651443790,gps,2,1,42.3008645904,-83.6990305216,270.831695557,0.000121,0.0,0.0,0.0,0.000196,0.0,0.0,0.0,0.001936,2
1668538565585478716,385622,1668538565661507480,gps,2,1,42.3008646052,-83.6990299238,270.833312988,0.000121,0.0,0.0,0.0,0.000196,0.0,0.0,0.0,0.001936,2
1668538565595151378,385623,1668538565671450444,gps,2,1,42.3008646165,-83.6990293267,270.834716797,0.000121,0.0,0.0,0.0,0.000196,0.0,0.0,0.0,0.001936,2
1668538565605585614,385624,1668538565681438131,gps,2,1,42.300864631,-83.6990287272,270.836181641,0.000121,0.0,0.0,0.0,0.000196,0.0,0.0,0.0,0.001936,2
1668538565615562951,385625,1668538565691516587,gps,2,1,42.3008646457,-83.6990281282,270.837677002,0.000121,0.0,0.0,0.0,0.000196,0.0,0.0,0.0,0.001936,2
1668538565625517935,385626,1668538565701468689,gps,2,1,42.3008646567,-83.6990275298,270.839019775,0.000121,0.0,0.0,0.0,0.000196,0.0,0.0,0.0,0.001936,2
1668538565635484273,385627,1668538565711448735,gps,2,1,42.3008646708,-83.699026929,270.840454102,0.000121,0.0,0.0,0.0,0.000196,0.0,0.0,0.0,0.001936,2
1668538565645293183,385628,1668538565721508170,gps,2,1,42.3008646854,-83.6990263294,270.841888428,0.000121,0.0,0.0,0.0,0.000196,0.0,0.0,0.0,0.001936,2
1668538565655296396,385629,1668538565731438516,gps,2,1,42.3008646963,-83.6990257304,270.843261719,0.000121,0.0,0.0,0.0,0.000196,0.0,0.0,0.0,0.001936,2
1668538565665334452,385630,1668538565741490471,gps,2,1,42.3008647104,-83.6990251289,270.84475708,0.000121,0.0,0.0,0.0,0.000196,0.0,0.0,0.0,0.001936,2
1668538565675360716,385631,1668538565751499654,gps,2,1,42.3008647248,-83.6990245279,270.846191406,0.000121,0.0,0.0,0.0,0.000196,0.0,0.0,0.0,0.001936,2
1668538565685285469,385632,1668538565761419400,gps,2,1,42.3008647358,-83.6990239278,270.84765625,0.000121,0.0,0.0,0.0,0.000196,0.0,0.0,0.0,0.001936,2
1668538565695210012,385633,1668538565771449969,gps,2,1,42.3008647499,-83.6990233254,270.849212646,0.000121,0.0,0.0,0.0,0.000196,0.0,0.0,0.0,0.001936,2
1668538565705248633,385634,1668538565781524821,gps,2,1,42.3008647642,-83.6990227237,270.85067749,0.000121,0.0,0.0,0.0,0.000196,0.0,0.0,0.0,0.001936,2
1668538565715482012,385635,1668538565791439523,gps,2,1,42.300864775,-83.6990221228,270.852172852,0.000121,0.0,0.0,0.0,0.000196,0.0,0.0,0.0,0.001936,2
1668538565725162601,385636,1668538565801450314,gps,2,1,42.3008647892,-83.699021519,270.853729248,0.000121,0.0,0.0,0.0,0.000196,0.0,0.0,0.0,0.001936,2
1668538565735250606,385637,1668538565811493368,gps,2,1,42.3008648031,-83.6990209163,270.855285645,0.000121,0.0,0.0,0.0,0.000196,0.0,0.0,0.0,0.001936,2
1668538565745357862,385638,1668538565821431584,gps,2,1,42.3008648141,-83.6990203137,270.856781006,0.000121,0.0,0.0,0.0,0.000196,0.0,0.0,0.0,0.001936,2
1668538565755614383,385639,1668538565831449847,gps,2,1,42.300864828,-83.6990197087,270.85836792,0.000121,0.0,0.0,0.0,0.000196,0.0,0.0,0.0,0.001936,2
1668538565765399229,385640,1668538565841529569,gps,2,1,42.3008648419,-83.6990191046,270.859893799,0.000121,0.0,0.0,0.0,0.000196,0.0,0.0,0.0,0.001936,2
1668538565775287971,385641,1668538565851533169,gps,2,1,42.3008648529,-83.6990185007,270.86138916,0.000121,0.0,0.0,0.0,0.000196,0.0,0.0,0.0,0.001936,2
1668538565785432143,385642,1668538565861446313,gps,2,1,42.3008648668,-83.699017894,270.862945557,0.000121,0.0,0.0,0.0,0.000196,0.0,0.0,0.0,0.001936,2
1668538565795306180,385643,1668538565871511281,gps,2,1,42.3008648807,-83.6990172886,270.864501953,0.000121,0.0,0.0,0.0,0.000196,0.0,0.0,0.0,0.001936,2
1668538565805323438,385644,1668538565881440252,gps,2,1,42.3008648879,-83.6990166834,270.865936279,0.000121,0.0,0.0,0.0,0.000196,0.0,0.0,0.0,0.001936,2
1668538565815304365,385645,1668538565891424662,gps,2,1,42.3008649018,-83.6990160755,270.867401123,0.000121,0.0,0.0,0.0,0.000196,0.0,0.0,0.0,0.001936,2
1668538565825238302,385646,1668538565901492106,gps,2,1,42.3008649156,-83.6990154685,270.868927002,0.000121,0.0,0.0,0.0,0.000196,0.0,0.0,0.0,0.001936,2
1668538565835216092,385647,1668538565911423237,gps,2,1,42.3008649229,-83.6990148621,270.870300293,0.000121,0.0,0.0,0.0,0.000196,0.0,0.0,0.0,0.001936,2
1668538565845186055,385648,1668538565921431903,gps,2,1,42.3008649364,-83.6990142531,270.871704102,0.000121,0.0,0.0,0.0,0.000196,0.0,0.0,0.0,0.001936,2
1668538565855179601,385649,1668538565931502918,gps,2,1,42.3008649503,-83.6990136453,270.873168945,0.000121,0.0,0.0,0.0,0.000196,0.0,0.0,0.0,0.001936,2
1668538565865269340,385650,1668538565941438409,gps,2,1,42.3008649577,-83.6990130375,270.874481201,0.000121,0.0,0.0,0.0,0.000196,0.0,0.0,0.0,0.001936,2
1668538565875017091,385651,1668538565951438950,gps,2,1,42.3008649713,-83.6990124273,270.875793457,0.000121,0.0,0.0,0.0,0.000196,0.0,0.0,0.0,0.001936,2
1668538565885477287,385652,1668538565961505955,gps,2,1,42.3008649848,-83.6990118187,270.877258301,0.000121,0.0,0.0,0.0,0.000196,0.0,0.0,0.0,0.001936,2
1668538565895087993,385653,1668538565971427012,gps,2,1,42.3008649925,-83.6990112099,270.878509521,0.000121,0.0,0.0,0.0,0.000196,0.0,0.0,0.0,0.001936,2
1668538565905614280,385654,1668538565981440345,gps,2,1,42.3008650062,-83.699010599,270.879760742,0.000121,0.0,0.0,0.0,0.000196,0.0,0.0,0.0,0.001936,2
1668538565915419393,385655,1668538565991542115,gps,2,1,42.3008650201,-83.6990099886,270.881134033,0.000121,0.0,0.0,0.0,0.000196,0.0,0.0,0.0,0.001936,2
1668538565925309278,385656,1668538566001528622,gps,2,1,42.3008650233,-83.6990093817,270.881988525,0.000121,0.0,0.0,0.0,0.000196,0.0,0.0,0.0,0.001936,2
1668538565935274969,385657,1668538566011476623,gps,2,1,42.3008650375,-83.6990087698,270.883300781,0.000121,0.0,0.0,0.0,0.000196,0.0,0.0,0.0,0.001936,2
1668538565945503513,385658,1668538566021573692,gps,2,1,42.3008650514,-83.6990081584,270.884552002,0.000121,0.0,0.0,0.0,0.000196,0.0,0.0,0.0,0.001936,2
1668538565955363396,385659,1668538566031565794,gps,2,1,42.3008650552,-83.6990075503,270.885437012,0.000121,0.0,0.0,0.0,0.000196,0.0,0.0,0.0,0.001936,2
1668538565965478285,385660,1668538566041468053,gps,2,1,42.3008650692,-83.6990069368,270.886688232,0.000121,0.0,0.0,0.0,0.000196,0.0,0.0,0.0,0.001936,2
1668538565975405270,385661,1668538566051532716,gps,2,1,42.3008650832,-83.6990063245,270.888000488,0.000121,0.0,0.0,0.0,0.000196,0.0,0.0,0.0,0.001936,2
1668538565985181439,385662,1668538566061552418,gps,2,1,42.3008650872,-83.6990057149,270.888885498,0.000121,0.0,0.0,0.0,0.000196,0.0,0.0,0.0,0.001936,2
1668538565995135368,385663,1668538566071454696,gps,2,1,42.3008651007,-83.6990051003,270.890167236,0.000121,0.0,0.0,0.0,0.000196,0.0,0.0,0.0,0.001936,2
1668538566005129756,385664,1668538566081488798,gps,2,1,42.300865115,-83.6990044864,270.891418457,0.000121,0.0,0.0,0.0,0.000196,0.0,0.0,0.0,0.001936,2
1668538566015265219,385665,1668538566091435952,gps,2,1,42.3008651188,-83.6990038754,270.892364502,0.000121,0.0,0.0,0.0,0.000196,0.0,0.0,0.0,0.001936,2
1668538566025655630,385666,1668538566101540055,gps,2,1,42.3008651316,-83.6990032592,270.89364624,0.000121,0.0,0.0,0.0,0.000196,0.0,0.0,0.0,0.001936,2
1668538566035085749,385667,1668538566111511941,gps,2,1,42.3008651452,-83.6990026444,270.894927979,0.000121,0.0,0.0,0.0,0.000196,0.0,0.0,0.0,0.001936,2
1668538566045430694,385668,1668538566121429211,gps,2,1,42.3008651509,-83.6990020316,270.895996094,0.000121,0.0,0.0,0.0,0.000196,0.0,0.0,0.0,0.001936,2
1668538566055277612,385669,1668538566131426233,gps,2,1,42.3008651631,-83.6990014141,270.89730835,0.000121,0.0,0.0,0.0,0.000196,0.0,0.0,0.0,0.001936,2
1668538566065294572,385670,1668538566141493949,gps,2,1,42.300865176,-83.6990007979,270.898620605,0.000121,0.0,0.0,0.0,0.000196,0.0,0.0,0.0,0.001936,2
1668538566075447139,385671,1668538566151441505,gps,2,1,42.3008651813,-83.6990001836,270.899749756,0.000121,0.0,0.0,0.0,0.000196,0.0,0.0,0.0,0.001936,2
1668538566085425910,385672,1668538566161466055,gps,2,1,42.3008651932,-83.6989995651,270.9012146,0.000121,0.0,0.0,0.0,0.000196,0.0,0.0,0.0,0.001936,2
1668538566095402833,385673,1668538566171497533,gps,2,1,42.3008652051,-83.6989989477,270.902587891,0.000121,0.0,0.0,0.0,0.000196,0.0,0.0,0.0,0.001936,2
1668538566105407155,385674,1668538566181419644,gps,2,1,42.3008652105,-83.6989983322,270.903839111,0.000121,0.0,0.0,0.0,0.000196,0.0,0.0,0.0,0.001936,2
1668538566115384728,385675,1668538566191423486,gps,2,1,42.3008652224,-83.6989977124,270.90536499,0.000121,0.0,0.0,0.0,0.000196,0.0,0.0,0.0,0.001936,2
1668538566125490052,385676,1668538566201484629,gps,2,1,42.3008652337,-83.698997094,270.906860352,8.1e-05,0.0,0.0,0.0,0.000196,0.0,0.0,0.0,0.001936,2
1668538566135196368,385677,1668538566211424933,gps,2,1,42.3008652395,-83.6989964771,270.90814209,8.1e-05,0.0,0.0,0.0,0.000196,0.0,0.0,0.0,0.001936,2
1668538566145395906,385678,1668538566221437808,gps,2,1,42.3008652513,-83.6989958562,270.909606934,8.1e-05,0.0,0.0,0.0,0.000196,0.0,0.0,0.0,0.001936,2
1668538566155667580,385679,1668538566231494429,gps,2,1,42.3008652631,-83.6989952365,270.91116333,8.1e-05,0.0,0.0,0.0,0.000196,0.0,0.0,0.0,0.001936,2
1668538566165576779,385680,1668538566241419741,gps,2,1,42.300865269,-83.6989946189,270.912506104,8.1e-05,0.0,0.0,0.0,0.000196,0.0,0.0,0.0,0.001936,2
1668538566175160968,385681,1668538566251470275,gps,2,1,42.3008652806,-83.6989939975,270.914093018,8.1e-05,0.0,0.0,0.0,0.000196,0.0,0.0,0.0,0.001936,2
1668538566185539789,385682,1668538566261495477,gps,2,1,42.3008652925,-83.6989933764,270.915588379,8.1e-05,0.0,0.0,0.0,0.000196,0.0,0.0,0.0,0.001936,2
1668538566195360003,385683,1668538566271425689,gps,2,1,42.300865298,-83.6989927577,270.916992188,8.1e-05,0.0,0.0,0.0,0.000196,0.0,0.0,0.0,0.001936,2
1668538566205492806,385684,1668538566281519908,gps,2,1,42.3008653086,-83.6989921352,270.918670654,8.1e-05,0.0,0.0,0.0,0.000196,0.0,0.0,0.0,0.001936,2
1668538566215441460,385685,1668538566291505075,gps,2,1,42.3008653202,-83.6989915138,270.920318604,8.1e-05,0.0,0.0,0.0,0.000196,0.0,0.0,0.0,0.001936,2
