%time,field.header.seq,field.header.stamp,field.header.frame_id,field.status.status,field.status.service,field.latitude,field.longitude,field.altitude,field.position_covariance0,field.position_covariance1,field.position_covariance2,field.position_covariance3,field.position_covariance4,field.position_covariance5,field.position_covariance6,field.position_covariance7,field.position_covariance8,field.position_covariance_type
1668538676295542229,396693,1668538676368885811,gps,2,1,42.3003664518,-83.698610183,271.045837402,0.000121,0.0,0.0,0.0,0.000144,0.0,0.0,0.0,0.001764,2
1668538676305463840,396694,1668538676378884634,gps,2,1,42.3003665858,-83.6986101975,271.046020508,0.000121,0.0,0.0,0.0,0.000144,0.0,0.0,0.0,0.001764,2
1668538676315555254,396695,1668538676388944941,gps,2,1,42.3003667169,-83.6986102109,271.046142578,0.000121,0.0,0.0,0.0,0.000144,0.0,0.0,0.0,0.001764,2
1668538676325492743,396696,1668538676398856804,gps,2,1,42.3003668543,-83.698610226,271.046386719,0.000121,0.0,0.0,0.0,0.000144,0.0,0.0,0.0,0.001764,2
1668538676335502560,396697,1668538676408916167,gps,2,1,42.3003669918,-83.6986102413,271.046600342,0.000121,0.0,0.0,0.0,0.000144,0.0,0.0,0.0,0.001764,2
1668538676345478934,396698,1668538676418862696,gps,2,1,42.3003671265,-83.6986102558,271.04675293,0.000121,0.0,0.0,0.0,0.000144,0.0,0.0,0.0,0.001764,2
1668538676355254739,396699,1668538676428851067,gps,2,1,42.3003672673,-83.6986102719,271.047027588,0.000121,0.0,0.0,0.0,0.000144,0.0,0.0,0.0,0.001764,2
1668538676365385597,396700,1668538676438930123,gps,2,1,42.3003674086,-83.698610288,271.047241211,0.000121,0.0,0.0,0.0,0.000144,0.0,0.0,0.0,0.001764,2
1668538676375334514,396701,1668538676448872991,gps,2,1,42.3003675469,-83.6986103037,271.047424316,0.000121,0.0,0.0,0.0,0.000144,0.0,0.0,0.0,0.001764,2
1668538676385396754,396702,1668538676458884637,gps,2,1,42.3003676915,-83.6986103206,271.047729492,0.000121,0.0,0.0,0.0,0.000144,0.0,0.0,0.0,0.001764,2
1668538676395356654,396703,1668538676468939011,gps,2,1,42.3003678367,-83.6986103378,271.047912598,0.000121,0.0,0.0,0.0,0.000144,0.0,0.0,0.0,0.001764,2
1668538676405517952,396704,1668538676478869832,gps,2,1,42.3003679785,-83.6986103544,271.048126221,0.000121,0.0,0.0,0.0,0.000144,0.0,0.0,0.0,0.001764,2
1668538676415443210,396705,1668538676488907693,gps,2,1,42.3003681271,-83.6986103722,271.048431396,0.000121,0.0,0.0,0.0,0.000144,0.0,0.0,0.0,0.001764,2
1668538676425589720,396706,1668538676498970157,gps,2,1,42.3003682763,-83.6986103904,271.048614502,0.000121,0.0,0.0,0.0,0.000144,0.0,0.0,0.0,0.001764,2
1668538676435690904,396707,1668538676508936045,gps,2,1,42.3003684221,-83.6986104078,271.048828125,0.000121,0.0,0.0,0.0,0.000144,0.0,0.0,0.0,0.001764,2
1668538676445565098,396708,1668538676518898848,gps,2,1,42.3003685747,-83.6986104265,271.049102783,0.000121,0.0,0.0,0.0,0.000144,0.0,0.0,0.0,0.001764,2
1668538676455473183,396709,1668538676528910926,gps,2,1,42.3003687282,-83.6986104456,271.049255371,0.000121,0.0,0.0,0.0,0.000144,0.0,0.0,0.0,0.001764,2
1668538676465426484,396710,1668538676538995495,gps,2,1,42.3003688781,-83.6986104638,271.049468994,0.000121,0.0,0.0,0.0,0.000144,0.0,0.0,0.0,0.001764,2
1668538676475425323,396711,1668538676548880211,gps,2,1,42.3003690333,-83.6986104852,271.049926758,0.000121,0.0,0.0,0.0,0.000144,0.0,0.0,0.0,0.001764,2
1668538676485334983,396712,1668538676558876015,gps,2,1,42.300369191,-83.6986105052,271.050079346,0.000121,0.0,0.0,0.0,0.000144,0.0,0.0,0.0,0.001764,2
1668538676495414953,396713,1668538676568926535,gps,2,1,42.3003693451,-83.6986105246,271.050262451,0.000121,0.0,0.0,0.0,0.000144,0.0,0.0,0.0,0.001764,2
1668538676505312490,396714,1668538676578850550,gps,2,1,42.3003695045,-83.6986105468,271.050720215,0.000121,0.0,0.0,0.0,0.000144,0.0,0.0,0.0,0.001764,2
1668538676515214535,396715,1668538676588960660,gps,2,1,42.3003696664,-83.6986105681,271.05090332,0.000121,0.0,0.0,0.0,0.000144,0.0,0.0,0.0,0.001764,2
1668538676525663084,396716,1668538676598930085,gps,2,1,42.3003698249,-83.6986105884,271.051055908,0.000121,0.0,0.0,0.0,0.000144,0.0,0.0,0.0,0.001764,2
1668538676535647659,396717,1668538676608858488,gps,2,1,42.3003699885,-83.6986106117,271.051483154,0.000121,0.0,0.0,0.0,0.000144,0.0,0.0,0.0,0.001764,2
1668538676545675918,396718,1668538676618864017,gps,2,1,42.3003701546,-83.6986106342,271.051696777,0.000121,0.0,0.0,0.0,0.000144,0.0,0.0,0.0,0.001764,2
1668538676555471502,396719,1668538676628939828,gps,2,1,42.3003703171,-83.6986106556,271.051879883,0.000121,0.0,0.0,0.0,0.000144,0.0,0.0,0.0,0.001764,2
1668538676565373727,396720,1668538676638862917,gps,2,1,42.3003704852,-83.6986106799,271.052307129,0.000121,0.0,0.0,0.0,0.000144,0.0,0.0,0.0,0.001764,2
1668538676575557909,396721,1668538676648910450,gps,2,1,42.3003706556,-83.6986107036,271.05255127,0.000121,0.0,0.0,0.0,0.000144,0.0,0.0,0.0,0.001764,2
1668538676585434937,396722,1668538676658929721,gps,2,1,42.3003708223,-83.698610726,271.052734375,0.000121,0.0,0.0,0.0,0.000144,0.0,0.0,0.0,0.001764,2
1668538676595466964,396723,1668538676668856974,gps,2,1,42.3003709946,-83.6986107514,271.053222656,0.000121,0.0,0.0,0.0,0.000144,0.0,0.0,0.0,0.001764,2
1668538676605358847,396724,1668538676678857388,gps,2,1,42.300371169,-83.6986107761,271.053497314,0.000121,0.0,0.0,0.0,0.000144,0.0,0.0,0.0,0.001764,2
1668538676615548588,396725,1668538676688911497,gps,2,1,42.30037134,-83.6986107998,271.053710938,0.000121,0.0,0.0,0.0,0.000144,0.0,0.0,0.0,0.001764,2
1668538676625344419,396726,1668538676698854684,gps,2,1,42.3003715165,-83.6986108263,271.054229736,0.000121,0.0,0.0,0.0,0.000144,0.0,0.0,0.0,0.001764,2
1668538676635282904,396727,1668538676708850490,gps,2,1,42.3003716951,-83.698610852,271.054504395,0.000121,0.0,0.0,0.0,0.000144,0.0,0.0,0.0,0.001764,2
1668538676645556228,396728,1668538676718921312,gps,2,1,42.3003718701,-83.6986108768,271.054779053,0.000121,0.0,0.0,0.0,0.000144,0.0,0.0,0.0,0.001764,2
1668538676655352940,396729,1668538676728857825,gps,2,1,42.3003720507,-83.6986109043,271.055267334,0.000121,0.0,0.0,0.0,0.000144,0.0,0.0,0.0,0.001764,2
1668538676665175992,396730,1668538676738876401,gps,2,1,42.3003722336,-83.6986109312,271.055541992,0.000121,0.0,0.0,0.0,0.000144,0.0,0.0,0.0,0.001764,2
1668538676675614749,396731,1668538676748937961,gps,2,1,42.3003724132,-83.6986109573,271.05581665,0.000121,0.0,0.0,0.0,0.000144,0.0,0.0,0.0,0.001764,2
1668538676685581044,396732,1668538676758860777,gps,2,1,42.3003725985,-83.6986109859,271.056274414,0.000121,0.0,0.0,0.0,0.000144,0.0,0.0,0.0,0.001764,2
1668538676695206012,396733,1668538676768863879,gps,2,1,42.3003727862,-83.6986110139,271.056488037,0.000121,0.0,0.0,0.0,0.000144,0.0,0.0,0.0,0.001764,2
1668538676705449212,396734,1668538676778918713,gps,2,1,42.3003729697,-83.6986110412,271.056793213,0.000121,0.0,0.0,0.0,0.000144,0.0,0.0,0.0,0.001764,2
1668538676715398592,396735,1668538676788876057,gps,2,1,42.3003731593,-83.698611071,271.057220459,0.000121,0.0,0.0,0.0,0.000144,0.0,0.0,0.0,0.001764,2
1668538676725370217,396736,1668538676798866684,gps,2,1,42.3003733507,-83.6986111003,271.057403564,0.000121,0.0,0.0,0.0,0.000144,0.0,0.0,0.0,0.001764,2
1668538676735419421,396737,1668538676808925835,gps,2,1,42.300373539,-83.6986111287,271.057647705,0.000121,0.0,0.0,0.0,0.000144,0.0,0.0,0.0,0.001764,2
1668538676745526758,396738,1668538676818863279,gps,2,1,42.3003737325,-83.6986111598,271.058044434,0.000121,0.0,0.0,0.0,0.000144,0.0,0.0,0.0,0.001764,2
1668538676755433009,396739,1668538676828851702,gps,2,1,42.3003739285,-83.6986111907,271.058227539,0.000121,0.0,0.0,0.0,0.000144,0.0,0.0,0.0,0.001764,2
1668538676765359776,396740,1668538676839007175,gps,2,1,42.3003741205,-83.6986112202,271.058410645,0.000121,0.0,0.0,0.0,0.000144,0.0,0.0,0.0,0.001764,2
1668538676775317811,396741,1668538676848849003,gps,2,1,42.3003743182,-83.6986112529,271.058776855,0.000121,0.0,0.0,0.0,0.000144,0.0,0.0,0.0,0.001764,2
1668538676785269593,396742,1668538676858845177,gps,2,1,42.3003745179,-83.6986112854,271.058929443,0.000121,0.0,0.0,0.0,0.000144,0.0,0.0,0.0,0.001764,2
1668538676795467347,396743,1668538676868938350,gps,2,1,42.3003747147,-83.6986113168,271.059143066,0.000121,0.0,0.0,0.0,0.000144,0.0,0.0,0.0,0.001764,2
1668538676805256322,396744,1668538676878862909,gps,2,1,42.3003749163,-83.6986113514,271.059539795,0.000121,0.0,0.0,0.0,0.000144,0.0,0.0,0.0,0.001764,2
1668538676815654051,396745,1668538676888858774,gps,2,1,42.3003751205,-83.6986113856,271.0597229,0.000121,0.0,0.0,0.0,0.000144,0.0,0.0,0.0,0.001764,2
1668538676825718058,396746,1668538676898930639,gps,2,1,42.3003753206,-83.6986114183,271.059906006,0.000121,0.0,0.0,0.0,0.000144,0.0,0.0,0.0,0.001764,2
1668538676835633086,396747,1668538676908851642,gps,2,1,42.3003755262,-83.6986114544,271.060333252,0.000121,0.0,0.0,0.0,0.000144,0.0,0.0,0.0,0.001764,2
1668538676845295673,396748,1668538676918854289,gps,2,1,42.3003757345,-83.6986114904,271.060577393,0.000121,0.0,0.0,0.0,0.000144,0.0,0.0,0.0,0.001764,2
1668538676855532326,396749,1668538676928913083,gps,2,1,42.3003759394,-83.6986115246,271.060760498,0.000121,0.0,0.0,0.0,0.000144,0.0,0.0,0.0,0.001764,2
1668538676865380084,396750,1668538676938853875,gps,2,1,42.3003761494,-83.6986115619,271.061187744,0.000121,0.0,0.0,0.0,0.000144,0.0,0.0,0.0,0.001764,2
1668538676875405219,396751,1668538676948879468,gps,2,1,42.3003763621,-83.698611599,271.06149292,0.000121,0.0,0.0,0.0,0.000144,0.0,0.0,0.0,0.001764,2
1668538676885458057,396752,1668538676958924685,gps,2,1,42.3003765714,-83.6986116361,271.061767578,0.000121,0.0,0.0,0.0,0.000144,0.0,0.0,0.0,0.001764,2
1668538676895504196,396753,1668538676968837894,gps,2,1,42.300376786,-83.6986116751,271.062225342,0.000121,0.0,0.0,0.0,0.000144,0.0,0.0,0.0,0.001764,2
1668538676905243920,396754,1668538676978848367,gps,2,1,42.3003770034,-83.6986117131,271.0625,0.000121,0.0,0.0,0.0,0.000144,0.0,0.0,0.0,0.001764,2
1668538676915320649,396755,1668538676988969432,gps,2,1,42.3003772167,-83.6986117512,271.062835693,0.000121,0.0,0.0,0.0,0.000144,0.0,0.0,0.0,0.001764,2
1668538676925280744,396756,1668538676998920535,gps,2,1,42.3003774346,-83.6986117924,271.063537598,0.000121,0.0,0.0,0.0,0.000144,0.0,0.0,0.0,0.001764,2
1668538676935233080,396757,1668538677008881209,gps,2,1,42.3003776554,-83.6986118318,271.063812256,0.000121,0.0,0.0,0.0,0.000144,0.0,0.0,0.0,0.001764,2
1668538676945733354,396758,1668538677018980767,gps,2,1,42.3003778736,-83.6986118703,271.064147949,0.000121,0.0,0.0,0.0,0.000144,0.0,0.0,0.0,0.001764,2
1668538676955652955,396759,1668538677028908082,gps,2,1,42.3003780955,-83.6986119126,271.064849854,0.000121,0.0,0.0,0.0,0.000144,0.0,0.0,0.0,0.001764,2
1668538676965506948,396760,1668538677038860490,gps,2,1,42.3003783204,-83.6986119533,271.065155029,0.000121,0.0,0.0,0.0,0.000144,0.0,0.0,0.0,0.001764,2
1668538676975556870,396761,1668538677048955377,gps,2,1,42.3003785417,-83.6986119938,271.06552124,0.000121,0.0,0.0,0.0,0.000144,0.0,0.0,0.0,0.001764,2
1668538676985511192,396762,1668538677058906500,gps,2,1,42.3003787673,-83.6986120378,271.066192627,0.000121,0.0,0.0,0.0,0.000144,0.0,0.0,0.0,0.001764,2
1668538676995514615,396763,1668538677068860672,gps,2,1,42.3003789961,-83.6986120807,271.066467285,0.000121,0.0,0.0,0.0,0.000144,0.0,0.0,0.0,0.001764,2
1668538677005552531,396764,1668538677078962374,gps,2,1,42.3003792216,-83.6986121225,271.066833496,0.000121,0.0,0.0,0.0,0.000144,0.0,0.0,0.0,0.001764,2
1668538677015500656,396765,1668538677088996063,gps,2,1,42.3003794514,-83.6986121682,271.067504883,0.000121,0.0,0.0,0.0,0.000144,0.0,0.0,0.0,0.001764,2
1668538677025397371,396766,1668538677098871729,gps,2,1,42.3003796842,-83.6986122129,271.067810059,0.000121,0.0,0.0,0.0,0.000144,0.0,0.0,0.0,0.001764,2
1668538677035425228,396767,1668538677108923783,gps,2,1,42.3003799137,-83.6986122569,271.068145752,0.000121,0.0,0.0,0.0,0.000144,0.0,0.0,0.0,0.001764,2
1668538677045510962,396768,1668538677118899602,gps,2,1,42.3003801474,-83.6986123043,271.068817139,0.000121,0.0,0.0,0.0,0.000144,0.0,0.0,0.0,0.001764,2
1668538677055508396,396769,1668538677128870805,gps,2,1,42.3003803841,-83.6986123516,271.069122314,0.000121,0.0,0.0,0.0,0.000144,0.0,0.0,0.0,0.001764,2
1668538677065285121,396770,1668538677138975006,gps,2,1,42.3003806178,-83.6986123969,271.069458008,0.000121,0.0,0.0,0.0,0.000144,0.0,0.0,0.0,0.001764,2
1668538677075531005,396771,1668538677148841217,gps,2,1,42.3003808562,-83.6986124456,271.070068359,0.000121,0.0,0.0,0.0,0.000144,0.0,0.0,0.0,0.001764,2
1668538677085235558,396772,1668538677158792564,gps,2,1,42.300381097,-83.6986124949,271.070404053,0.000121,0.0,0.0,0.0,0.000144,0.0,0.0,0.0,0.001764,2
1668538677095470579,396773,1668538677168879671,gps,2,1,42.3003813342,-83.6986125416,271.070739746,0.000121,0.0,0.0,0.0,0.000144,0.0,0.0,0.0,0.001764,2
1668538677105310520,396774,1668538677178875984,gps,2,1,42.3003815762,-83.6986125922,271.071350098,0.000121,0.0,0.0,0.0,0.000144,0.0,0.0,0.0,0.001764,2
1668538677115299775,396775,1668538677188887647,gps,2,1,42.3003818204,-83.6986126424,271.071716309,0.000121,0.0,0.0,0.0,0.000144,0.0,0.0,0.0,0.001764,2
1668538677125689522,396776,1668538677198939513,gps,2,1,42.3003820622,-83.698612691,271.072052002,6.4e-05,0.0,0.0,0.0,8.1e-05,0.0,0.0,0.0,0.001764,2
1668538677135538623,396777,1668538677208849305,gps,2,1,42.300382308,-83.6986127432,271.072692871,6.4e-05,0.0,0.0,0.0,8.1e-05,0.0,0.0,0.0,0.001764,2
1668538677145509141,396778,1668538677218851002,gps,2,1,42.3003825561,-83.6986127946,271.0730896,6.4e-05,0.0,0.0,0.0,8.1e-05,0.0,0.0,0.0,0.001764,2
1668538677155503126,396779,1668538677228911364,gps,2,1,42.3003828012,-83.6986128454,271.073455811,6.4e-05,0.0,0.0,0.0,8.1e-05,0.0,0.0,0.0,0.001764,2
1668538677165354296,396780,1668538677238840451,gps,2,1,42.3003830505,-83.6986128988,271.074157715,6.4e-05,0.0,0.0,0.0,8.1e-05,0.0,0.0,0.0,0.001764,2
1668538677175478482,396781,1668538677248876322,gps,2,1,42.3003833027,-83.6986129522,271.074554443,6.4e-05,0.0,0.0,0.0,8.1e-05,0.0,0.0,0.0,0.001764,2
1668538677185520424,396782,1668538677258899192,gps,2,1,42.3003835513,-83.6986130042,271.074981689,6.4e-05,0.0,0.0,0.0,8.1e-05,0.0,0.0,0.0,0.001764,2
1668538677195467723,396783,1668538677268841323,gps,2,1,42.3003838049,-83.6986130591,271.075653076,6.4e-05,0.0,0.0,0.0,8.1e-05,0.0,0.0,0.0,0.001764,2
1668538677205364246,396784,1668538677278840393,gps,2,1,42.3003840608,-83.6986131135,271.07611084,6.4e-05,0.0,0.0,0.0,8.1e-05,0.0,0.0,0.0,0.001764,2
1668538677215247609,396785,1668538677288915912,gps,2,1,42.3003843133,-83.6986131669,271.076507568,6.4e-05,0.0,0.0,0.0,8.1e-05,0.0,0.0,0.0,0.001764,2
1668538677225192211,396786,1668538677298850364,gps,2,1,42.3003845707,-83.6986132231,271.077148438,6.4e-05,0.0,0.0,0.0,8.1e-05,0.0,0.0,0.0,0.001764,2
1668538677235660987,396787,1668538677308867110,gps,2,1,42.3003848305,-83.6986132794,271.077514648,6.4e-05,0.0,0.0,0.0,8.1e-05,0.0,0.0,0.0,0.001764,2
1668538677245726618,396788,1668538677318910317,gps,2,1,42.3003850869,-83.6986133344,271.077941895,6.4e-05,0.0,0.0,0.0,8.1e-05,0.0,0.0,0.0,0.001764,2
1668538677255365954,396789,1668538677328843053,gps,2,1,42.300385348,-83.6986133924,271.078552246,6.4e-05,0.0,0.0,0.0,8.1e-05,0.0,0.0,0.0,0.001764,2
1668538677265457905,396790,1668538677338942107,gps,2,1,42.3003856113,-83.6986134502,271.078887939,6.4e-05,0.0,0.0,0.0,8.1e-05,0.0,0.0,0.0,0.001764,2
1668538677275574633,396791,1668538677348906322,gps,2,1,42.3003858716,-83.6986135068,271.079284668,6.4e-05,0.0,0.0,0.0,8.1e-05,0.0,0.0,0.0,0.001764,2
1668538677285396652,396792,1668538677358916604,gps,2,1,42.3003861363,-83.6986135664,271.079833984,6.4e-05,0.0,0.0,0.0,8.1e-05,0.0,0.0,0.0,0.001764,2
1668538677295735883,396793,1668538677368923095,gps,2,1,42.3003864035,-83.6986136263,271.080108643,6.4e-05,0.0,0.0,0.0,8.1e-05,0.0,0.0,0.0,0.001764,2
1668538677305529412,396794,1668538677378863195,gps,2,1,42.3003866675,-83.6986136846,271.080444336,6.4e-05,0.0,0.0,0.0,8.1e-05,0.0,0.0,0.0,0.001764,2
1668538677315366389,396795,1668538677388831001,gps,2,1,42.3003869366,-83.6986137458,271.0809021,6.4e-05,0.0,0.0,0.0,8.1e-05,0.0,0.0,0.0,0.001764,2
1668538677325378954,396796,1668538677398846814,gps,2,1,42.3003872074,-83.6986138071,271.08114624,6.4e-05,0.0,0.0,0.0,8.1e-05,0.0,0.0,0.0,0.001764,2
1668538677335442677,396797,1668538677408887996,gps,2,1,42.3003874752,-83.6986138673,271.081420898,6.4e-05,0.0,0.0,0.0,8.1e-05,0.0,0.0,0.0,0.001764,2
1668538677345521503,396798,1668538677418831174,gps,2,1,42.3003877477,-83.69861393,271.081848145,6.4e-05,0.0,0.0,0.0,8.1e-05,0.0,0.0,0.0,0.001764,2
1668538677355398959,396799,1668538677428841751,gps,2,1,42.3003880222,-83.6986139931,271.082122803,6.4e-05,0.0,0.0,0.0,8.1e-05,0.0,0.0,0.0,0.001764,2
1668538677365232655,396800,1668538677438906192,gps,2,1,42.3003882937,-83.6986140547,271.082305908,6.4e-05,0.0,0.0,0.0,8.1e-05,0.0,0.0,0.0,0.001764,2
1668538677375178063,396801,1668538677448847084,gps,2,1,42.30038857,-83.6986141188,271.082763672,6.4e-05,0.0,0.0,0.0,8.1e-05,0.0,0.0,0.0,0.001764,2
1668538677385634504,396802,1668538677458917038,gps,2,1,42.3003888482,-83.6986141834,271.083129883,6.4e-05,0.0,0.0,0.0,8.1e-05,0.0,0.0,0.0,0.001764,2
1668538677395515871,396803,1668538677468916598,gps,2,1,42.3003891233,-83.6986142461,271.083374023,6.4e-05,0.0,0.0,0.0,8.1e-05,0.0,0.0,0.0,0.001764,2
1668538677405607558,396804,1668538677478838440,gps,2,1,42.3003894032,-83.6986143116,271.083892822,6.4e-05,0.0,0.0,0.0,8.1e-05,0.0,0.0,0.0,0.001764,2
1668538677415471361,396805,1668538677488940256,gps,2,1,42.3003896851,-83.6986143772,271.084289551,6.4e-05,0.0,0.0,0.0,8.1e-05,0.0,0.0,0.0,0.001764,2
1668538677425517019,396806,1668538677498903581,gps,2,1,42.3003899637,-83.698614442,271.084625244,6.4e-05,0.0,0.0,0.0,8.1e-05,0.0,0.0,0.0,0.001764,2
1668538677435462472,396807,1668538677508913510,gps,2,1,42.3003902474,-83.6986145088,271.085144043,6.4e-05,0.0,0.0,0.0,8.1e-05,0.0,0.0,0.0,0.001764,2
1668538677445635342,396808,1668538677518996332,gps,2,1,42.300390533,-83.6986145755,271.085510254,6.4e-05,0.0,0.0,0.0,8.1e-05,0.0,0.0,0.0,0.001764,2
1668538677455802952,396809,1668538677528902524,gps,2,1,42.3003908153,-83.6986146415,271.085876465,6.4e-05,0.0,0.0,0.0,8.1e-05,0.0,0.0,0.0,0.001764,2
1668538677465371950,396810,1668538677538892542,gps,2,1,42.3003911086,-83.6986147055,271.08605957,6.4e-05,0.0,0.0,0.0,8.1e-05,0.0,0.0,0.0,0.001764,2
1668538677475346393,396811,1668538677548905884,gps,2,1,42.3003913976,-83.6986147739,271.086425781,6.4e-05,0.0,0.0,0.0,8.1e-05,0.0,0.0,0.0,0.001764,2
1668538677485319865,396812,1668538677558850516,gps,2,1,42.3003916839,-83.6986148412,271.086761475,6.4e-05,0.0,0.0,0.0,8.1e-05,0.0,0.0,0.0,0.001764,2
1668538677495380053,396813,1668538677568872244,gps,2,1,42.3003919807,-83.698614907,271.08694458,6.4e-05,0.0,0.0,0.0,8.1e-05,0.0,0.0,0.0,0.001764,2
1668538677505302784,396814,1668538677578912442,gps,2,1,42.3003922736,-83.6986149778,271.087249756,6.4e-05,0.0,0.0,0.0,8.1e-05,0.0,0.0,0.0,0.001764,2
1668538677515723238,396815,1668538677588944662,gps,2,1,42.3003925632,-83.6986150467,271.087585449,6.4e-05,0.0,0.0,0.0,8.1e-05,0.0,0.0,0.0,0.001764,2
1668538677525718738,396816,1668538677598839478,gps,2,1,42.3003928634,-83.6986151145,271.08770752,6.4e-05,0.0,0.0,0.0,8.1e-05,0.0,0.0,0.0,0.001764,2
1668538677535548424,396817,1668538677608862219,gps,2,1,42.3003931595,-83.6986151863,271.088043213,6.4e-05,0.0,0.0,0.0,8.1e-05,0.0,0.0,0.0,0.001764,2
1668538677545610866,396818,1668538677618924643,gps,2,1,42.3003934533,-83.6986152574,271.088348389,6.4e-05,0.0,0.0,0.0,8.1e-05,0.0,0.0,0.0,0.001764,2
1668538677555609087,396819,1668538677628844705,gps,2,1,42.3003937568,-83.6986153263,271.088439941,6.4e-05,0.0,0.0,0.0,8.1e-05,0.0,0.0,0.0,0.001764,2
1668538677565565905,396820,1668538677638894599,gps,2,1,42.3003940568,-83.6986153993,271.088775635,6.4e-05,0.0,0.0,0.0,8.1e-05,0.0,0.0,0.0,0.001764,2
1668538677575470231,396821,1668538677648836627,gps,2,1,42.3003943537,-83.6986154712,271.089080811,6.4e-05,0.0,0.0,0.0,8.1e-05,0.0,0.0,0.0,0.001764,2
1668538677585385789,396822,1668538677658833789,gps,2,1,42.3003946609,-83.698615541,271.089202881,6.4e-05,0.0,0.0,0.0,8.1e-05,0.0,0.0,0.0,0.001764,2
1668538677595683262,396823,1668538677668883133,gps,2,1,42.3003949644,-83.6986156144,271.089508057,6.4e-05,0.0,0.0,0.0,8.1e-05,0.0,0.0,0.0,0.001764,2
1668538677605440450,396824,1668538677678832254,gps,2,1,42.3003952649,-83.6986156873,271.08984375,6.4e-05,0.0,0.0,0.0,8.1e-05,0.0,0.0,0.0,0.001764,2
1668538677615385950,396825,1668538677688827418,gps,2,1,42.300395575,-83.6986157577,271.089996338,6.4e-05,0.0,0.0,0.0,8.1e-05,0.0,0.0,0.0,0.001764,2
1668538677625314739,396826,1668538677698891233,gps,2,1,42.3003958817,-83.6986158316,271.090393066,6.4e-05,0.0,0.0,0.0,8.1e-05,0.0,0.0,0.0,0.001764,2
1668538677635274780,396827,1668538677708845403,gps,2,1,42.3003961856,-83.6986159051,271.09072876,6.4e-05,0.0,0.0,0.0,8.1e-05,0.0,0.0,0.0,0.001764,2
1668538677645353802,396828,1668538677718837129,gps,2,1,42.3003964991,-83.6986159764,271.0909729,6.4e-05,0.0,0.0,0.0,8.1e-05,0.0,0.0,0.0,0.001764,2
1668538677655741387,396829,1668538677728896318,gps,2,1,42.3003968092,-83.6986160516,271.091339111,6.4e-05,0.0,0.0,0.0,8.1e-05,0.0,0.0,0.0,0.001764,2
1668538677665640062,396830,1668538677738842315,gps,2,1,42.3003971162,-83.6986161258,271.09173584,6.4e-05,0.0,0.0,0.0,8.1e-05,0.0,0.0,0.0,0.001764,2
1668538677675649185,396831,1668538677748850594,gps,2,1,42.3003974328,-83.6986161985,271.091949463,6.4e-05,0.0,0.0,0.0,8.1e-05,0.0,0.0,0.0,0.001764,2
1668538677685216691,396832,1668538677758897812,gps,2,1,42.300397746,-83.698616275,271.092315674,6.4e-05,0.0,0.0,0.0,8.1e-05,0.0,0.0,0.0,0.001764,2
1668538677695620515,396833,1668538677768887949,gps,2,1,42.3003980565,-83.6986163503,271.092712402,6.4e-05,0.0,0.0,0.0,8.1e-05,0.0,0.0,0.0,0.001764,2
1668538677705534053,396834,1668538677778833301,gps,2,1,42.3003983759,-83.6986164243,271.092956543,6.4e-05,0.0,0.0,0.0,8.1e-05,0.0,0.0,0.0,0.001764,2
1668538677715433328,396835,1668538677788895650,gps,2,1,42.3003986922,-83.6986165016,271.093414307,6.4e-05,0.0,0.0,0.0,8.1e-05,0.0,0.0,0.0,0.001764,2
1668538677725458294,396836,1668538677798843179,gps,2,1,42.3003990059,-83.6986165786,271.093780518,6.4e-05,0.0,0.0,0.0,8.1e-05,0.0,0.0,0.0,0.001764,2
1668538677735398347,396837,1668538677808850387,gps,2,1,42.3003993284,-83.6986166537,271.094116211,6.4e-05,0.0,0.0,0.0,8.1e-05,0.0,0.0,0.0,0.001764,2
1668538677745540529,396838,1668538677818885178,gps,2,1,42.3003996479,-83.6986167322,271.094604492,6.4e-05,0.0,0.0,0.0,8.1e-05,0.0,0.0,0.0,0.001764,2
1668538677755571307,396839,1668538677828820093,gps,2,1,42.3003999647,-83.69861681,271.095062256,6.4e-05,0.0,0.0,0.0,8.1e-05,0.0,0.0,0.0,0.001764,2
1668538677765281279,396840,1668538677838932920,gps,2,1,42.3004002903,-83.6986168861,271.095428467,6.4e-05,0.0,0.0,0.0,8.1e-05,0.0,0.0,0.0,0.001764,2
1668538677775493018,396841,1668538677848911562,gps,2,1,42.3004006129,-83.6986169656,271.095977783,6.4e-05,0.0,0.0,0.0,8.1e-05,0.0,0.0,0.0,0.001764,2
1668538677785250729,396842,1668538677858835939,gps,2,1,42.300400933,-83.6986170445,271.096496582,6.4e-05,0.0,0.0,0.0,8.1e-05,0.0,0.0,0.0,0.001764,2
1668538677795291670,396843,1668538677868821474,gps,2,1,42.3004012612,-83.6986171216,271.096923828,6.4e-05,0.0,0.0,0.0,8.1e-05,0.0,0.0,0.0,0.001764,2
1668538677805785084,396844,1668538677878899628,gps,2,1,42.300401587,-83.6986172025,271.097473145,6.4e-05,0.0,0.0,0.0,8.1e-05,0.0,0.0,0.0,0.001764,2
1668538677815109894,396845,1668538677888831798,gps,2,1,42.3004019101,-83.6986172821,271.097991943,6.4e-05,0.0,0.0,0.0,8.1e-05,0.0,0.0,0.0,0.001764,2
1668538677825689571,396846,1668538677898827124,gps,2,1,42.3004022414,-83.6986173603,271.098388672,6.4e-05,0.0,0.0,0.0,8.1e-05,0.0,0.0,0.0,0.001764,2
1668538677835520597,396847,1668538677908889860,gps,2,1,42.3004025704,-83.6986174419,271.098876953,6.4e-05,0.0,0.0,0.0,8.1e-05,0.0,0.0,0.0,0.001764,2
1668538677845598891,396848,1668538677918833491,gps,2,1,42.3004028966,-83.6986175228,271.09942627,6.4e-05,0.0,0.0,0.0,8.1e-05,0.0,0.0,0.0,0.001764,2
1668538677855372753,396849,1668538677928831668,gps,2,1,42.3004032307,-83.6986176022,271.09979248,6.4e-05,0.0,0.0,0.0,8.1e-05,0.0,0.0,0.0,0.001764,2
1668538677865514762,396850,1668538677938891259,gps,2,1,42.3004035626,-83.6986176849,271.100280762,6.4e-05,0.0,0.0,0.0,8.1e-05,0.0,0.0,0.0,0.001764,2
1668538677875393979,396851,1668538677948832668,gps,2,1,42.3004038921,-83.6986177669,271.100769043,6.4e-05,0.0,0.0,0.0,8.1e-05,0.0,0.0,0.0,0.001764,2
1668538677885380766,396852,1668538677958829085,gps,2,1,42.3004042292,-83.6986178475,271.101135254,6.4e-05,0.0,0.0,0.0,8.1e-05,0.0,0.0,0.0,0.001764,2
1668538677895436057,396853,1668538677968879969,gps,2,1,42.3004045641,-83.6986179315,271.101593018,6.4e-05,0.0,0.0,0.0,8.1e-05,0.0,0.0,0.0,0.001764,2
1668538677905392337,396854,1668538677978819572,gps,2,1,42.3004048965,-83.6986180147,271.102020264,6.4e-05,0.0,0.0,0.0,8.1e-05,0.0,0.0,0.0,0.001764,2
1668538677915392847,396855,1668538677988854630,gps,2,1,42.3004052366,-83.6986180965,271.102386475,6.4e-05,0.0,0.0,0.0,8.1e-05,0.0,0.0,0.0,0.001764,2
1668538677925711000,396856,1668538677998975834,gps,2,1,42.3004055745,-83.698618182,271.102752686,6.4e-05,0.0,0.0,0.0,8.1e-05,0.0,0.0,0.0,0.001764,2
1668538677935557267,396857,1668538678008885547,gps,2,1,42.30040591,-83.6986182661,271.103210449,6.4e-05,0.0,0.0,0.0,8.1e-05,0.0,0.0,0.0,0.001764,2
1668538677945468598,396858,1668538678018932450,gps,2,1,42.3004062555,-83.6986183465,271.103363037,6.4e-05,0.0,0.0,0.0,8.1e-05,0.0,0.0,0.0,0.001764,2
1668538677955673939,396859,1668538678028901311,gps,2,1,42.3004065964,-83.6986184329,271.103729248,6.4e-05,0.0,0.0,0.0,8.1e-05,0.0,0.0,0.0,0.001764,2
1668538677965679205,396860,1668538678038883307,gps,2,1,42.3004069349,-83.6986185183,271.104156494,6.4e-05,0.0,0.0,0.0,8.1e-05,0.0,0.0,0.0,0.001764,2
1668538677975513904,396861,1668538678048885322,gps,2,1,42.3004072831,-83.6986186003,271.104278564,6.4e-05,0.0,0.0,0.0,8.1e-05,0.0,0.0,0.0,0.001764,2
1668538677985549563,396862,1668538678058985105,gps,2,1,42.3004076268,-83.6986186881,271.104705811,6.4e-05,0.0,0.0,0.0,8.1e-05,0.0,0.0,0.0,0.001764,2
1668538677995546893,396863,1668538678068861210,gps,2,1,42.300407968,-83.6986187752,271.105102539,6.4e-05,0.0,0.0,0.0,8.1e-05,0.0,0.0,0.0,0.001764,2
1668538678005460839,396864,1668538678078830258,gps,2,1,42.3004083188,-83.6986188587,271.10534668,6.4e-05,0.0,0.0,0.0,8.1e-05,0.0,0.0,0.0,0.001764,2
1668538678015490196,396865,1668538678088979915,gps,2,1,42.3004086654,-83.6986189486,271.105773926,6.4e-05,0.0,0.0,0.0,8.1e-05,0.0,0.0,0.0,0.001764,2
1668538678025463700,396866,1668538678098826947,gps,2,1,42.3004090094,-83.6986190368,271.106170654,6.4e-05,0.0,0.0,0.0,8.1e-05,0.0,0.0,0.0,0.001764,2
1668538678035355181,396867,1668538678108810871,gps,2,1,42.3004093631,-83.698619122,271.106445312,6.4e-05,0.0,0.0,0.0,8.1e-05,0.0,0.0,0.0,0.001764,2
1668538678045366096,396868,1668538678118821891,gps,2,1,42.3004097126,-83.6986192131,271.106933594,6.4e-05,0.0,0.0,0.0,8.1e-05,0.0,0.0,0.0,0.001764,2
1668538678055346234,396869,1668538678128907370,gps,2,1,42.3004100596,-83.6986193027,271.107391357,6.4e-05,0.0,0.0,0.0,8.1e-05,0.0,0.0,0.0,0.001764,2
1668538678065382419,396870,1668538678138811042,gps,2,1,42.3004104155,-83.6986193905,271.107696533,6.4e-05,0.0,0.0,0.0,8.1e-05,0.0,0.0,0.0,0.001764,2
1668538678075313034,396871,1668538678148825573,gps,2,1,42.3004107678,-83.6986194827,271.108184814,6.4e-05,0.0,0.0,0.0,8.1e-05,0.0,0.0,0.0,0.001764,2
1668538678085594628,396872,1668538678158886500,gps,2,1,42.3004111177,-83.6986195738,271.108673096,6.4e-05,0.0,0.0,0.0,8.1e-05,0.0,0.0,0.0,0.001764,2
1668538678095692926,396873,1668538678168823774,gps,2,1,42.3004114763,-83.6986196628,271.109008789,6.4e-05,0.0,0.0,0.0,8.1e-05,0.0,0.0,0.0,0.001764,2
1668538678105453977,396874,1668538678178835500,gps,2,1,42.3004118314,-83.698619756,271.10949707,6.4e-05,0.0,0.0,0.0,8.1e-05,0.0,0.0,0.0,0.001764,2
1668538678115243075,396875,1668538678188884314,gps,2,1,42.3004121841,-83.6986198485,271.109985352,6.4e-05,0.0,0.0,0.0,8.1e-05,0.0,0.0,0.0,0.001764,2
1668538678125548161,396876,1668538678198832253,gps,2,1,42.3004125456,-83.6986199384,271.110290527,0.000169,0.0,0.0,0.0,0.000144,0.0,0.0,0.0,0.001764,2
1668538678135465732,396877,1668538678208890390,gps,2,1,42.3004129036,-83.6986200326,271.110748291,0.000169,0.0,0.0,0.0,0.000144,0.0,0.0,0.0,0.001764,2
1668538678145508052,396878,1668538678218830708,gps,2,1,42.300413259,-83.6986201258,271.111175537,0.000169,0.0,0.0,0.0,0.000144,0.0,0.0,0.0,0.001764,2
1668538678155449024,396879,1668538678228822992,gps,2,1,42.3004136233,-83.6986202169,271.111450195,0.000169,0.0,0.0,0.0,0.000144,0.0,0.0,0.0,0.001764,2
1668538678165396199,396880,1668538678238835541,gps,2,1,42.300413984,-83.698620312,271.111846924,0.000169,0.0,0.0,0.0,0.000144,0.0,0.0,0.0,0.001764,2
1668538678175468887,396881,1668538678248884993,gps,2,1,42.3004143424,-83.698620406,271.112304688,0.000169,0.0,0.0,0.0,0.000144,0.0,0.0,0.0,0.001764,2
1668538678185376080,396882,1668538678258811974,gps,2,1,42.300414709,-83.6986204981,271.112548828,0.000169,0.0,0.0,0.0,0.000144,0.0,0.0,0.0,0.001764,2
1668538678195622239,396883,1668538678268875410,gps,2,1,42.3004150725,-83.6986205941,271.112976074,0.000169,0.0,0.0,0.0,0.000144,0.0,0.0,0.0,0.001764,2
1668538678205374124,396884,1668538678278884385,gps,2,1,42.3004154337,-83.6986206894,271.11340332,0.000169,0.0,0.0,0.0,0.000144,0.0,0.0,0.0,0.001764,2
1668538678215227258,396885,1668538678288824410,gps,2,1,42.3004158028,-83.6986207827,271.113677979,0.000169,0.0,0.0,0.0,0.000144,0.0,0.0,0.0,0.001764,2
1668538678225193117,396886,1668538678298829215,gps,2,1,42.3004161687,-83.69862088,271.114074707,0.000169,0.0,0.0,0.0,0.000144,0.0,0.0,0.0,0.001764,2
1668538678235745173,396887,1668538678308924265,gps,2,1,42.3004165325,-83.6986209764,271.114440918,0.000169,0.0,0.0,0.0,0.000144,0.0,0.0,0.0,0.001764,2
1668538678245612250,396888,1668538678318841613,gps,2,1,42.3004169039,-83.6986210705,271.114715576,0.000169,0.0,0.0,0.0,0.000144,0.0,0.0,0.0,0.001764,2
1668538678255572932,396889,1668538678328883480,gps,2,1,42.3004172724,-83.6986211683,271.115112305,0.000169,0.0,0.0,0.0,0.000144,0.0,0.0,0.0,0.001764,2
1668538678265719522,396890,1668538678338914518,gps,2,1,42.3004176386,-83.6986212658,271.115478516,0.000169,0.0,0.0,0.0,0.000144,0.0,0.0,0.0,0.001764,2
1668538678275489484,396891,1668538678348812192,gps,2,1,42.3004180124,-83.6986213605,271.115753174,0.000169,0.0,0.0,0.0,0.000144,0.0,0.0,0.0,0.001764,2
1668538678285394694,396892,1668538678358811589,gps,2,1,42.3004183834,-83.6986214584,271.116119385,0.000169,0.0,0.0,0.0,0.000144,0.0,0.0,0.0,0.001764,2
1668538678295687395,396893,1668538678368898031,gps,2,1,42.3004187524,-83.6986215561,271.116546631,0.000169,0.0,0.0,0.0,0.000144,0.0,0.0,0.0,0.001764,2
1668538678305462851,396894,1668538678378830160,gps,2,1,42.3004191291,-83.6986216511,271.116821289,0.000169,0.0,0.0,0.0,0.000144,0.0,0.0,0.0,0.001764,2
1668538678315373810,396895,1668538678388818384,gps,2,1,42.3004195026,-83.6986217493,271.1171875,0.000169,0.0,0.0,0.0,0.000144,0.0,0.0,0.0,0.001764,2
1668538678325469056,396896,1668538678398865931,gps,2,1,42.3004198738,-83.6986218471,271.117584229,0.000169,0.0,0.0,0.0,0.000144,0.0,0.0,0.0,0.001764,2
1668538678335322653,396897,1668538678408809749,gps,2,1,42.3004202528,-83.6986219425,271.117858887,0.000169,0.0,0.0,0.0,0.000144,0.0,0.0,0.0,0.001764,2
1668538678345394915,396898,1668538678418834224,gps,2,1,42.3004206284,-83.6986220408,271.11831665,0.000169,0.0,0.0,0.0,0.000144,0.0,0.0,0.0,0.001764,2
1668538678355255935,396899,1668538678428886096,gps,2,1,42.3004210024,-83.6986221391,271.118743896,0.000169,0.0,0.0,0.0,0.000144,0.0,0.0,0.0,0.001764,2
1668538678365370845,396900,1668538678438811269,gps,2,1,42.3004213836,-83.6986222349,271.119110107,0.000169,0.0,0.0,0.0,0.000144,0.0,0.0,0.0,0.001764,2
1668538678375559976,396901,1668538678448817553,gps,2,1,42.3004217617,-83.698622334,271.119689941,0.000169,0.0,0.0,0.0,0.000144,0.0,0.0,0.0,0.001764,2
1668538678385543603,396902,1668538678458875571,gps,2,1,42.300422138,-83.6986224328,271.120117188,0.000169,0.0,0.0,0.0,0.000144,0.0,0.0,0.0,0.001764,2
1668538678395681871,396903,1668538678468808231,gps,2,1,42.3004225214,-83.6986225294,271.120635986,0.000169,0.0,0.0,0.0,0.000144,0.0,0.0,0.0,0.001764,2
1668538678405623926,396904,1668538678478956852,gps,2,1,42.3004229018,-83.6986226297,271.121276855,0.000169,0.0,0.0,0.0,0.000144,0.0,0.0,0.0,0.001764,2
1668538678415421490,396905,1668538678488881186,gps,2,1,42.3004232804,-83.6986227289,271.121887207,0.000169,0.0,0.0,0.0,0.000144,0.0,0.0,0.0,0.001764,2
1668538678425465142,396906,1668538678498900242,gps,2,1,42.3004236663,-83.698622827,271.122436523,0.000169,0.0,0.0,0.0,0.000144,0.0,0.0,0.0,0.001764,2
1668538678435450798,396907,1668538678508889704,gps,2,1,42.3004240489,-83.6986229283,271.12310791,0.000169,0.0,0.0,0.0,0.000144,0.0,0.0,0.0,0.001764,2
1668538678445548308,396908,1668538678518990031,gps,2,1,42.3004244296,-83.6986230286,271.123840332,0.000169,0.0,0.0,0.0,0.000144,0.0,0.0,0.0,0.001764,2
1668538678455399732,396909,1668538678528897012,gps,2,1,42.3004248176,-83.6986231279,271.124389648,0.000169,0.0,0.0,0.0,0.000144,0.0,0.0,0.0,0.001764,2
1668538678465390372,396910,1668538678538887410,gps,2,1,42.300425202,-83.6986232305,271.12512207,0.000169,0.0,0.0,0.0,0.000144,0.0,0.0,0.0,0.001764,2
1668538678475355359,396911,1668538678548868952,gps,2,1,42.3004255848,-83.6986233324,271.125793457,0.000169,0.0,0.0,0.0,0.000144,0.0,0.0,0.0,0.001764,2
1668538678485297814,396912,1668538678558804803,gps,2,1,42.3004259745,-83.6986234331,271.126373291,0.000169,0.0,0.0,0.0,0.000144,0.0,0.0,0.0,0.001764,2
1668538678495351831,396913,1668538678568800619,gps,2,1,42.3004263611,-83.6986235375,271.127044678,0.000169,0.0,0.0,0.0,0.000144,0.0,0.0,0.0,0.001764,2
1668538678505704018,396914,1668538678578888543,gps,2,1,42.3004267457,-83.6986236407,271.127716064,0.000169,0.0,0.0,0.0,0.000144,0.0,0.0,0.0,0.001764,2
1668538678515821177,396915,1668538678588899500,gps,2,1,42.3004271375,-83.6986237429,271.128295898,0.000169,0.0,0.0,0.0,0.000144,0.0,0.0,0.0,0.001764,2
1668538678525626081,396916,1668538678598812095,gps,2,1,42.3004275259,-83.6986238486,271.128967285,0.000169,0.0,0.0,0.0,0.000144,0.0,0.0,0.0,0.001764,2
1668538678535631549,396917,1668538678608898167,gps,2,1,42.3004279127,-83.6986239529,271.129638672,0.000169,0.0,0.0,0.0,0.000144,0.0,0.0,0.0,0.001764,2
1668538678545837702,396918,1668538678618830545,gps,2,1,42.3004283063,-83.6986240563,271.130187988,0.000169,0.0,0.0,0.0,0.000144,0.0,0.0,0.0,0.001764,2
1668538678555438707,396919,1668538678628814298,gps,2,1,42.3004286967,-83.6986241625,271.13079834,0.000169,0.0,0.0,0.0,0.000144,0.0,0.0,0.0,0.001764,2
1668538678565500911,396920,1668538678638868501,gps,2,1,42.3004290855,-83.6986242683,271.131469727,0.000169,0.0,0.0,0.0,0.000144,0.0,0.0,0.0,0.001764,2
1668538678575446295,396921,1668538678648806636,gps,2,1,42.3004294813,-83.698624372,271.131958008,0.000169,0.0,0.0,0.0,0.000144,0.0,0.0,0.0,0.001764,2
1668538678585376440,396922,1668538678658803521,gps,2,1,42.3004298738,-83.698624479,271.132568359,0.000169,0.0,0.0,0.0,0.000144,0.0,0.0,0.0,0.001764,2
1668538678595549304,396923,1668538678668850365,gps,2,1,42.3004302645,-83.6986245855,271.133178711,0.000169,0.0,0.0,0.0,0.000144,0.0,0.0,0.0,0.001764,2
1668538678605429204,396924,1668538678678797785,gps,2,1,42.3004306623,-83.6986246896,271.133636475,0.000169,0.0,0.0,0.0,0.000144,0.0,0.0,0.0,0.001764,2
1668538678615598889,396925,1668538678688801203,gps,2,1,42.3004310567,-83.6986247966,271.134185791,0.000169,0.0,0.0,0.0,0.000144,0.0,0.0,0.0,0.001764,2
1668538678625817387,396926,1668538678698875453,gps,2,1,42.3004314496,-83.6986249037,271.134765625,0.000169,0.0,0.0,0.0,0.000144,0.0,0.0,0.0,0.001764,2
1668538678635335381,396927,1668538678708794056,gps,2,1,42.3004318493,-83.6986250079,271.135192871,0.000169,0.0,0.0,0.0,0.000144,0.0,0.0,0.0,0.001764,2
1668538678645322733,396928,1668538678718806429,gps,2,1,42.3004322457,-83.6986251147,271.135681152,0.000169,0.0,0.0,0.0,0.000144,0.0,0.0,0.0,0.001764,2
1668538678655701550,396929,1668538678728889574,gps,2,1,42.3004326407,-83.6986252214,271.136260986,0.000169,0.0,0.0,0.0,0.000144,0.0,0.0,0.0,0.001764,2
1668538678665324765,396930,1668538678738807756,gps,2,1,42.3004330422,-83.6986253255,271.136749268,0.000169,0.0,0.0,0.0,0.000144,0.0,0.0,0.0,0.001764,2
1668538678675540965,396931,1668538678748830518,gps,2,1,42.3004334406,-83.6986254325,271.137298584,0.000169,0.0,0.0,0.0,0.000144,0.0,0.0,0.0,0.001764,2
1668538678685436587,396932,1668538678758870702,gps,2,1,42.3004338377,-83.6986255393,271.137817383,0.000169,0.0,0.0,0.0,0.000144,0.0,0.0,0.0,0.001764,2
1668538678695590788,396933,1668538678768891061,gps,2,1,42.3004342411,-83.6986256437,271.138336182,0.000169,0.0,0.0,0.0,0.000144,0.0,0.0,0.0,0.001764,2
1668538678705456314,396934,1668538678778828768,gps,2,1,42.3004346416,-83.6986257509,271.138885498,0.000169,0.0,0.0,0.0,0.000144,0.0,0.0,0.0,0.001764,2
1668538678715503642,396935,1668538678788876988,gps,2,1,42.3004350403,-83.6986258577,271.139434814,0.000169,0.0,0.0,0.0,0.000144,0.0,0.0,0.0,0.001764,2
1668538678725447628,396936,1668538678798803791,gps,2,1,42.3004354455,-83.6986259623,271.139923096,0.000169,0.0,0.0,0.0,0.000144,0.0,0.0,0.0,0.001764,2
1668538678735369824,396937,1668538678808805000,gps,2,1,42.3004358478,-83.6986260694,271.140441895,0.000169,0.0,0.0,0.0,0.000144,0.0,0.0,0.0,0.001764,2
1668538678745521396,396938,1668538678818853438,gps,2,1,42.3004362484,-83.6986261767,271.140960693,0.000169,0.0,0.0,0.0,0.000144,0.0,0.0,0.0,0.001764,2
1668538678755386028,396939,1668538678828805949,gps,2,1,42.3004366554,-83.6986262813,271.141448975,0.000169,0.0,0.0,0.0,0.000144,0.0,0.0,0.0,0.001764,2
1668538678765503868,396940,1668538678838900316,gps,2,1,42.3004370596,-83.6986263889,271.141937256,0.000169,0.0,0.0,0.0,0.000144,0.0,0.0,0.0,0.001764,2
1668538678775270938,396941,1668538678848863599,gps,2,1,42.3004374622,-83.6986264961,271.142425537,0.000169,0.0,0.0,0.0,0.000144,0.0,0.0,0.0,0.001764,2
1668538678785223060,396942,1668538678858797474,gps,2,1,42.3004378711,-83.6986266009,271.142883301,0.000169,0.0,0.0,0.0,0.000144,0.0,0.0,0.0,0.001764,2
1668538678795268821,396943,1668538678868808710,gps,2,1,42.3004382769,-83.6986267085,271.143341064,0.000169,0.0,0.0,0.0,0.000144,0.0,0.0,0.0,0.001764,2
1668538678805812678,396944,1668538678878881153,gps,2,1,42.3004386816,-83.6986268158,271.143829346,0.000169,0.0,0.0,0.0,0.000144,0.0,0.0,0.0,0.001764,2
1668538678815711928,396945,1668538678888806403,gps,2,1,42.3004390919,-83.6986269214,271.144256592,0.000169,0.0,0.0,0.0,0.000144,0.0,0.0,0.0,0.001764,2
1668538678825638921,396946,1668538678898808787,gps,2,1,42.3004394998,-83.6986270287,271.144683838,0.000169,0.0,0.0,0.0,0.000144,0.0,0.0,0.0,0.001764,2
1668538678835435914,396947,1668538678908859983,gps,2,1,42.300439906,-83.6986271361,271.145172119,0.000169,0.0,0.0,0.0,0.000144,0.0,0.0,0.0,0.001764,2
1668538678845503643,396948,1668538678918798015,gps,2,1,42.3004403181,-83.6986272416,271.145568848,0.000169,0.0,0.0,0.0,0.000144,0.0,0.0,0.0,0.001764,2
1668538678855605204,396949,1668538678928819431,gps,2,1,42.3004407276,-83.6986273488,271.146057129,0.000169,0.0,0.0,0.0,0.000144,0.0,0.0,0.0,0.001764,2
1668538678865497651,396950,1668538678938859835,gps,2,1,42.3004411357,-83.6986274562,271.146453857,0.000169,0.0,0.0,0.0,0.000144,0.0,0.0,0.0,0.001764,2
1668538678875385486,396951,1668538678948887857,gps,2,1,42.3004415495,-83.6986275615,271.146911621,0.000169,0.0,0.0,0.0,0.000144,0.0,0.0,0.0,0.001764,2
1668538678885381164,396952,1668538678958801693,gps,2,1,42.3004419607,-83.6986276681,271.147399902,0.000169,0.0,0.0,0.0,0.000144,0.0,0.0,0.0,0.001764,2
1668538678895496042,396953,1668538678968851377,gps,2,1,42.3004423707,-83.6986277754,271.147857666,0.000169,0.0,0.0,0.0,0.000144,0.0,0.0,0.0,0.001764,2
1668538678905423932,396954,1668538678978781900,gps,2,1,42.3004427861,-83.6986278804,271.14831543,0.000169,0.0,0.0,0.0,0.000144,0.0,0.0,0.0,0.001764,2
1668538678915500366,396955,1668538678988844580,gps,2,1,42.3004431992,-83.698627987,271.148834229,0.000169,0.0,0.0,0.0,0.000144,0.0,0.0,0.0,0.001764,2
1668538678925738665,396956,1668538678998945030,gps,2,1,42.3004436109,-83.6986280937,271.149353027,0.000169,0.0,0.0,0.0,0.000144,0.0,0.0,0.0,0.001764,2
1668538678935588173,396957,1668538679008845231,gps,2,1,42.3004440279,-83.6986281986,271.149841309,0.000169,0.0,0.0,0.0,0.000144,0.0,0.0,0.0,0.001764,2
1668538678945709046,396958,1668538679019020138,gps,2,1,42.3004444426,-83.6986283053,271.150360107,0.000169,0.0,0.0,0.0,0.000144,0.0,0.0,0.0,0.001764,2
1668538678955587287,396959,1668538679028870204,gps,2,1,42.300444856,-83.6986284118,271.150878906,0.000169,0.0,0.0,0.0,0.000144,0.0,0.0,0.0,0.001764,2
1668538678965591938,396960,1668538679038798423,gps,2,1,42.3004452762,-83.6986285196,271.1512146,0.000169,0.0,0.0,0.0,0.000144,0.0,0.0,0.0,0.001764,2
1668538678975431484,396961,1668538679048855023,gps,2,1,42.3004456926,-83.6986286266,271.151733398,0.000169,0.0,0.0,0.0,0.000144,0.0,0.0,0.0,0.001764,2
1668538678985526399,396962,1668538679058953137,gps,2,1,42.3004461075,-83.698628733,271.152252197,0.000169,0.0,0.0,0.0,0.000144,0.0,0.0,0.0,0.001764,2
1668538678995492233,396963,1668538679068823425,gps,2,1,42.3004465292,-83.6986288411,271.152587891,0.000169,0.0,0.0,0.0,0.000144,0.0,0.0,0.0,0.001764,2
1668538679005448139,396964,1668538679078806990,gps,2,1,42.3004469471,-83.6986289482,271.153076172,0.000169,0.0,0.0,0.0,0.000144,0.0,0.0,0.0,0.001764,2
1668538679015539553,396965,1668538679088942354,gps,2,1,42.3004473639,-83.6986290553,271.153564453,0.000169,0.0,0.0,0.0,0.000144,0.0,0.0,0.0,0.001764,2
1668538679025449135,396966,1668538679098789967,gps,2,1,42.3004477871,-83.6986291637,271.153900146,0.000169,0.0,0.0,0.0,0.000144,0.0,0.0,0.0,0.001764,2
1668538679035453208,396967,1668538679108864678,gps,2,1,42.3004482067,-83.6986292713,271.154388428,0.000169,0.0,0.0,0.0,0.000144,0.0,0.0,0.0,0.001764,2
1668538679045644744,396968,1668538679118785999,gps,2,1,42.3004486249,-83.6986293786,271.154876709,0.000169,0.0,0.0,0.0,0.000144,0.0,0.0,0.0,0.001764,2
1668538679055340867,396969,1668538679128784039,gps,2,1,42.300449049,-83.6986294873,271.15524292,0.000169,0.0,0.0,0.0,0.000144,0.0,0.0,0.0,0.001764,2
1668538679065457137,396970,1668538679138870028,gps,2,1,42.3004494702,-83.6986295946,271.155761719,0.000169,0.0,0.0,0.0,0.000144,0.0,0.0,0.0,0.001764,2
1668538679075257054,396971,1668538679148801542,gps,2,1,42.3004498901,-83.698629702,271.15625,0.000169,0.0,0.0,0.0,0.000144,0.0,0.0,0.0,0.001764,2
1668538679085333422,396972,1668538679158794537,gps,2,1,42.3004503158,-83.6986298102,271.156616211,0.000169,0.0,0.0,0.0,0.000144,0.0,0.0,0.0,0.001764,2
1668538679095714981,396973,1668538679168863655,gps,2,1,42.3004507384,-83.698629917,271.15713501,0.000169,0.0,0.0,0.0,0.000144,0.0,0.0,0.0,0.001764,2
1668538679105592395,396974,1668538679178799725,gps,2,1,42.3004511598,-83.6986300245,271.157653809,0.000169,0.0,0.0,0.0,0.000144,0.0,0.0,0.0,0.001764,2
1668538679115687466,396975,1668538679188808368,gps,2,1,42.3004515868,-83.6986301323,271.158050537,0.000169,0.0,0.0,0.0,0.000144,0.0,0.0,0.0,0.001764,2
1668538679125442090,396976,1668538679198814154,gps,2,1,42.3004520109,-83.6986302389,271.158630371,0.000169,0.0,0.0,0.0,0.000144,0.0,0.0,0.0,0.001764,2
1668538679135433694,396977,1668538679208859118,gps,2,1,42.3004524339,-83.6986303459,271.15914917,0.000169,0.0,0.0,0.0,0.000144,0.0,0.0,0.0,0.001764,2
1668538679145364815,396978,1668538679218792245,gps,2,1,42.3004528624,-83.6986304534,271.159606934,0.000169,0.0,0.0,0.0,0.000144,0.0,0.0,0.0,0.001764,2
1668538679155486378,396979,1668538679228841869,gps,2,1,42.300453288,-83.6986305595,271.16015625,0.000169,0.0,0.0,0.0,0.000144,0.0,0.0,0.0,0.001764,2
1668538679165409632,396980,1668538679238829495,gps,2,1,42.3004537126,-83.6986306662,271.160766602,0.000169,0.0,0.0,0.0,0.000144,0.0,0.0,0.0,0.001764,2
1668538679175385976,396981,1668538679248806779,gps,2,1,42.3004541422,-83.6986307732,271.161224365,0.000169,0.0,0.0,0.0,0.000144,0.0,0.0,0.0,0.001764,2
1668538679185363573,396982,1668538679258844748,gps,2,1,42.3004545694,-83.6986308789,271.161834717,0.000169,0.0,0.0,0.0,0.000144,0.0,0.0,0.0,0.001764,2
1668538679195468248,396983,1668538679268881238,gps,2,1,42.3004549951,-83.6986309849,271.162414551,0.000169,0.0,0.0,0.0,0.000144,0.0,0.0,0.0,0.001764,2
1668538679205337944,396984,1668538679278807903,gps,2,1,42.3004554261,-83.6986310911,271.162902832,0.000169,0.0,0.0,0.0,0.000144,0.0,0.0,0.0,0.001764,2
1668538679215668044,396985,1668538679288861708,gps,2,1,42.3004558545,-83.6986311959,271.163513184,0.000169,0.0,0.0,0.0,0.000144,0.0,0.0,0.0,0.001764,2
1668538679225179657,396986,1668538679298805666,gps,2,1,42.3004562817,-83.6986313013,271.164123535,0.000169,0.0,0.0,0.0,0.000144,0.0,0.0,0.0,0.001764,2
1668538679235515542,396987,1668538679308799883,gps,2,1,42.3004567141,-83.6986314066,271.164611816,0.000169,0.0,0.0,0.0,0.000144,0.0,0.0,0.0,0.001764,2
1668538679245614719,396988,1668538679318796213,gps,2,1,42.3004571441,-83.6986315102,271.165222168,0.000169,0.0,0.0,0.0,0.000144,0.0,0.0,0.0,0.001764,2
1668538679255513975,396989,1668538679328859360,gps,2,1,42.3004575727,-83.6986316148,271.16583252,0.000169,0.0,0.0,0.0,0.000144,0.0,0.0,0.0,0.001764,2
1668538679265456847,396990,1668538679338882310,gps,2,1,42.3004580065,-83.6986317188,271.166351318,0.000169,0.0,0.0,0.0,0.000144,0.0,0.0,0.0,0.001764,2
1668538679275389078,396991,1668538679348800278,gps,2,1,42.300458438,-83.6986318212,271.166992188,0.000169,0.0,0.0,0.0,0.000144,0.0,0.0,0.0,0.001764,2
1668538679285492501,396992,1668538679358906965,gps,2,1,42.3004588681,-83.698631925,271.167602539,0.000169,0.0,0.0,0.0,0.000144,0.0,0.0,0.0,0.001764,2
1668538679295530152,396993,1668538679368817998,gps,2,1,42.3004593033,-83.6986320278,271.168121338,0.000169,0.0,0.0,0.0,0.000144,0.0,0.0,0.0,0.001764,2
1668538679305471899,396994,1668538679378809834,gps,2,1,42.3004597361,-83.6986321295,271.168731689,0.000169,0.0,0.0,0.0,0.000144,0.0,0.0,0.0,0.001764,2
1668538679315398298,396995,1668538679388853550,gps,2,1,42.3004601677,-83.6986322318,271.169311523,0.000169,0.0,0.0,0.0,0.000144,0.0,0.0,0.0,0.001764,2
1668538679325428176,396996,1668538679398784590,gps,2,1,42.3004606039,-83.6986323345,271.169830322,0.000169,0.0,0.0,0.0,0.000144,0.0,0.0,0.0,0.001764,2
1668538679335443190,396997,1668538679408883344,gps,2,1,42.3004610382,-83.6986324355,271.170349121,0.000169,0.0,0.0,0.0,0.000144,0.0,0.0,0.0,0.001764,2
1668538679345390974,396998,1668538679418786856,gps,2,1,42.3004614714,-83.6986325365,271.170959473,0.000169,0.0,0.0,0.0,0.000144,0.0,0.0,0.0,0.001764,2
1668538679355294105,396999,1668538679428788756,gps,2,1,42.3004619089,-83.6986326388,271.171447754,0.000169,0.0,0.0,0.0,0.000144,0.0,0.0,0.0,0.001764,2
1668538679365753599,397000,1668538679438863228,gps,2,1,42.3004623444,-83.6986327394,271.171966553,0.000169,0.0,0.0,0.0,0.000144,0.0,0.0,0.0,0.001764,2
1668538679375548748,397001,1668538679448796440,gps,2,1,42.300462779,-83.6986328407,271.172515869,0.000169,0.0,0.0,0.0,0.000144,0.0,0.0,0.0,0.001764,2
1668538679385601280,397002,1668538679458850517,gps,2,1,42.3004632177,-83.6986329428,271.17300415,0.000169,0.0,0.0,0.0,0.000144,0.0,0.0,0.0,0.001764,2
1668538679395718582,397003,1668538679468805770,gps,2,1,42.3004636546,-83.6986330439,271.173461914,0.000169,0.0,0.0,0.0,0.000144,0.0,0.0,0.0,0.001764,2
1668538679405494660,397004,1668538679478848027,gps,2,1,42.3004640904,-83.6986331448,271.173980713,0.000169,0.0,0.0,0.0,0.000144,0.0,0.0,0.0,0.001764,2
1668538679415499495,397005,1668538679488833283,gps,2,1,42.3004645303,-83.6986332467,271.174407959,0.000169,0.0,0.0,0.0,0.000144,0.0,0.0,0.0,0.001764,2
1668538679425569763,397006,1668538679498886919,gps,2,1,42.3004649683,-83.6986333471,271.17489624,0.000169,0.0,0.0,0.0,0.000144,0.0,0.0,0.0,0.001764,2
1668538679435557727,397007,1668538679508846674,gps,2,1,42.3004654056,-83.6986334477,271.175354004,0.000169,0.0,0.0,0.0,0.000144,0.0,0.0,0.0,0.001764,2
1668538679445668810,397008,1668538679518943303,gps,2,1,42.3004658468,-83.6986335489,271.175811768,0.000169,0.0,0.0,0.0,0.000144,0.0,0.0,0.0,0.001764,2
1668538679455460309,397009,1668538679528905325,gps,2,1,42.3004662864,-83.6986336484,271.176269531,0.000169,0.0,0.0,0.0,0.000144,0.0,0.0,0.0,0.001764,2
1668538679465430848,397010,1668538679538847335,gps,2,1,42.3004667248,-83.6986337484,271.176727295,0.000169,0.0,0.0,0.0,0.000144,0.0,0.0,0.0,0.001764,2
1668538679475501817,397011,1668538679548841496,gps,2,1,42.3004671653,-83.698633854,271.177093506,0.000169,0.0,0.0,0.0,0.000144,0.0,0.0,0.0,0.001764,2
1668538679485513045,397012,1668538679558808322,gps,2,1,42.3004676066,-83.6986339521,271.17755127,0.000169,0.0,0.0,0.0,0.000144,0.0,0.0,0.0,0.001764,2
1668538679495352986,397013,1668538679568846683,gps,2,1,42.3004680465,-83.6986340512,271.178009033,0.000169,0.0,0.0,0.0,0.000144,0.0,0.0,0.0,0.001764,2
1668538679505221721,397014,1668538679578785877,gps,2,1,42.3004684885,-83.6986341552,271.178405762,0.000169,0.0,0.0,0.0,0.000144,0.0,0.0,0.0,0.001764,2
1668538679515630612,397015,1668538679588876683,gps,2,1,42.300468931,-83.6986342523,271.178894043,0.000169,0.0,0.0,0.0,0.000144,0.0,0.0,0.0,0.001764,2
1668538679525575668,397016,1668538679598847134,gps,2,1,42.3004693726,-83.6986343501,271.179321289,0.000169,0.0,0.0,0.0,0.000144,0.0,0.0,0.0,0.001764,2
1668538679535516428,397017,1668538679608779343,gps,2,1,42.3004698159,-83.6986344533,271.179748535,0.000169,0.0,0.0,0.0,0.000144,0.0,0.0,0.0,0.001764,2
1668538679545598090,397018,1668538679618785316,gps,2,1,42.3004702598,-83.6986345501,271.180206299,0.000169,0.0,0.0,0.0,0.000144,0.0,0.0,0.0,0.001764,2
1668538679555412201,397019,1668538679628860262,gps,2,1,42.3004707029,-83.6986346471,271.18069458,0.000169,0.0,0.0,0.0,0.000144,0.0,0.0,0.0,0.001764,2
1668538679565470456,397020,1668538679638784640,gps,2,1,42.3004711478,-83.6986347497,271.181091309,0.000169,0.0,0.0,0.0,0.000144,0.0,0.0,0.0,0.001764,2
1668538679575431697,397021,1668538679648827078,gps,2,1,42.3004715931,-83.6986348464,271.181549072,0.000169,0.0,0.0,0.0,0.000144,0.0,0.0,0.0,0.001764,2
1668538679585543936,397022,1668538679658866052,gps,2,1,42.3004720374,-83.6986349431,271.182037354,0.000169,0.0,0.0,0.0,0.000144,0.0,0.0,0.0,0.001764,2
1668538679595465712,397023,1668538679668771493,gps,2,1,42.3004724835,-83.6986350455,271.182403564,0.000169,0.0,0.0,0.0,0.000144,0.0,0.0,0.0,0.001764,2
1668538679605432454,397024,1668538679678774553,gps,2,1,42.3004729298,-83.698635142,271.182922363,0.000169,0.0,0.0,0.0,0.000144,0.0,0.0,0.0,0.001764,2
1668538679615340114,397025,1668538679688833703,gps,2,1,42.300473375,-83.6986352389,271.183380127,0.000169,0.0,0.0,0.0,0.000144,0.0,0.0,0.0,0.001764,2
1668538679625389720,397026,1668538679698779923,gps,2,1,42.3004738223,-83.6986353409,271.183776855,0.000169,0.0,0.0,0.0,0.000144,0.0,0.0,0.0,0.001764,2
1668538679635220663,397027,1668538679708783068,gps,2,1,42.3004742694,-83.698635437,271.184326172,0.000169,0.0,0.0,0.0,0.000144,0.0,0.0,0.0,0.001764,2
1668538679645728103,397028,1668538679718860849,gps,2,1,42.3004747158,-83.6986355341,271.184783936,0.000169,0.0,0.0,0.0,0.000144,0.0,0.0,0.0,0.001764,2
1668538679655169466,397029,1668538679728776598,gps,2,1,42.3004751641,-83.6986356353,271.185272217,0.000169,0.0,0.0,0.0,0.000144,0.0,0.0,0.0,0.001764,2
1668538679665735030,397030,1668538679738845851,gps,2,1,42.3004756125,-83.698635731,271.185882568,0.000169,0.0,0.0,0.0,0.000144,0.0,0.0,0.0,0.001764,2
1668538679675166629,397031,1668538679748803741,gps,2,1,42.30047606,-83.698635827,271.186431885,0.000169,0.0,0.0,0.0,0.000144,0.0,0.0,0.0,0.001764,2
1668538679685340887,397032,1668538679758781847,gps,2,1,42.3004765095,-83.6986359271,271.186950684,0.000169,0.0,0.0,0.0,0.000144,0.0,0.0,0.0,0.001764,2
1668538679695658014,397033,1668538679768892367,gps,2,1,42.3004769591,-83.6986360217,271.187591553,0.000169,0.0,0.0,0.0,0.000144,0.0,0.0,0.0,0.001764,2
1668538679705466061,397034,1668538679778845746,gps,2,1,42.3004774079,-83.6986361167,271.188171387,0.000169,0.0,0.0,0.0,0.000144,0.0,0.0,0.0,0.001764,2
1668538679715460385,397035,1668538679788784674,gps,2,1,42.3004778587,-83.6986362157,271.188751221,0.000169,0.0,0.0,0.0,0.000144,0.0,0.0,0.0,0.001764,2
1668538679725467236,397036,1668538679798867278,gps,2,1,42.3004783099,-83.6986363091,271.189361572,0.000169,0.0,0.0,0.0,0.000144,0.0,0.0,0.0,0.001764,2
1668538679735394992,397037,1668538679808828311,gps,2,1,42.3004787597,-83.6986364031,271.190002441,0.000169,0.0,0.0,0.0,0.000144,0.0,0.0,0.0,0.001764,2
1668538679745449221,397038,1668538679818775619,gps,2,1,42.3004792118,-83.6986365011,271.190551758,0.000169,0.0,0.0,0.0,0.000144,0.0,0.0,0.0,0.001764,2
1668538679755389341,397039,1668538679828778445,gps,2,1,42.3004796641,-83.6986365938,271.191162109,0.000169,0.0,0.0,0.0,0.000144,0.0,0.0,0.0,0.001764,2
1668538679765800000,397040,1668538679838924548,gps,2,1,42.3004801156,-83.6986366869,271.191802979,0.000169,0.0,0.0,0.0,0.000144,0.0,0.0,0.0,0.001764,2
1668538679775276582,397041,1668538679848765003,gps,2,1,42.300480569,-83.6986367842,271.192321777,0.000169,0.0,0.0,0.0,0.000144,0.0,0.0,0.0,0.001764,2
1668538679785542478,397042,1668538679858852280,gps,2,1,42.3004810226,-83.6986368765,271.192901611,0.000169,0.0,0.0,0.0,0.000144,0.0,0.0,0.0,0.001764,2
1668538679795285879,397043,1668538679868774067,gps,2,1,42.3004814753,-83.6986369694,271.193450928,0.000169,0.0,0.0,0.0,0.000144,0.0,0.0,0.0,0.001764,2
1668538679805529910,397044,1668538679878777077,gps,2,1,42.3004819297,-83.6986370664,271.193939209,0.000169,0.0,0.0,0.0,0.000144,0.0,0.0,0.0,0.001764,2
1668538679815181706,397045,1668538679888836739,gps,2,1,42.3004823847,-83.6986371587,271.19442749,0.000169,0.0,0.0,0.0,0.000144,0.0,0.0,0.0,0.001764,2
1668538679825567272,397046,1668538679898782103,gps,2,1,42.3004828387,-83.6986372509,271.194976807,0.000169,0.0,0.0,0.0,0.000144,0.0,0.0,0.0,0.001764,2
1668538679835330026,397047,1668538679908771995,gps,2,1,42.3004832944,-83.6986373475,271.195404053,0.000169,0.0,0.0,0.0,0.000144,0.0,0.0,0.0,0.001764,2
1668538679845504594,397048,1668538679918781502,gps,2,1,42.3004837506,-83.6986374387,271.195861816,0.000169,0.0,0.0,0.0,0.000144,0.0,0.0,0.0,0.001764,2
1668538679855525270,397049,1668538679928833376,gps,2,1,42.3004842059,-83.6986375306,271.196350098,0.000169,0.0,0.0,0.0,0.000144,0.0,0.0,0.0,0.001764,2
1668538679865340737,397050,1668538679938781827,gps,2,1,42.300484663,-83.698637626,271.196685791,0.000169,0.0,0.0,0.0,0.000144,0.0,0.0,0.0,0.001764,2
1668538679875415267,397051,1668538679948773255,gps,2,1,42.3004851206,-83.6986377164,271.197052002,0.000169,0.0,0.0,0.0,0.000144,0.0,0.0,0.0,0.001764,2
1668538679885351841,397052,1668538679958833841,gps,2,1,42.3004855769,-83.6986378077,271.197509766,0.000169,0.0,0.0,0.0,0.000144,0.0,0.0,0.0,0.001764,2
1668538679895384606,397053,1668538679968761170,gps,2,1,42.3004860353,-83.6986379019,271.197814941,0.000169,0.0,0.0,0.0,0.000144,0.0,0.0,0.0,0.001764,2
1668538679905347906,397054,1668538679978858314,gps,2,1,42.3004864941,-83.698637991,271.198120117,0.000169,0.0,0.0,0.0,0.000144,0.0,0.0,0.0,0.001764,2
1668538679915366774,397055,1668538679988829616,gps,2,1,42.3004869519,-83.698638081,271.198486328,0.000169,0.0,0.0,0.0,0.000144,0.0,0.0,0.0,0.001764,2
1668538679925621301,397056,1668538679998860415,gps,2,1,42.3004874119,-83.6986381779,271.198425293,0.000169,0.0,0.0,0.0,0.000144,0.0,0.0,0.0,0.001764,2
1668538679935482211,397057,1668538680008795169,gps,2,1,42.3004878719,-83.6986382659,271.198730469,0.000169,0.0,0.0,0.0,0.000144,0.0,0.0,0.0,0.001764,2
1668538679945772006,397058,1668538680019030544,gps,2,1,42.3004883311,-83.6986383546,271.199066162,0.000169,0.0,0.0,0.0,0.000144,0.0,0.0,0.0,0.001764,2
1668538679955668972,397059,1668538680028849257,gps,2,1,42.3004887922,-83.6986384503,271.199005127,0.000169,0.0,0.0,0.0,0.000144,0.0,0.0,0.0,0.001764,2
1668538679965607184,397060,1668538680038834980,gps,2,1,42.3004892533,-83.6986385378,271.199310303,0.000169,0.0,0.0,0.0,0.000144,0.0,0.0,0.0,0.001764,2
1668538679975584833,397061,1668538680048823216,gps,2,1,42.3004897134,-83.6986386257,271.199645996,0.000169,0.0,0.0,0.0,0.000144,0.0,0.0,0.0,0.001764,2
1668538679985612664,397062,1668538680058938544,gps,2,1,42.3004901755,-83.6986387207,271.199615479,0.000169,0.0,0.0,0.0,0.000144,0.0,0.0,0.0,0.001764,2
1668538679995443457,397063,1668538680068855970,gps,2,1,42.3004906374,-83.6986388077,271.199981689,0.000169,0.0,0.0,0.0,0.000144,0.0,0.0,0.0,0.001764,2
1668538680005303038,397064,1668538680078773743,gps,2,1,42.3004910991,-83.6986388951,271.200286865,0.000169,0.0,0.0,0.0,0.000144,0.0,0.0,0.0,0.001764,2
1668538680015422351,397065,1668538680088860886,gps,2,1,42.300491562,-83.6986389895,271.200317383,0.000169,0.0,0.0,0.0,0.000144,0.0,0.0,0.0,0.001764,2
1668538680025455353,397066,1668538680098766994,gps,2,1,42.3004920251,-83.6986390761,271.200744629,0.000169,0.0,0.0,0.0,0.000144,0.0,0.0,0.0,0.001764,2
1668538680035315570,397067,1668538680108838705,gps,2,1,42.3004924874,-83.6986391634,271.201080322,0.000169,0.0,0.0,0.0,0.000144,0.0,0.0,0.0,0.001764,2
1668538680045305337,397068,1668538680118777972,gps,2,1,42.3004929509,-83.6986392573,271.201171875,0.000169,0.0,0.0,0.0,0.000144,0.0,0.0,0.0,0.001764,2
1668538680055260347,397069,1668538680128761401,gps,2,1,42.3004934147,-83.6986393435,271.201568604,0.000169,0.0,0.0,0.0,0.000144,0.0,0.0,0.0,0.001764,2
1668538680065237981,397070,1668538680138846263,gps,2,1,42.3004938778,-83.6986394304,271.20199585,0.000169,0.0,0.0,0.0,0.000144,0.0,0.0,0.0,0.001764,2
1668538680075156049,397071,1668538680148771449,gps,2,1,42.3004943421,-83.6986395237,271.202148438,0.000169,0.0,0.0,0.0,0.000144,0.0,0.0,0.0,0.001764,2
1668538680085527558,397072,1668538680158775967,gps,2,1,42.3004948066,-83.6986396093,271.202575684,0.000169,0.0,0.0,0.0,0.000144,0.0,0.0,0.0,0.001764,2
1668538680095289743,397073,1668538680168834159,gps,2,1,42.3004952703,-83.6986396955,271.203063965,0.000169,0.0,0.0,0.0,0.000144,0.0,0.0,0.0,0.001764,2
1668538680105589499,397074,1668538680178771735,gps,2,1,42.3004957352,-83.6986397881,271.20324707,0.000169,0.0,0.0,0.0,0.000144,0.0,0.0,0.0,0.001764,2
1668538680115420815,397075,1668538680188826047,gps,2,1,42.3004962004,-83.6986398734,271.203765869,0.000169,0.0,0.0,0.0,0.000144,0.0,0.0,0.0,0.001764,2
1668538680125439055,397076,1668538680198782389,gps,2,1,42.3004966651,-83.6986399589,271.204223633,8.1e-05,0.0,0.0,0.0,8.1e-05,0.0,0.0,0.0,0.001764,2
1668538680135372214,397077,1668538680208772946,gps,2,1,42.3004971308,-83.6986400508,271.204498291,8.1e-05,0.0,0.0,0.0,8.1e-05,0.0,0.0,0.0,0.001764,2
1668538680145382884,397078,1668538680218773074,gps,2,1,42.3004975967,-83.6986401358,271.20501709,8.1e-05,0.0,0.0,0.0,8.1e-05,0.0,0.0,0.0,0.001764,2
1668538680155501820,397079,1668538680228819063,gps,2,1,42.3004980621,-83.6986402212,271.205566406,8.1e-05,0.0,0.0,0.0,8.1e-05,0.0,0.0,0.0,0.001764,2
1668538680165367565,397080,1668538680238752502,gps,2,1,42.3004985284,-83.6986403125,271.205871582,8.1e-05,0.0,0.0,0.0,8.1e-05,0.0,0.0,0.0,0.001764,2
1668538680175311867,397081,1668538680248798297,gps,2,1,42.300498995,-83.6986403971,271.206481934,8.1e-05,0.0,0.0,0.0,8.1e-05,0.0,0.0,0.0,0.001764,2
1668538680185323152,397082,1668538680258823610,gps,2,1,42.3004994609,-83.6986404821,271.207092285,8.1e-05,0.0,0.0,0.0,8.1e-05,0.0,0.0,0.0,0.001764,2
1668538680195532849,397083,1668538680268853344,gps,2,1,42.3004999278,-83.698640573,271.207489014,8.1e-05,0.0,0.0,0.0,8.1e-05,0.0,0.0,0.0,0.001764,2
1668538680205249605,397084,1668538680278771570,gps,2,1,42.3005003951,-83.6986406574,271.208221436,8.1e-05,0.0,0.0,0.0,8.1e-05,0.0,0.0,0.0,0.001764,2
1668538680215596341,397085,1668538680288826324,gps,2,1,42.3005008618,-83.6986407424,271.208862305,8.1e-05,0.0,0.0,0.0,8.1e-05,0.0,0.0,0.0,0.001764,2
1668538680225568514,397086,1668538680298768984,gps,2,1,42.3005013294,-83.6986408327,271.209381104,8.1e-05,0.0,0.0,0.0,8.1e-05,0.0,0.0,0.0,0.001764,2
1668538680235581044,397087,1668538680308839385,gps,2,1,42.3005017973,-83.6986409169,271.210144043,8.1e-05,0.0,0.0,0.0,8.1e-05,0.0,0.0,0.0,0.001764,2
1668538680245649518,397088,1668538680318772308,gps,2,1,42.3005022646,-83.6986410015,271.210876465,8.1e-05,0.0,0.0,0.0,8.1e-05,0.0,0.0,0.0,0.001764,2
