%time,field.header.seq,field.header.stamp,field.header.frame_id,field.status.status,field.status.service,field.latitude,field.longitude,field.altitude,field.position_covariance0,field.position_covariance1,field.position_covariance2,field.position_covariance3,field.position_covariance4,field.position_covariance5,field.position_covariance6,field.position_covariance7,field.position_covariance8,field.position_covariance_type
1668538077655035379,336829,1668538077737288682,gps,2,1,42.3009728148,-83.69796284,272.235565186,6.4e-05,0.0,0.0,0.0,8.1e-05,0.0,0.0,0.0,0.002209,2
1668538077665086070,336830,1668538077747335509,gps,2,1,42.3009727795,-83.6979631801,272.234680176,6.4e-05,0.0,0.0,0.0,8.1e-05,0.0,0.0,0.0,0.002209,2
1668538077675201034,336831,1668538077757249847,gps,2,1,42.3009727432,-83.6979635275,272.233764648,6.4e-05,0.0,0.0,0.0,8.1e-05,0.0,0.0,0.0,0.002209,2
1668538077685444771,336832,1668538077767303915,gps,2,1,42.3009727072,-83.697963877,272.232971191,6.4e-05,0.0,0.0,0.0,8.1e-05,0.0,0.0,0.0,0.002209,2
1668538077695361956,336833,1668538077777243225,gps,2,1,42.3009726716,-83.6979642224,272.232116699,6.4e-05,0.0,0.0,0.0,8.1e-05,0.0,0.0,0.0,0.002209,2
1668538077705384692,336834,1668538077787232575,gps,2,1,42.3009726349,-83.6979645746,272.231231689,6.4e-05,0.0,0.0,0.0,8.1e-05,0.0,0.0,0.0,0.002209,2
1668538077715372663,336835,1668538077797308475,gps,2,1,42.3009725986,-83.6979649291,272.230438232,6.4e-05,0.0,0.0,0.0,8.1e-05,0.0,0.0,0.0,0.002209,2
1668538077725374748,336836,1668538077807252298,gps,2,1,42.3009725627,-83.6979652795,272.229614258,6.4e-05,0.0,0.0,0.0,8.1e-05,0.0,0.0,0.0,0.002209,2
1668538077735170136,336837,1668538077817241909,gps,2,1,42.3009725256,-83.6979656367,272.228759766,6.4e-05,0.0,0.0,0.0,8.1e-05,0.0,0.0,0.0,0.002209,2
1668538077745238703,336838,1668538077827300508,gps,2,1,42.3009724886,-83.697965996,272.227966309,6.4e-05,0.0,0.0,0.0,8.1e-05,0.0,0.0,0.0,0.002209,2
1668538077755212578,336839,1668538077837242079,gps,2,1,42.3009724522,-83.6979663511,272.227142334,6.4e-05,0.0,0.0,0.0,8.1e-05,0.0,0.0,0.0,0.002209,2
1668538077765177915,336840,1668538077847243694,gps,2,1,42.3009724147,-83.6979667131,272.226257324,6.4e-05,0.0,0.0,0.0,8.1e-05,0.0,0.0,0.0,0.002209,2
1668538077775239318,336841,1668538077857329180,gps,2,1,42.3009723774,-83.6979670769,272.225463867,6.4e-05,0.0,0.0,0.0,8.1e-05,0.0,0.0,0.0,0.002209,2
1668538077785196236,336842,1668538077867250677,gps,2,1,42.3009723404,-83.6979674372,272.224639893,6.4e-05,0.0,0.0,0.0,8.1e-05,0.0,0.0,0.0,0.002209,2
1668538077795300338,336843,1668538077877221240,gps,2,1,42.300972302,-83.6979678035,272.223754883,6.4e-05,0.0,0.0,0.0,8.1e-05,0.0,0.0,0.0,0.002209,2
1668538077805099815,336844,1668538077887225165,gps,2,1,42.3009722643,-83.6979681719,272.222961426,6.4e-05,0.0,0.0,0.0,8.1e-05,0.0,0.0,0.0,0.002209,2
1668538077815148420,336845,1668538077897292730,gps,2,1,42.3009722268,-83.6979685364,272.222137451,6.4e-05,0.0,0.0,0.0,8.1e-05,0.0,0.0,0.0,0.002209,2
1668538077825022919,336846,1668538077907242178,gps,2,1,42.300972188,-83.6979689071,272.221252441,6.4e-05,0.0,0.0,0.0,8.1e-05,0.0,0.0,0.0,0.002209,2
1668538077835002810,336847,1668538077917241589,gps,2,1,42.3009721499,-83.6979692798,272.220458984,6.4e-05,0.0,0.0,0.0,8.1e-05,0.0,0.0,0.0,0.002209,2
1668538077845175482,336848,1668538077927382051,gps,2,1,42.300972112,-83.6979696488,272.21963501,6.4e-05,0.0,0.0,0.0,8.1e-05,0.0,0.0,0.0,0.002209,2
1668538077855203588,336849,1668538077937231098,gps,2,1,42.3009720727,-83.6979700239,272.218780518,6.4e-05,0.0,0.0,0.0,8.1e-05,0.0,0.0,0.0,0.002209,2
1668538077865186381,336850,1668538077947302472,gps,2,1,42.3009720339,-83.6979704009,272.217956543,6.4e-05,0.0,0.0,0.0,8.1e-05,0.0,0.0,0.0,0.002209,2
1668538077875224923,336851,1668538077957234844,gps,2,1,42.3009719956,-83.6979707741,272.217163086,6.4e-05,0.0,0.0,0.0,8.1e-05,0.0,0.0,0.0,0.002209,2
1668538077885222807,336852,1668538077967262698,gps,2,1,42.3009719559,-83.6979711534,272.216308594,6.4e-05,0.0,0.0,0.0,8.1e-05,0.0,0.0,0.0,0.002209,2
1668538077895103367,336853,1668538077977301902,gps,2,1,42.3009719167,-83.6979715344,272.215515137,6.4e-05,0.0,0.0,0.0,8.1e-05,0.0,0.0,0.0,0.002209,2
1668538077905218769,336854,1668538077987258376,gps,2,1,42.3009718779,-83.6979719123,272.21472168,6.4e-05,0.0,0.0,0.0,8.1e-05,0.0,0.0,0.0,0.002209,2
1668538077915145289,336855,1668538077997351774,gps,2,1,42.3009718378,-83.6979722959,272.213867188,6.4e-05,0.0,0.0,0.0,8.1e-05,0.0,0.0,0.0,0.002209,2
1668538077925080834,336856,1668538078007378009,gps,2,1,42.3009717984,-83.697972682,272.213043213,6.4e-05,0.0,0.0,0.0,8.1e-05,0.0,0.0,0.0,0.002209,2
1668538077935030262,336857,1668538078017357976,gps,2,1,42.300971759,-83.6979730637,272.212280273,6.4e-05,0.0,0.0,0.0,8.1e-05,0.0,0.0,0.0,0.002209,2
1668538077945123685,336858,1668538078027337594,gps,2,1,42.3009717163,-83.697973452,272.211486816,6.4e-05,0.0,0.0,0.0,8.1e-05,0.0,0.0,0.0,0.002209,2
1668538077955149445,336859,1668538078037266046,gps,2,1,42.3009716762,-83.6979738408,272.210784912,6.4e-05,0.0,0.0,0.0,8.1e-05,0.0,0.0,0.0,0.002209,2
1668538077965443796,336860,1668538078047342928,gps,2,1,42.3009716369,-83.6979742286,272.20993042,6.4e-05,0.0,0.0,0.0,8.1e-05,0.0,0.0,0.0,0.002209,2
1668538077975346684,336861,1668538078057310401,gps,2,1,42.3009715935,-83.697974621,272.209197998,6.4e-05,0.0,0.0,0.0,8.1e-05,0.0,0.0,0.0,0.002209,2
1668538077985324524,336862,1668538078067309251,gps,2,1,42.3009715524,-83.697975015,272.208465576,6.4e-05,0.0,0.0,0.0,8.1e-05,0.0,0.0,0.0,0.002209,2
1668538077995381779,336863,1668538078077338508,gps,2,1,42.3009715127,-83.6979754039,272.207763672,6.4e-05,0.0,0.0,0.0,8.1e-05,0.0,0.0,0.0,0.002209,2
1668538078005409444,336864,1668538078087282343,gps,2,1,42.3009714688,-83.6979757997,272.207061768,6.4e-05,0.0,0.0,0.0,8.1e-05,0.0,0.0,0.0,0.002209,2
1668538078015343263,336865,1668538078097252869,gps,2,1,42.3009714279,-83.6979761961,272.206329346,6.4e-05,0.0,0.0,0.0,8.1e-05,0.0,0.0,0.0,0.002209,2
1668538078025211294,336866,1668538078107314514,gps,2,1,42.3009713862,-83.6979765911,272.205627441,6.4e-05,0.0,0.0,0.0,8.1e-05,0.0,0.0,0.0,0.002209,2
1668538078035065438,336867,1668538078117244623,gps,2,1,42.3009713423,-83.697976991,272.20489502,6.4e-05,0.0,0.0,0.0,8.1e-05,0.0,0.0,0.0,0.002209,2
1668538078045086498,336868,1668538078127246372,gps,2,1,42.3009713009,-83.697977392,272.204162598,6.4e-05,0.0,0.0,0.0,8.1e-05,0.0,0.0,0.0,0.002209,2
1668538078055379499,336869,1668538078137307954,gps,2,1,42.30097126,-83.6979777881,272.203430176,6.4e-05,0.0,0.0,0.0,8.1e-05,0.0,0.0,0.0,0.002209,2
1668538078065132987,336870,1668538078147225852,gps,2,1,42.3009712172,-83.6979781916,272.202667236,6.4e-05,0.0,0.0,0.0,8.1e-05,0.0,0.0,0.0,0.002209,2
1668538078075280918,336871,1668538078157248723,gps,2,1,42.3009711766,-83.6979785956,272.201873779,6.4e-05,0.0,0.0,0.0,8.1e-05,0.0,0.0,0.0,0.002209,2
1668538078085009237,336872,1668538078167287216,gps,2,1,42.3009711354,-83.6979789971,272.201141357,6.4e-05,0.0,0.0,0.0,8.1e-05,0.0,0.0,0.0,0.002209,2
1668538078094966560,336873,1668538078177330406,gps,2,1,42.3009710932,-83.6979794047,272.2003479,6.4e-05,0.0,0.0,0.0,8.1e-05,0.0,0.0,0.0,0.002209,2
1668538078105402690,336874,1668538078187249472,gps,2,1,42.3009710526,-83.6979798127,272.199493408,6.4e-05,0.0,0.0,0.0,8.1e-05,0.0,0.0,0.0,0.002209,2
1668538078115071261,336875,1668538078197304537,gps,2,1,42.3009710119,-83.6979802175,272.198699951,6.4e-05,0.0,0.0,0.0,8.1e-05,0.0,0.0,0.0,0.002209,2
1668538078125334278,336876,1668538078207251047,gps,2,1,42.3009709699,-83.6979806287,272.197814941,0.000121,0.0,0.0,0.0,0.000144,0.0,0.0,0.0,0.002304,2
1668538078135396780,336877,1668538078217301041,gps,2,1,42.3009709294,-83.6979810409,272.196929932,0.000121,0.0,0.0,0.0,0.000144,0.0,0.0,0.0,0.002304,2
1668538078145236938,336878,1668538078227240139,gps,2,1,42.3009708889,-83.6979814497,272.196075439,0.000121,0.0,0.0,0.0,0.000144,0.0,0.0,0.0,0.002304,2
1668538078155371652,336879,1668538078237241197,gps,2,1,42.3009708467,-83.6979818651,272.195159912,0.000121,0.0,0.0,0.0,0.000144,0.0,0.0,0.0,0.002304,2
1668538078165276782,336880,1668538078247376113,gps,2,1,42.3009708057,-83.6979822811,272.194213867,0.000121,0.0,0.0,0.0,0.000144,0.0,0.0,0.0,0.002304,2
1668538078175162676,336881,1668538078257321118,gps,2,1,42.300970765,-83.697982694,272.193328857,0.000121,0.0,0.0,0.0,0.000144,0.0,0.0,0.0,0.002304,2
1668538078185278501,336882,1668538078267237827,gps,2,1,42.3009707223,-83.6979831131,272.192352295,0.000121,0.0,0.0,0.0,0.000144,0.0,0.0,0.0,0.002304,2
1668538078195052517,336883,1668538078277238367,gps,2,1,42.3009706806,-83.6979835333,272.191314697,0.000121,0.0,0.0,0.0,0.000144,0.0,0.0,0.0,0.002304,2
1668538078205106306,336884,1668538078287321277,gps,2,1,42.3009706396,-83.6979839501,272.190338135,0.000121,0.0,0.0,0.0,0.000144,0.0,0.0,0.0,0.002304,2
1668538078215238247,336885,1668538078297232454,gps,2,1,42.3009705964,-83.6979843733,272.18927002,0.000121,0.0,0.0,0.0,0.000144,0.0,0.0,0.0,0.002304,2
1668538078225104177,336886,1668538078307232802,gps,2,1,42.3009705545,-83.6979847974,272.188110352,0.000121,0.0,0.0,0.0,0.000144,0.0,0.0,0.0,0.002304,2
1668538078235094314,336887,1668538078317348305,gps,2,1,42.3009705129,-83.6979852181,272.187042236,0.000121,0.0,0.0,0.0,0.000144,0.0,0.0,0.0,0.002304,2
1668538078244925847,336888,1668538078327262055,gps,2,1,42.3009704696,-83.6979856451,272.185821533,0.000121,0.0,0.0,0.0,0.000144,0.0,0.0,0.0,0.002304,2
1668538078254918588,336889,1668538078337235928,gps,2,1,42.3009704276,-83.6979860731,272.184570312,0.000121,0.0,0.0,0.0,0.000144,0.0,0.0,0.0,0.002304,2
1668538078265342952,336890,1668538078347309000,gps,2,1,42.3009703856,-83.6979864978,272.183380127,0.000121,0.0,0.0,0.0,0.000144,0.0,0.0,0.0,0.002304,2
1668538078275246398,336891,1668538078357240650,gps,2,1,42.3009703422,-83.6979869287,272.182128906,0.000121,0.0,0.0,0.0,0.000144,0.0,0.0,0.0,0.002304,2
1668538078285332288,336892,1668538078367262268,gps,2,1,42.3009703002,-83.6979873607,272.180877686,0.000121,0.0,0.0,0.0,0.000144,0.0,0.0,0.0,0.002304,2
1668538078295134560,336893,1668538078377318168,gps,2,1,42.3009702581,-83.6979877892,272.179626465,0.000121,0.0,0.0,0.0,0.000144,0.0,0.0,0.0,0.002304,2
1668538078305220107,336894,1668538078387263996,gps,2,1,42.3009702144,-83.6979882241,272.178375244,0.000121,0.0,0.0,0.0,0.000144,0.0,0.0,0.0,0.002304,2
1668538078315143814,336895,1668538078397254990,gps,2,1,42.3009701721,-83.6979886599,272.177154541,0.000121,0.0,0.0,0.0,0.000144,0.0,0.0,0.0,0.002304,2
1668538078325115695,336896,1668538078407331854,gps,2,1,42.3009701301,-83.6979890926,272.175872803,0.000121,0.0,0.0,0.0,0.000144,0.0,0.0,0.0,0.002304,2
1668538078335261872,336897,1668538078417240528,gps,2,1,42.3009700862,-83.6979895314,272.1746521,0.000121,0.0,0.0,0.0,0.000144,0.0,0.0,0.0,0.002304,2
1668538078345104028,336898,1668538078427343491,gps,2,1,42.3009700437,-83.6979899709,272.173492432,0.000121,0.0,0.0,0.0,0.000144,0.0,0.0,0.0,0.002304,2
1668538078355310709,336899,1668538078437295433,gps,2,1,42.3009700014,-83.6979904072,272.172271729,0.000121,0.0,0.0,0.0,0.000144,0.0,0.0,0.0,0.002304,2
1668538078365120665,336900,1668538078447227488,gps,2,1,42.3009699573,-83.6979908496,272.171112061,0.000121,0.0,0.0,0.0,0.000144,0.0,0.0,0.0,0.002304,2
1668538078375100215,336901,1668538078457242559,gps,2,1,42.3009699143,-83.6979912929,272.16998291,0.000121,0.0,0.0,0.0,0.000144,0.0,0.0,0.0,0.002304,2
1668538078384929193,336902,1668538078467304821,gps,2,1,42.3009698719,-83.6979917329,272.168823242,0.000121,0.0,0.0,0.0,0.000144,0.0,0.0,0.0,0.002304,2
1668538078395031514,336903,1668538078477239865,gps,2,1,42.3009698274,-83.6979921788,272.167663574,0.000121,0.0,0.0,0.0,0.000144,0.0,0.0,0.0,0.002304,2
1668538078405443620,336904,1668538078487242348,gps,2,1,42.3009697843,-83.6979926254,272.166564941,0.000121,0.0,0.0,0.0,0.000144,0.0,0.0,0.0,0.002304,2
1668538078415344908,336905,1668538078497465538,gps,2,1,42.3009697413,-83.6979930694,272.165435791,0.000121,0.0,0.0,0.0,0.000144,0.0,0.0,0.0,0.002304,2
1668538078425369805,336906,1668538078507295891,gps,2,1,42.3009696968,-83.6979935188,272.164337158,0.000121,0.0,0.0,0.0,0.000144,0.0,0.0,0.0,0.002304,2
1668538078435107374,336907,1668538078517302813,gps,2,1,42.3009696536,-83.697993969,272.163299561,0.000121,0.0,0.0,0.0,0.000144,0.0,0.0,0.0,0.002304,2
1668538078445208423,336908,1668538078527372680,gps,2,1,42.3009696104,-83.6979944162,272.162231445,0.000121,0.0,0.0,0.0,0.000144,0.0,0.0,0.0,0.002304,2
1668538078455210035,336909,1668538078537269676,gps,2,1,42.3009695726,-83.6979948734,272.161132812,0.000121,0.0,0.0,0.0,0.000144,0.0,0.0,0.0,0.002304,2
1668538078465226640,336910,1668538078547336131,gps,2,1,42.3009695297,-83.6979953273,272.16015625,0.000121,0.0,0.0,0.0,0.000144,0.0,0.0,0.0,0.002304,2
1668538078475187245,336911,1668538078557378294,gps,2,1,42.3009694867,-83.697995778,272.159118652,0.000121,0.0,0.0,0.0,0.000144,0.0,0.0,0.0,0.002304,2
1668538078485072087,336912,1668538078567250579,gps,2,1,42.3009694489,-83.6979962387,272.158081055,0.000121,0.0,0.0,0.0,0.000144,0.0,0.0,0.0,0.002304,2
1668538078495185702,336913,1668538078577234237,gps,2,1,42.3009694062,-83.6979966959,272.15713501,0.000121,0.0,0.0,0.0,0.000144,0.0,0.0,0.0,0.002304,2
1668538078505184076,336914,1668538078587305360,gps,2,1,42.3009693632,-83.6979971502,272.156158447,0.000121,0.0,0.0,0.0,0.000144,0.0,0.0,0.0,0.002304,2
1668538078515220796,336915,1668538078597247076,gps,2,1,42.3009693255,-83.697997614,272.15512085,0.000121,0.0,0.0,0.0,0.000144,0.0,0.0,0.0,0.002304,2
1668538078525024087,336916,1668538078607253187,gps,2,1,42.3009692827,-83.6979980743,272.154205322,0.000121,0.0,0.0,0.0,0.000144,0.0,0.0,0.0,0.002304,2
1668538078535021367,336917,1668538078617316495,gps,2,1,42.3009692398,-83.697998532,272.153259277,0.000121,0.0,0.0,0.0,0.000144,0.0,0.0,0.0,0.002304,2
1668538078545356916,336918,1668538078627252816,gps,2,1,42.300969202,-83.6979989988,272.152282715,0.000121,0.0,0.0,0.0,0.000144,0.0,0.0,0.0,0.002304,2
1668538078555354442,336919,1668538078637250815,gps,2,1,42.3009691593,-83.6979994628,272.15133667,0.000121,0.0,0.0,0.0,0.000144,0.0,0.0,0.0,0.002304,2
1668538078565409535,336920,1668538078647310192,gps,2,1,42.3009691167,-83.6979999236,272.150421143,0.000121,0.0,0.0,0.0,0.000144,0.0,0.0,0.0,0.002304,2
1668538078575178584,336921,1668538078657238206,gps,2,1,42.3009690786,-83.6980003938,272.149414062,0.000121,0.0,0.0,0.0,0.000144,0.0,0.0,0.0,0.002304,2
1668538078585279574,336922,1668538078667256051,gps,2,1,42.3009690359,-83.6980008613,272.148498535,0.000121,0.0,0.0,0.0,0.000144,0.0,0.0,0.0,0.002304,2
1668538078595234530,336923,1668538078677396002,gps,2,1,42.3009689933,-83.6980013258,272.14755249,0.000121,0.0,0.0,0.0,0.000144,0.0,0.0,0.0,0.002304,2
1668538078605179736,336924,1668538078687254807,gps,2,1,42.3009689549,-83.6980017992,272.146575928,0.000121,0.0,0.0,0.0,0.000144,0.0,0.0,0.0,0.002304,2
1668538078615143484,336925,1668538078697253662,gps,2,1,42.3009689119,-83.6980022698,272.1456604,0.000121,0.0,0.0,0.0,0.000144,0.0,0.0,0.0,0.002304,2
1668538078625109854,336926,1668538078707308021,gps,2,1,42.3009688691,-83.6980027378,272.144714355,0.000121,0.0,0.0,0.0,0.000144,0.0,0.0,0.0,0.002304,2
1668538078635242046,336927,1668538078717229748,gps,2,1,42.3009688301,-83.6980032142,272.143737793,0.000121,0.0,0.0,0.0,0.000144,0.0,0.0,0.0,0.002304,2
1668538078645124017,336928,1668538078727251511,gps,2,1,42.3009687864,-83.6980036881,272.142852783,0.000121,0.0,0.0,0.0,0.000144,0.0,0.0,0.0,0.002304,2
1668538078655264804,336929,1668538078737332905,gps,2,1,42.300968743,-83.6980041592,272.141906738,0.000121,0.0,0.0,0.0,0.000144,0.0,0.0,0.0,0.002304,2
1668538078665026902,336930,1668538078747338528,gps,2,1,42.3009687033,-83.6980046388,272.140991211,0.000121,0.0,0.0,0.0,0.000144,0.0,0.0,0.0,0.002304,2
1668538078675024968,336931,1668538078757277381,gps,2,1,42.3009686588,-83.698005116,272.140075684,0.000121,0.0,0.0,0.0,0.000144,0.0,0.0,0.0,0.002304,2
1668538078685355606,336932,1668538078767298341,gps,2,1,42.3009686149,-83.6980055902,272.139160156,0.000121,0.0,0.0,0.0,0.000144,0.0,0.0,0.0,0.002304,2
1668538078695227521,336933,1668538078777247923,gps,2,1,42.3009685744,-83.6980060726,272.138214111,0.000121,0.0,0.0,0.0,0.000144,0.0,0.0,0.0,0.002304,2
1668538078705385902,336934,1668538078787252060,gps,2,1,42.3009685292,-83.6980065524,272.137268066,0.000121,0.0,0.0,0.0,0.000144,0.0,0.0,0.0,0.002304,2
1668538078715292282,336935,1668538078797309447,gps,2,1,42.3009684848,-83.6980070299,272.136291504,0.000121,0.0,0.0,0.0,0.000144,0.0,0.0,0.0,0.002304,2
1668538078725210190,336936,1668538078807248796,gps,2,1,42.3009684436,-83.6980075153,272.135284424,0.000121,0.0,0.0,0.0,0.000144,0.0,0.0,0.0,0.002304,2
1668538078735214017,336937,1668538078817258819,gps,2,1,42.3009683979,-83.6980079985,272.134338379,0.000121,0.0,0.0,0.0,0.000144,0.0,0.0,0.0,0.002304,2
1668538078745127965,336938,1668538078827300322,gps,2,1,42.3009683525,-83.6980084778,272.133361816,0.000121,0.0,0.0,0.0,0.000144,0.0,0.0,0.0,0.002304,2
1668538078755060277,336939,1668538078837236547,gps,2,1,42.3009683103,-83.6980089654,272.132415771,0.000121,0.0,0.0,0.0,0.000144,0.0,0.0,0.0,0.002304,2
1668538078765096752,336940,1668538078847243507,gps,2,1,42.3009682625,-83.6980094504,272.131530762,0.000121,0.0,0.0,0.0,0.000144,0.0,0.0,0.0,0.002304,2
1668538078775225238,336941,1668538078857300700,gps,2,1,42.3009682165,-83.6980099336,272.130584717,0.000121,0.0,0.0,0.0,0.000144,0.0,0.0,0.0,0.002304,2
1668538078785016975,336942,1668538078867247772,gps,2,1,42.3009681725,-83.6980104239,272.129730225,0.000121,0.0,0.0,0.0,0.000144,0.0,0.0,0.0,0.002304,2
1668538078795129354,336943,1668538078877226095,gps,2,1,42.3009681238,-83.6980109118,272.128967285,0.000121,0.0,0.0,0.0,0.000144,0.0,0.0,0.0,0.002304,2
1668538078805075640,336944,1668538078887349290,gps,2,1,42.3009680766,-83.6980113975,272.128112793,0.000121,0.0,0.0,0.0,0.000144,0.0,0.0,0.0,0.002304,2
1668538078815157590,336945,1668538078897261908,gps,2,1,42.3009680317,-83.6980118904,272.127349854,0.000121,0.0,0.0,0.0,0.000144,0.0,0.0,0.0,0.002304,2
1668538078824878860,336946,1668538078907254311,gps,2,1,42.3009679835,-83.6980123814,272.126556396,0.000121,0.0,0.0,0.0,0.000144,0.0,0.0,0.0,0.002304,2
1668538078835321805,336947,1668538078917304009,gps,2,1,42.3009679358,-83.6980128698,272.125732422,0.000121,0.0,0.0,0.0,0.000144,0.0,0.0,0.0,0.002304,2
1668538078845263992,336948,1668538078927326150,gps,2,1,42.3009678906,-83.6980133656,272.124938965,0.000121,0.0,0.0,0.0,0.000144,0.0,0.0,0.0,0.002304,2
1668538078854981690,336949,1668538078937249417,gps,2,1,42.3009678423,-83.69801386,272.124176025,0.000121,0.0,0.0,0.0,0.000144,0.0,0.0,0.0,0.002304,2
1668538078865322921,336950,1668538078947303564,gps,2,1,42.3009677944,-83.6980143518,272.123413086,0.000121,0.0,0.0,0.0,0.000144,0.0,0.0,0.0,0.002304,2
1668538078875063572,336951,1668538078957243149,gps,2,1,42.3009677489,-83.6980148508,272.122589111,0.000121,0.0,0.0,0.0,0.000144,0.0,0.0,0.0,0.002304,2
1668538078885226898,336952,1668538078967263372,gps,2,1,42.3009677003,-83.6980153481,272.121704102,0.000121,0.0,0.0,0.0,0.000144,0.0,0.0,0.0,0.002304,2
1668538078895114624,336953,1668538078977310307,gps,2,1,42.3009676518,-83.6980158427,272.120880127,0.000121,0.0,0.0,0.0,0.000144,0.0,0.0,0.0,0.002304,2
1668538078905156402,336954,1668538078987255066,gps,2,1,42.3009676062,-83.6980163445,272.1199646,0.000121,0.0,0.0,0.0,0.000144,0.0,0.0,0.0,0.002304,2
1668538078915297860,336955,1668538078997375835,gps,2,1,42.3009675573,-83.6980168449,272.11895752,0.000121,0.0,0.0,0.0,0.000144,0.0,0.0,0.0,0.002304,2
1668538078925054813,336956,1668538079007370769,gps,2,1,42.3009675087,-83.6980173425,272.11807251,0.000121,0.0,0.0,0.0,0.000144,0.0,0.0,0.0,0.002304,2
1668538078935161527,336957,1668538079017365478,gps,2,1,42.3009674626,-83.6980178472,272.117004395,0.000121,0.0,0.0,0.0,0.000144,0.0,0.0,0.0,0.002304,2
1668538078944974380,336958,1668538079027335372,gps,2,1,42.3009674134,-83.6980183507,272.115875244,0.000121,0.0,0.0,0.0,0.000144,0.0,0.0,0.0,0.002304,2
1668538078955157096,336959,1668538079037306179,gps,2,1,42.3009673649,-83.6980188514,272.114837646,0.000121,0.0,0.0,0.0,0.000144,0.0,0.0,0.0,0.002304,2
1668538078965380376,336960,1668538079047346615,gps,2,1,42.3009673214,-83.6980193595,272.113708496,0.000121,0.0,0.0,0.0,0.000144,0.0,0.0,0.0,0.002304,2
1668538078975326426,336961,1668538079057276520,gps,2,1,42.3009672723,-83.6980198657,272.11239624,0.000121,0.0,0.0,0.0,0.000144,0.0,0.0,0.0,0.002304,2
1668538078985407563,336962,1668538079067365413,gps,2,1,42.3009672231,-83.6980203698,272.111236572,0.000121,0.0,0.0,0.0,0.000144,0.0,0.0,0.0,0.002304,2
1668538078995160082,336963,1668538079077377096,gps,2,1,42.3009671795,-83.6980208806,272.109954834,0.000121,0.0,0.0,0.0,0.000144,0.0,0.0,0.0,0.002304,2
1668538079005230129,336964,1668538079087293813,gps,2,1,42.3009671303,-83.6980213898,272.10848999,0.000121,0.0,0.0,0.0,0.000144,0.0,0.0,0.0,0.002304,2
1668538079015198981,336965,1668538079097322846,gps,2,1,42.3009670812,-83.6980218965,272.107177734,0.000121,0.0,0.0,0.0,0.000144,0.0,0.0,0.0,0.002304,2
1668538079025151275,336966,1668538079107264032,gps,2,1,42.3009670373,-83.6980224103,272.105712891,0.000121,0.0,0.0,0.0,0.000144,0.0,0.0,0.0,0.002304,2
1668538079034990221,336967,1668538079117275523,gps,2,1,42.3009669881,-83.6980229225,272.104095459,0.000121,0.0,0.0,0.0,0.000144,0.0,0.0,0.0,0.002304,2
1668538079045057761,336968,1668538079127327630,gps,2,1,42.3009669391,-83.6980234321,272.102630615,0.000121,0.0,0.0,0.0,0.000144,0.0,0.0,0.0,0.002304,2
1668538079055070359,336969,1668538079137256565,gps,2,1,42.300966896,-83.698023949,272.101043701,0.000121,0.0,0.0,0.0,0.000144,0.0,0.0,0.0,0.002304,2
1668538079065082227,336970,1668538079147320050,gps,2,1,42.3009668468,-83.6980244641,272.099365234,0.000121,0.0,0.0,0.0,0.000144,0.0,0.0,0.0,0.002304,2
1668538079075284005,336971,1668538079157298992,gps,2,1,42.3009667977,-83.6980249769,272.097747803,0.000121,0.0,0.0,0.0,0.000144,0.0,0.0,0.0,0.002304,2
1668538079085035689,336972,1668538079167238224,gps,2,1,42.3009667545,-83.6980254967,272.096130371,0.000121,0.0,0.0,0.0,0.000144,0.0,0.0,0.0,0.002304,2
1668538079094991133,336973,1668538079177396879,gps,2,1,42.3009667054,-83.6980260147,272.094421387,0.000121,0.0,0.0,0.0,0.000144,0.0,0.0,0.0,0.002304,2
1668538079104889102,336974,1668538079187270616,gps,2,1,42.300966656,-83.6980265305,272.092773438,0.000121,0.0,0.0,0.0,0.000144,0.0,0.0,0.0,0.002304,2
1668538079115234351,336975,1668538079197264308,gps,2,1,42.3009666128,-83.698027053,272.091125488,0.000121,0.0,0.0,0.0,0.000144,0.0,0.0,0.0,0.002304,2
1668538079125014399,336976,1668538079207267570,gps,2,1,42.3009665638,-83.6980275741,272.089477539,0.000121,0.0,0.0,0.0,0.000225,0.0,0.0,0.0,0.002304,2
1668538079135392462,336977,1668538079217309345,gps,2,1,42.3009665145,-83.6980280928,272.08782959,0.000121,0.0,0.0,0.0,0.000225,0.0,0.0,0.0,0.002304,2
1668538079145251441,336978,1668538079227242136,gps,2,1,42.3009664709,-83.6980286184,272.086212158,0.000121,0.0,0.0,0.0,0.000225,0.0,0.0,0.0,0.002304,2
1668538079155082503,336979,1668538079237267038,gps,2,1,42.3009664214,-83.6980291426,272.084564209,0.000121,0.0,0.0,0.0,0.000225,0.0,0.0,0.0,0.002304,2
1668538079165212235,336980,1668538079247414873,gps,2,1,42.3009663724,-83.6980296642,272.082946777,0.000121,0.0,0.0,0.0,0.000225,0.0,0.0,0.0,0.002304,2
1668538079175087787,336981,1668538079257269757,gps,2,1,42.3009663283,-83.6980301926,272.081329346,0.000121,0.0,0.0,0.0,0.000225,0.0,0.0,0.0,0.002304,2
1668538079185139892,336982,1668538079267302459,gps,2,1,42.3009662785,-83.6980307196,272.079711914,0.000121,0.0,0.0,0.0,0.000225,0.0,0.0,0.0,0.002304,2
1668538079195097547,336983,1668538079277243325,gps,2,1,42.3009662289,-83.6980312444,272.078094482,0.000121,0.0,0.0,0.0,0.000225,0.0,0.0,0.0,0.002304,2
1668538079205089438,336984,1668538079287285259,gps,2,1,42.3009661844,-83.6980317757,272.076507568,0.000121,0.0,0.0,0.0,0.000225,0.0,0.0,0.0,0.002304,2
1668538079215026784,336985,1668538079297320504,gps,2,1,42.3009661341,-83.6980323058,272.074981689,0.000121,0.0,0.0,0.0,0.000225,0.0,0.0,0.0,0.002304,2
1668538079225072491,336986,1668538079307248759,gps,2,1,42.3009660844,-83.6980328331,272.073364258,0.000121,0.0,0.0,0.0,0.000225,0.0,0.0,0.0,0.002304,2
1668538079234869754,336987,1668538079317248851,gps,2,1,42.3009660393,-83.6980333672,272.071868896,0.000121,0.0,0.0,0.0,0.000225,0.0,0.0,0.0,0.002304,2
1668538079245114668,336988,1668538079327304867,gps,2,1,42.3009659888,-83.6980339001,272.070343018,0.000121,0.0,0.0,0.0,0.000225,0.0,0.0,0.0,0.002304,2
1668538079254882600,336989,1668538079337254863,gps,2,1,42.3009659387,-83.6980344308,272.068756104,0.000121,0.0,0.0,0.0,0.000225,0.0,0.0,0.0,0.002304,2
1668538079265411867,336990,1668538079347247685,gps,2,1,42.3009658934,-83.6980349679,272.067230225,0.000121,0.0,0.0,0.0,0.000225,0.0,0.0,0.0,0.002304,2
1668538079275485838,336991,1668538079357282174,gps,2,1,42.3009658427,-83.6980355038,272.065612793,0.000121,0.0,0.0,0.0,0.000225,0.0,0.0,0.0,0.002304,2
1668538079285174240,336992,1668538079367321541,gps,2,1,42.3009657924,-83.6980360373,272.064117432,0.000121,0.0,0.0,0.0,0.000225,0.0,0.0,0.0,0.002304,2
1668538079295163266,336993,1668538079377258638,gps,2,1,42.3009657459,-83.6980365767,272.062530518,0.000121,0.0,0.0,0.0,0.000225,0.0,0.0,0.0,0.002304,2
1668538079305134892,336994,1668538079387298082,gps,2,1,42.3009656947,-83.6980371151,272.060882568,0.000121,0.0,0.0,0.0,0.000225,0.0,0.0,0.0,0.002304,2
1668538079315194812,336995,1668538079397367835,gps,2,1,42.3009656441,-83.6980376516,272.059295654,0.000121,0.0,0.0,0.0,0.000225,0.0,0.0,0.0,0.002304,2
1668538079325082571,336996,1668538079407281492,gps,2,1,42.3009655967,-83.6980381937,272.057678223,0.000121,0.0,0.0,0.0,0.000225,0.0,0.0,0.0,0.002304,2
1668538079335152898,336997,1668538079417342208,gps,2,1,42.3009655446,-83.6980387352,272.056091309,0.000121,0.0,0.0,0.0,0.000225,0.0,0.0,0.0,0.002304,2
1668538079345025055,336998,1668538079427332448,gps,2,1,42.3009654933,-83.698039274,272.054443359,0.000121,0.0,0.0,0.0,0.000225,0.0,0.0,0.0,0.002304,2
1668538079355079020,336999,1668538079437247664,gps,2,1,42.3009654448,-83.698039819,272.053009033,0.000121,0.0,0.0,0.0,0.000225,0.0,0.0,0.0,0.002304,2
1668538079365183403,337000,1668538079447301950,gps,2,1,42.3009653916,-83.6980403632,272.051452637,0.000121,0.0,0.0,0.0,0.000225,0.0,0.0,0.0,0.002304,2
1668538079374883669,337001,1668538079457251443,gps,2,1,42.3009653393,-83.6980409051,272.049835205,0.000121,0.0,0.0,0.0,0.000225,0.0,0.0,0.0,0.002304,2
1668538079384929781,337002,1668538079467294227,gps,2,1,42.3009652897,-83.6980414529,272.048431396,0.000121,0.0,0.0,0.0,0.000225,0.0,0.0,0.0,0.002304,2
1668538079394905755,337003,1668538079477328273,gps,2,1,42.3009652354,-83.698042,272.046905518,0.000121,0.0,0.0,0.0,0.000225,0.0,0.0,0.0,0.002304,2
1668538079405272146,337004,1668538079487263002,gps,2,1,42.3009651821,-83.6980425447,272.045318604,0.000121,0.0,0.0,0.0,0.000225,0.0,0.0,0.0,0.002304,2
1668538079415225399,337005,1668538079497385054,gps,2,1,42.3009651315,-83.6980430955,272.04397583,0.000121,0.0,0.0,0.0,0.000225,0.0,0.0,0.0,0.002304,2
1668538079425398015,337006,1668538079507316703,gps,2,1,42.3009650765,-83.6980436457,272.042541504,0.000121,0.0,0.0,0.0,0.000225,0.0,0.0,0.0,0.002304,2
1668538079435183130,337007,1668538079517373597,gps,2,1,42.3009650223,-83.6980441933,272.041015625,0.000121,0.0,0.0,0.0,0.000225,0.0,0.0,0.0,0.002304,2
1668538079445024398,337008,1668538079527278651,gps,2,1,42.3009649708,-83.6980447468,272.039703369,0.000121,0.0,0.0,0.0,0.000225,0.0,0.0,0.0,0.002304,2
1668538079455116306,337009,1668538079537311758,gps,2,1,42.3009649153,-83.6980452998,272.038299561,0.000121,0.0,0.0,0.0,0.000225,0.0,0.0,0.0,0.002304,2
1668538079465203276,337010,1668538079547390234,gps,2,1,42.3009648602,-83.6980458507,272.036834717,0.000121,0.0,0.0,0.0,0.000225,0.0,0.0,0.0,0.002304,2
1668538079475114678,337011,1668538079557275085,gps,2,1,42.3009648117,-83.6980464061,272.035461426,0.000121,0.0,0.0,0.0,0.000225,0.0,0.0,0.0,0.002304,2
1668538079484986501,337012,1668538079567272604,gps,2,1,42.3009647556,-83.6980469621,272.034057617,0.000121,0.0,0.0,0.0,0.000225,0.0,0.0,0.0,0.002304,2
1668538079494987409,337013,1668538079577306619,gps,2,1,42.3009646999,-83.6980475156,272.032592773,0.000121,0.0,0.0,0.0,0.000225,0.0,0.0,0.0,0.002304,2
1668538079505041429,337014,1668538079587249102,gps,2,1,42.3009646506,-83.6980480737,272.031188965,0.000121,0.0,0.0,0.0,0.000225,0.0,0.0,0.0,0.002304,2
1668538079514942884,337015,1668538079597293314,gps,2,1,42.3009645936,-83.6980486322,272.029693604,0.000121,0.0,0.0,0.0,0.000225,0.0,0.0,0.0,0.002304,2
1668538079525054784,337016,1668538079607322484,gps,2,1,42.3009645374,-83.6980491888,272.028289795,0.000121,0.0,0.0,0.0,0.000225,0.0,0.0,0.0,0.002304,2
1668538079534923965,337017,1668538079617241687,gps,2,1,42.3009644872,-83.6980497496,272.026794434,0.000121,0.0,0.0,0.0,0.000225,0.0,0.0,0.0,0.002304,2
1668538079545274163,337018,1668538079627322150,gps,2,1,42.3009644296,-83.6980503108,272.025299072,0.000121,0.0,0.0,0.0,0.000225,0.0,0.0,0.0,0.002304,2
1668538079555266166,337019,1668538079637249876,gps,2,1,42.3009643728,-83.6980508694,272.023834229,0.000121,0.0,0.0,0.0,0.000225,0.0,0.0,0.0,0.002304,2
1668538079564867938,337020,1668538079647237840,gps,2,1,42.3009643219,-83.6980514327,272.022369385,0.000121,0.0,0.0,0.0,0.000225,0.0,0.0,0.0,0.002304,2
1668538079575342555,337021,1668538079657240430,gps,2,1,42.3009642641,-83.6980519963,272.020874023,0.000121,0.0,0.0,0.0,0.000225,0.0,0.0,0.0,0.002304,2
1668538079585126566,337022,1668538079667317714,gps,2,1,42.3009642068,-83.6980525579,272.019378662,0.000121,0.0,0.0,0.0,0.000225,0.0,0.0,0.0,0.002304,2
1668538079595082047,337023,1668538079677345624,gps,2,1,42.3009641554,-83.6980531239,272.017913818,0.000121,0.0,0.0,0.0,0.000225,0.0,0.0,0.0,0.002304,2
1668538079605093223,337024,1668538079687270750,gps,2,1,42.3009640977,-83.6980536903,272.016418457,0.000121,0.0,0.0,0.0,0.000225,0.0,0.0,0.0,0.002304,2
1668538079615124449,337025,1668538079697334962,gps,2,1,42.3009640399,-83.698054254,272.014953613,0.000121,0.0,0.0,0.0,0.000225,0.0,0.0,0.0,0.002304,2
1668538079625098506,337026,1668538079707256455,gps,2,1,42.3009639882,-83.6980548223,272.013458252,0.000121,0.0,0.0,0.0,0.000225,0.0,0.0,0.0,0.002304,2
1668538079635055533,337027,1668538079717279428,gps,2,1,42.3009639301,-83.6980553908,272.011932373,0.000121,0.0,0.0,0.0,0.000225,0.0,0.0,0.0,0.002304,2
1668538079645079786,337028,1668538079727316766,gps,2,1,42.3009638721,-83.6980559575,272.010467529,0.000121,0.0,0.0,0.0,0.000225,0.0,0.0,0.0,0.002304,2
1668538079654903670,337029,1668538079737257591,gps,2,1,42.3009638198,-83.6980565283,272.009002686,0.000121,0.0,0.0,0.0,0.000225,0.0,0.0,0.0,0.002304,2
1668538079665359423,337030,1668538079747355227,gps,2,1,42.300963761,-83.698057099,272.007537842,0.000121,0.0,0.0,0.0,0.000225,0.0,0.0,0.0,0.002304,2
1668538079675333350,337031,1668538079757327672,gps,2,1,42.3009637029,-83.6980576676,272.006072998,0.000121,0.0,0.0,0.0,0.000225,0.0,0.0,0.0,0.002304,2
1668538079684772997,337032,1668538079767254086,gps,2,1,42.3009636498,-83.6980582402,272.004730225,0.000121,0.0,0.0,0.0,0.000225,0.0,0.0,0.0,0.002304,2
1668538079695177694,337033,1668538079777256171,gps,2,1,42.3009635906,-83.6980588127,272.003417969,0.000121,0.0,0.0,0.0,0.000225,0.0,0.0,0.0,0.002304,2
1668538079705355091,337034,1668538079787315759,gps,2,1,42.300963532,-83.6980593837,272.001983643,0.000121,0.0,0.0,0.0,0.000225,0.0,0.0,0.0,0.002304,2
1668538079715362196,337035,1668538079797257874,gps,2,1,42.3009634783,-83.6980599586,272.000732422,0.000121,0.0,0.0,0.0,0.000225,0.0,0.0,0.0,0.002304,2
1668538079725123881,337036,1668538079807259276,gps,2,1,42.3009634186,-83.6980605335,271.999542236,0.000121,0.0,0.0,0.0,0.000225,0.0,0.0,0.0,0.002304,2
1668538079735133405,337037,1668538079817322031,gps,2,1,42.3009633595,-83.6980611063,271.99822998,0.000121,0.0,0.0,0.0,0.000225,0.0,0.0,0.0,0.002304,2
1668538079745006183,337038,1668538079827260944,gps,2,1,42.3009633051,-83.6980616831,271.99710083,0.000121,0.0,0.0,0.0,0.000225,0.0,0.0,0.0,0.002304,2
1668538079755089153,337039,1668538079837253145,gps,2,1,42.3009632452,-83.69806226,271.996063232,0.000121,0.0,0.0,0.0,0.000225,0.0,0.0,0.0,0.002304,2
1668538079765093614,337040,1668538079847296984,gps,2,1,42.3009631857,-83.6980628354,271.994903564,0.000121,0.0,0.0,0.0,0.000225,0.0,0.0,0.0,0.002304,2
1668538079775035037,337041,1668538079857248910,gps,2,1,42.3009631311,-83.6980634143,271.99395752,0.000121,0.0,0.0,0.0,0.000225,0.0,0.0,0.0,0.002304,2
1668538079785033301,337042,1668538079867344502,gps,2,1,42.3009630714,-83.6980639931,271.993041992,0.000121,0.0,0.0,0.0,0.000225,0.0,0.0,0.0,0.002304,2
1668538079794978700,337043,1668538079877236223,gps,2,1,42.3009630116,-83.6980645704,271.992034912,0.000121,0.0,0.0,0.0,0.000225,0.0,0.0,0.0,0.002304,2
1668538079804973460,337044,1668538079887252945,gps,2,1,42.3009629572,-83.6980651516,271.99118042,0.000121,0.0,0.0,0.0,0.000225,0.0,0.0,0.0,0.002304,2
1668538079815303865,337045,1668538079897320971,gps,2,1,42.3009628977,-83.6980657329,271.990356445,0.000121,0.0,0.0,0.0,0.000225,0.0,0.0,0.0,0.002304,2
1668538079824789611,337046,1668538079907273592,gps,2,1,42.3009628378,-83.6980663121,271.989501953,0.000121,0.0,0.0,0.0,0.000225,0.0,0.0,0.0,0.002304,2
1668538079835226682,337047,1668538079917256682,gps,2,1,42.3009627835,-83.6980668955,271.988739014,0.000121,0.0,0.0,0.0,0.000225,0.0,0.0,0.0,0.002304,2
1668538079845080868,337048,1668538079927351370,gps,2,1,42.3009627238,-83.6980674787,271.987976074,0.000121,0.0,0.0,0.0,0.000225,0.0,0.0,0.0,0.002304,2
1668538079855130830,337049,1668538079937317938,gps,2,1,42.3009626637,-83.6980680605,271.9871521,0.000121,0.0,0.0,0.0,0.000225,0.0,0.0,0.0,0.002304,2
1668538079865017387,337050,1668538079947255772,gps,2,1,42.3009626093,-83.6980686459,271.986450195,0.000121,0.0,0.0,0.0,0.000225,0.0,0.0,0.0,0.002304,2
1668538079875168844,337051,1668538079957244408,gps,2,1,42.3009625495,-83.6980692314,271.985748291,0.000121,0.0,0.0,0.0,0.000225,0.0,0.0,0.0,0.002304,2
1668538079885172579,337052,1668538079967316700,gps,2,1,42.3009624896,-83.6980698149,271.985015869,0.000121,0.0,0.0,0.0,0.000225,0.0,0.0,0.0,0.002304,2
1668538079895009066,337053,1668538079977268928,gps,2,1,42.3009624355,-83.6980704022,271.984375,0.000121,0.0,0.0,0.0,0.000225,0.0,0.0,0.0,0.002304,2
1668538079905062012,337054,1668538079987261308,gps,2,1,42.3009623761,-83.6980709897,271.983703613,0.000121,0.0,0.0,0.0,0.000225,0.0,0.0,0.0,0.002304,2
1668538079915607037,337055,1668538079997477157,gps,2,1,42.3009623168,-83.6980715755,271.983032227,0.000121,0.0,0.0,0.0,0.000225,0.0,0.0,0.0,0.002304,2
1668538079925030136,337056,1668538080007321917,gps,2,1,42.3009622636,-83.6980721651,271.982452393,0.000121,0.0,0.0,0.0,0.000225,0.0,0.0,0.0,0.002304,2
1668538079934984285,337057,1668538080017351459,gps,2,1,42.3009622047,-83.6980727544,271.981750488,0.000121,0.0,0.0,0.0,0.000225,0.0,0.0,0.0,0.002304,2
1668538079944982910,337058,1668538080027341943,gps,2,1,42.3009621457,-83.6980733424,271.981079102,0.000121,0.0,0.0,0.0,0.000225,0.0,0.0,0.0,0.002304,2
1668538079954919864,337059,1668538080037316904,gps,2,1,42.3009620927,-83.6980739338,271.98046875,0.000121,0.0,0.0,0.0,0.000225,0.0,0.0,0.0,0.002304,2
1668538079965437819,337060,1668538080047336970,gps,2,1,42.3009620344,-83.6980745254,271.979705811,0.000121,0.0,0.0,0.0,0.000225,0.0,0.0,0.0,0.002304,2
1668538079975308901,337061,1668538080057318608,gps,2,1,42.3009619755,-83.6980751152,271.978973389,0.000121,0.0,0.0,0.0,0.000225,0.0,0.0,0.0,0.002304,2
1668538079985312179,337062,1668538080067302726,gps,2,1,42.3009619227,-83.6980757087,271.978302002,0.000121,0.0,0.0,0.0,0.000225,0.0,0.0,0.0,0.002304,2
1668538079995168316,337063,1668538080077361699,gps,2,1,42.3009618647,-83.6980763021,271.977478027,0.000121,0.0,0.0,0.0,0.000225,0.0,0.0,0.0,0.002304,2
1668538080005169779,337064,1668538080087367646,gps,2,1,42.3009618062,-83.6980768945,271.97668457,0.000121,0.0,0.0,0.0,0.000225,0.0,0.0,0.0,0.002304,2
1668538080015056283,337065,1668538080097256850,gps,2,1,42.3009617536,-83.6980774902,271.975921631,0.000121,0.0,0.0,0.0,0.000225,0.0,0.0,0.0,0.002304,2
1668538080025141169,337066,1668538080107327534,gps,2,1,42.3009616955,-83.6980780861,271.974945068,0.000121,0.0,0.0,0.0,0.000225,0.0,0.0,0.0,0.002304,2
1668538080035074346,337067,1668538080117259308,gps,2,1,42.3009616371,-83.6980786798,271.974090576,0.000121,0.0,0.0,0.0,0.000225,0.0,0.0,0.0,0.002304,2
1668538080044995322,337068,1668538080127263845,gps,2,1,42.3009615836,-83.6980792776,271.973175049,0.000121,0.0,0.0,0.0,0.000225,0.0,0.0,0.0,0.002304,2
1668538080055091113,337069,1668538080137245810,gps,2,1,42.3009615252,-83.6980798755,271.972106934,0.000121,0.0,0.0,0.0,0.000225,0.0,0.0,0.0,0.002304,2
1668538080065084502,337070,1668538080147321793,gps,2,1,42.300961467,-83.6980804715,271.971160889,0.000121,0.0,0.0,0.0,0.000225,0.0,0.0,0.0,0.002304,2
1668538080075152415,337071,1668538080157252740,gps,2,1,42.300961413,-83.6980810712,271.970153809,0.000121,0.0,0.0,0.0,0.000225,0.0,0.0,0.0,0.002304,2
1668538080085015305,337072,1668538080167246512,gps,2,1,42.3009613543,-83.6980816709,271.969116211,0.000121,0.0,0.0,0.0,0.000225,0.0,0.0,0.0,0.002304,2
1668538080095476014,337073,1668538080177394763,gps,2,1,42.3009612956,-83.6980822689,271.968048096,0.000121,0.0,0.0,0.0,0.000225,0.0,0.0,0.0,0.002304,2
1668538080105247530,337074,1668538080187258013,gps,2,1,42.3009612411,-83.6980828706,271.967041016,0.000121,0.0,0.0,0.0,0.000225,0.0,0.0,0.0,0.002304,2
1668538080115328651,337075,1668538080197262173,gps,2,1,42.3009611818,-83.6980834723,271.965942383,0.000121,0.0,0.0,0.0,0.000225,0.0,0.0,0.0,0.002304,2
1668538080125510279,337076,1668538080207323047,gps,2,1,42.3009611229,-83.6980840723,271.964874268,8.1e-05,0.0,0.0,0.0,0.000169,0.0,0.0,0.0,0.002209,2
1668538080135250182,337077,1668538080217262402,gps,2,1,42.3009610676,-83.6980846759,271.963806152,8.1e-05,0.0,0.0,0.0,0.000169,0.0,0.0,0.0,0.002209,2
1668538080145134453,337078,1668538080227323733,gps,2,1,42.3009610074,-83.6980852795,271.962646484,8.1e-05,0.0,0.0,0.0,0.000169,0.0,0.0,0.0,0.002209,2
1668538080155167858,337079,1668538080237258214,gps,2,1,42.300960948,-83.6980858816,271.961547852,8.1e-05,0.0,0.0,0.0,0.000169,0.0,0.0,0.0,0.002209,2
1668538080165103704,337080,1668538080247246218,gps,2,1,42.3009608919,-83.698086487,271.960479736,8.1e-05,0.0,0.0,0.0,0.000169,0.0,0.0,0.0,0.002209,2
1668538080175095333,337081,1668538080257276725,gps,2,1,42.3009608312,-83.6980870925,271.959350586,8.1e-05,0.0,0.0,0.0,0.000169,0.0,0.0,0.0,0.002209,2
1668538080185148874,337082,1668538080267335781,gps,2,1,42.300960771,-83.6980876965,271.958190918,8.1e-05,0.0,0.0,0.0,0.000169,0.0,0.0,0.0,0.002209,2
1668538080195056638,337083,1668538080277235429,gps,2,1,42.3009607143,-83.6980883037,271.957183838,8.1e-05,0.0,0.0,0.0,0.000169,0.0,0.0,0.0,0.002209,2
1668538080205118487,337084,1668538080287257218,gps,2,1,42.3009606532,-83.6980889111,271.956176758,8.1e-05,0.0,0.0,0.0,0.000169,0.0,0.0,0.0,0.002209,2
1668538080215060331,337085,1668538080297308003,gps,2,1,42.3009605923,-83.698089517,271.955108643,8.1e-05,0.0,0.0,0.0,0.000169,0.0,0.0,0.0,0.002209,2
1668538080224958035,337086,1668538080307245625,gps,2,1,42.3009605348,-83.6980901262,271.954162598,8.1e-05,0.0,0.0,0.0,0.000169,0.0,0.0,0.0,0.002209,2
1668538080234971477,337087,1668538080317266087,gps,2,1,42.300960473,-83.6980907358,271.953277588,8.1e-05,0.0,0.0,0.0,0.000169,0.0,0.0,0.0,0.002209,2
1668538080245276579,337088,1668538080327315978,gps,2,1,42.3009604117,-83.6980913432,271.952301025,8.1e-05,0.0,0.0,0.0,0.000169,0.0,0.0,0.0,0.002209,2
1668538080254890386,337089,1668538080337241564,gps,2,1,42.3009603536,-83.6980919542,271.951477051,8.1e-05,0.0,0.0,0.0,0.000169,0.0,0.0,0.0,0.002209,2
1668538080265341377,337090,1668538080347311352,gps,2,1,42.3009602914,-83.6980925653,271.950714111,8.1e-05,0.0,0.0,0.0,0.000169,0.0,0.0,0.0,0.002209,2
1668538080275218366,337091,1668538080357254793,gps,2,1,42.3009602298,-83.6980931751,271.949859619,8.1e-05,0.0,0.0,0.0,0.000169,0.0,0.0,0.0,0.002209,2
1668538080285354280,337092,1668538080367245008,gps,2,1,42.3009601715,-83.6980937879,271.94921875,8.1e-05,0.0,0.0,0.0,0.000169,0.0,0.0,0.0,0.002209,2
1668538080295098406,337093,1668538080377321435,gps,2,1,42.3009601094,-83.698094401,271.948608398,8.1e-05,0.0,0.0,0.0,0.000169,0.0,0.0,0.0,0.002209,2
1668538080305166389,337094,1668538080387306046,gps,2,1,42.3009600475,-83.6980950127,271.947845459,8.1e-05,0.0,0.0,0.0,0.000169,0.0,0.0,0.0,0.002209,2
1668538080315125603,337095,1668538080397311192,gps,2,1,42.3009599881,-83.6980956277,271.947296143,8.1e-05,0.0,0.0,0.0,0.000169,0.0,0.0,0.0,0.002209,2
1668538080325022318,337096,1668538080407279932,gps,2,1,42.3009599257,-83.6980962429,271.946807861,8.1e-05,0.0,0.0,0.0,0.000169,0.0,0.0,0.0,0.002209,2
1668538080335107055,337097,1668538080417297324,gps,2,1,42.3009598637,-83.6980968562,271.94619751,8.1e-05,0.0,0.0,0.0,0.000169,0.0,0.0,0.0,0.002209,2
1668538080345387093,337098,1668538080427337113,gps,2,1,42.300959804,-83.6980974729,271.945800781,8.1e-05,0.0,0.0,0.0,0.000169,0.0,0.0,0.0,0.002209,2
1668538080355046083,337099,1668538080437239405,gps,2,1,42.3009597415,-83.6980980896,271.945404053,8.1e-05,0.0,0.0,0.0,0.000169,0.0,0.0,0.0,0.002209,2
1668538080364957389,337100,1668538080447307417,gps,2,1,42.3009596792,-83.6980987049,271.944946289,8.1e-05,0.0,0.0,0.0,0.000169,0.0,0.0,0.0,0.002209,2
1668538080374932383,337101,1668538080457252975,gps,2,1,42.3009596194,-83.6980993234,271.944610596,8.1e-05,0.0,0.0,0.0,0.000169,0.0,0.0,0.0,0.002209,2
1668538080384882267,337102,1668538080467272458,gps,2,1,42.3009595569,-83.6980999422,271.944274902,8.1e-05,0.0,0.0,0.0,0.000169,0.0,0.0,0.0,0.002209,2
1668538080395299156,337103,1668538080477321709,gps,2,1,42.3009594944,-83.6981005591,271.943847656,8.1e-05,0.0,0.0,0.0,0.000169,0.0,0.0,0.0,0.002209,2
1668538080405238496,337104,1668538080487252938,gps,2,1,42.3009594342,-83.6981011795,271.94354248,8.1e-05,0.0,0.0,0.0,0.000169,0.0,0.0,0.0,0.002209,2
1668538080415306474,337105,1668538080497478600,gps,2,1,42.3009593716,-83.6981017995,271.943237305,8.1e-05,0.0,0.0,0.0,0.000169,0.0,0.0,0.0,0.002209,2
1668538080425264050,337106,1668538080507321563,gps,2,1,42.300959309,-83.6981024188,271.942901611,8.1e-05,0.0,0.0,0.0,0.000169,0.0,0.0,0.0,0.002209,2
1668538080435109112,337107,1668538080517285632,gps,2,1,42.3009592492,-83.6981030439,271.942108154,8.1e-05,0.0,0.0,0.0,0.000169,0.0,0.0,0.0,0.002209,2
1668538080445090364,337108,1668538080527355108,gps,2,1,42.3009591869,-83.6981036662,271.941772461,8.1e-05,0.0,0.0,0.0,0.000169,0.0,0.0,0.0,0.002209,2
1668538080455269431,337109,1668538080537308155,gps,2,1,42.3009591245,-83.6981042869,271.941436768,8.1e-05,0.0,0.0,0.0,0.000169,0.0,0.0,0.0,0.002209,2
1668538080465157186,337110,1668538080547347880,gps,2,1,42.3009590654,-83.6981049137,271.940643311,8.1e-05,0.0,0.0,0.0,0.000169,0.0,0.0,0.0,0.002209,2
1668538080475186465,337111,1668538080557324071,gps,2,1,42.3009590041,-83.6981055371,271.940307617,8.1e-05,0.0,0.0,0.0,0.000169,0.0,0.0,0.0,0.002209,2
1668538080484973920,337112,1668538080567250390,gps,2,1,42.3009589415,-83.6981061607,271.939941406,8.1e-05,0.0,0.0,0.0,0.000169,0.0,0.0,0.0,0.002209,2
1668538080495059094,337113,1668538080577238919,gps,2,1,42.3009588828,-83.6981067892,271.939178467,8.1e-05,0.0,0.0,0.0,0.000169,0.0,0.0,0.0,0.002209,2
1668538080504992390,337114,1668538080587312860,gps,2,1,42.3009588215,-83.6981074148,271.938812256,8.1e-05,0.0,0.0,0.0,0.000169,0.0,0.0,0.0,0.002209,2
1668538080514926375,337115,1668538080597263537,gps,2,1,42.3009587602,-83.6981080387,271.938476562,8.1e-05,0.0,0.0,0.0,0.000169,0.0,0.0,0.0,0.002209,2
1668538080524904180,337116,1668538080607288273,gps,2,1,42.3009587017,-83.6981086685,271.937744141,8.1e-05,0.0,0.0,0.0,0.000169,0.0,0.0,0.0,0.002209,2
1668538080535460684,337117,1668538080617339267,gps,2,1,42.3009586407,-83.6981092955,271.93737793,8.1e-05,0.0,0.0,0.0,0.000169,0.0,0.0,0.0,0.002209,2
1668538080545291589,337118,1668538080627256224,gps,2,1,42.3009585798,-83.6981099219,271.937042236,8.1e-05,0.0,0.0,0.0,0.000169,0.0,0.0,0.0,0.002209,2
1668538080555423582,337119,1668538080637244461,gps,2,1,42.3009585219,-83.6981105536,271.936248779,8.1e-05,0.0,0.0,0.0,0.000169,0.0,0.0,0.0,0.002209,2
1668538080565132430,337120,1668538080647321120,gps,2,1,42.3009584607,-83.6981111825,271.935791016,8.1e-05,0.0,0.0,0.0,0.000169,0.0,0.0,0.0,0.002209,2
1668538080575087841,337121,1668538080657267378,gps,2,1,42.3009584002,-83.6981118105,271.93536377,8.1e-05,0.0,0.0,0.0,0.000169,0.0,0.0,0.0,0.002209,2
1668538080585140041,337122,1668538080667252343,gps,2,1,42.300958342,-83.698112444,271.934509277,8.1e-05,0.0,0.0,0.0,0.000169,0.0,0.0,0.0,0.002209,2
1668538080595210414,337123,1668538080677403427,gps,2,1,42.3009582809,-83.6981130752,271.933959961,8.1e-05,0.0,0.0,0.0,0.000169,0.0,0.0,0.0,0.002209,2
1668538080605228502,337124,1668538080687258654,gps,2,1,42.3009582203,-83.6981137042,271.93347168,8.1e-05,0.0,0.0,0.0,0.000169,0.0,0.0,0.0,0.002209,2
1668538080615174274,337125,1668538080697266860,gps,2,1,42.3009581621,-83.6981143393,271.93258667,8.1e-05,0.0,0.0,0.0,0.000169,0.0,0.0,0.0,0.002209,2
1668538080625178270,337126,1668538080707305073,gps,2,1,42.3009581017,-83.6981149724,271.932006836,8.1e-05,0.0,0.0,0.0,0.000169,0.0,0.0,0.0,0.002209,2
1668538080635042491,337127,1668538080717242676,gps,2,1,42.3009580406,-83.6981156041,271.931427002,8.1e-05,0.0,0.0,0.0,0.000169,0.0,0.0,0.0,0.002209,2
1668538080644980097,337128,1668538080727248293,gps,2,1,42.3009579826,-83.6981162413,271.930480957,8.1e-05,0.0,0.0,0.0,0.000169,0.0,0.0,0.0,0.002209,2
1668538080655124457,337129,1668538080737309994,gps,2,1,42.3009579225,-83.6981168759,271.929840088,8.1e-05,0.0,0.0,0.0,0.000169,0.0,0.0,0.0,0.002209,2
1668538080665001767,337130,1668538080747255418,gps,2,1,42.3009578614,-83.6981175096,271.929260254,8.1e-05,0.0,0.0,0.0,0.000169,0.0,0.0,0.0,0.002209,2
1668538080674995450,337131,1668538080757265986,gps,2,1,42.3009578037,-83.6981181485,271.928314209,8.1e-05,0.0,0.0,0.0,0.000169,0.0,0.0,0.0,0.002209,2
1668538080685355611,337132,1668538080767316895,gps,2,1,42.3009577432,-83.6981187857,271.927734375,8.1e-05,0.0,0.0,0.0,0.000169,0.0,0.0,0.0,0.002209,2
1668538080694932576,337133,1668538080777250378,gps,2,1,42.3009576824,-83.6981194203,271.927093506,8.1e-05,0.0,0.0,0.0,0.000169,0.0,0.0,0.0,0.002209,2
1668538080705348929,337134,1668538080787260486,gps,2,1,42.3009576243,-83.6981200609,271.926208496,8.1e-05,0.0,0.0,0.0,0.000169,0.0,0.0,0.0,0.002209,2
1668538080715221447,337135,1668538080797312744,gps,2,1,42.3009575628,-83.6981206989,271.925628662,8.1e-05,0.0,0.0,0.0,0.000169,0.0,0.0,0.0,0.002209,2
1668538080725137413,337136,1668538080807259737,gps,2,1,42.3009575029,-83.698121336,271.925048828,8.1e-05,0.0,0.0,0.0,0.000169,0.0,0.0,0.0,0.002209,2
1668538080735136653,337137,1668538080817259054,gps,2,1,42.3009574437,-83.6981219777,271.924224854,8.1e-05,0.0,0.0,0.0,0.000169,0.0,0.0,0.0,0.002209,2
1668538080745332655,337138,1668538080827327399,gps,2,1,42.3009573815,-83.6981226169,271.92376709,8.1e-05,0.0,0.0,0.0,0.000169,0.0,0.0,0.0,0.002209,2
1668538080755241889,337139,1668538080837260148,gps,2,1,42.3009573201,-83.6981232543,271.923217773,8.1e-05,0.0,0.0,0.0,0.000169,0.0,0.0,0.0,0.002209,2
1668538080765066366,337140,1668538080847239272,gps,2,1,42.3009572597,-83.6981238966,271.922515869,8.1e-05,0.0,0.0,0.0,0.000169,0.0,0.0,0.0,0.002209,2
1668538080775197417,337141,1668538080857252645,gps,2,1,42.3009571959,-83.6981245365,271.922149658,8.1e-05,0.0,0.0,0.0,0.000169,0.0,0.0,0.0,0.002209,2
1668538080785071898,337142,1668538080867326401,gps,2,1,42.3009571335,-83.6981251754,271.921691895,8.1e-05,0.0,0.0,0.0,0.000169,0.0,0.0,0.0,0.002209,2
1668538080794916760,337143,1668538080877232204,gps,2,1,42.3009570723,-83.6981258183,271.921051025,8.1e-05,0.0,0.0,0.0,0.000169,0.0,0.0,0.0,0.002209,2
1668538080804969051,337144,1668538080887247479,gps,2,1,42.3009570074,-83.6981264586,271.920776367,8.1e-05,0.0,0.0,0.0,0.000169,0.0,0.0,0.0,0.002209,2
1668538080815320173,337145,1668538080897309849,gps,2,1,42.3009569436,-83.6981270987,271.920379639,8.1e-05,0.0,0.0,0.0,0.000169,0.0,0.0,0.0,0.002209,2
1668538080824826003,337146,1668538080907243556,gps,2,1,42.3009568814,-83.6981277423,271.919830322,8.1e-05,0.0,0.0,0.0,0.000169,0.0,0.0,0.0,0.002209,2
1668538080835205181,337147,1668538080917267492,gps,2,1,42.3009568156,-83.6981283839,271.919555664,8.1e-05,0.0,0.0,0.0,0.000169,0.0,0.0,0.0,0.002209,2
1668538080845471423,337148,1668538080927399510,gps,2,1,42.3009567507,-83.6981290244,271.919281006,8.1e-05,0.0,0.0,0.0,0.000169,0.0,0.0,0.0,0.002209,2
1668538080855124678,337149,1668538080937239807,gps,2,1,42.3009566877,-83.6981296687,271.918762207,8.1e-05,0.0,0.0,0.0,0.000169,0.0,0.0,0.0,0.002209,2
1668538080865161645,337150,1668538080947301340,gps,2,1,42.3009566215,-83.6981303111,271.918609619,8.1e-05,0.0,0.0,0.0,0.000169,0.0,0.0,0.0,0.002209,2
1668538080875176264,337151,1668538080957247154,gps,2,1,42.300956556,-83.6981309531,271.918334961,8.1e-05,0.0,0.0,0.0,0.000169,0.0,0.0,0.0,0.002209,2
1668538080885154822,337152,1668538080967258206,gps,2,1,42.3009564923,-83.6981315986,271.91796875,8.1e-05,0.0,0.0,0.0,0.000169,0.0,0.0,0.0,0.002209,2
1668538080895098441,337153,1668538080977292342,gps,2,1,42.3009564258,-83.6981322422,271.917877197,8.1e-05,0.0,0.0,0.0,0.000169,0.0,0.0,0.0,0.002209,2
1668538080905186873,337154,1668538080987237606,gps,2,1,42.3009563595,-83.6981328851,271.917724609,8.1e-05,0.0,0.0,0.0,0.000169,0.0,0.0,0.0,0.002209,2
1668538080915109345,337155,1668538080997293210,gps,2,1,42.3009562953,-83.6981335318,271.917388916,8.1e-05,0.0,0.0,0.0,0.000169,0.0,0.0,0.0,0.002209,2
1668538080925202915,337156,1668538081007377935,gps,2,1,42.3009562282,-83.6981341769,271.917297363,8.1e-05,0.0,0.0,0.0,0.000169,0.0,0.0,0.0,0.002209,2
1668538080935029834,337157,1668538081017347522,gps,2,1,42.3009561614,-83.6981348211,271.917175293,8.1e-05,0.0,0.0,0.0,0.000169,0.0,0.0,0.0,0.002209,2
1668538080944939403,337158,1668538081027320896,gps,2,1,42.3009560998,-83.6981354707,271.916412354,8.1e-05,0.0,0.0,0.0,0.000169,0.0,0.0,0.0,0.002209,2
1668538080955445498,337159,1668538081037353563,gps,2,1,42.3009560323,-83.6981361173,271.916290283,8.1e-05,0.0,0.0,0.0,0.000169,0.0,0.0,0.0,0.002209,2
1668538080965330979,337160,1668538081047304471,gps,2,1,42.3009559656,-83.6981367626,271.91619873,8.1e-05,0.0,0.0,0.0,0.000169,0.0,0.0,0.0,0.002209,2
1668538080975277026,337161,1668538081057309062,gps,2,1,42.3009559039,-83.6981374133,271.915435791,8.1e-05,0.0,0.0,0.0,0.000169,0.0,0.0,0.0,0.002209,2
1668538080985301563,337162,1668538081067368374,gps,2,1,42.3009558371,-83.6981380613,271.915283203,8.1e-05,0.0,0.0,0.0,0.000169,0.0,0.0,0.0,0.002209,2
1668538080995171739,337163,1668538081077349119,gps,2,1,42.3009557707,-83.6981387085,271.915130615,8.1e-05,0.0,0.0,0.0,0.000169,0.0,0.0,0.0,0.002209,2
1668538081005227075,337164,1668538081087274016,gps,2,1,42.3009557092,-83.6981393612,271.914367676,8.1e-05,0.0,0.0,0.0,0.000169,0.0,0.0,0.0,0.002209,2
1668538081015141147,337165,1668538081097253706,gps,2,1,42.3009556433,-83.6981400108,271.91418457,8.1e-05,0.0,0.0,0.0,0.000169,0.0,0.0,0.0,0.002209,2
1668538081025200371,337166,1668538081107319278,gps,2,1,42.3009555771,-83.6981406592,271.914001465,8.1e-05,0.0,0.0,0.0,0.000169,0.0,0.0,0.0,0.002209,2
1668538081035158047,337167,1668538081117251418,gps,2,1,42.3009555166,-83.6981413132,271.913238525,8.1e-05,0.0,0.0,0.0,0.000169,0.0,0.0,0.0,0.002209,2
1668538081045042257,337168,1668538081127234244,gps,2,1,42.3009554521,-83.6981419644,271.913024902,8.1e-05,0.0,0.0,0.0,0.000169,0.0,0.0,0.0,0.002209,2
1668538081055200608,337169,1668538081137315752,gps,2,1,42.3009553867,-83.6981426144,271.912811279,8.1e-05,0.0,0.0,0.0,0.000169,0.0,0.0,0.0,0.002209,2
1668538081065069064,337170,1668538081147237739,gps,2,1,42.3009553269,-83.6981432698,271.91204834,8.1e-05,0.0,0.0,0.0,0.000169,0.0,0.0,0.0,0.002209,2
1668538081075134617,337171,1668538081157244783,gps,2,1,42.3009552641,-83.6981439229,271.911834717,8.1e-05,0.0,0.0,0.0,0.000169,0.0,0.0,0.0,0.002209,2
1668538081084997988,337172,1668538081167312713,gps,2,1,42.3009551999,-83.6981445751,271.911590576,8.1e-05,0.0,0.0,0.0,0.000169,0.0,0.0,0.0,0.002209,2
1668538081095491276,337173,1668538081177333503,gps,2,1,42.3009551418,-83.6981452324,271.910797119,8.1e-05,0.0,0.0,0.0,0.000169,0.0,0.0,0.0,0.002209,2
1668538081105485381,337174,1668538081187314852,gps,2,1,42.3009550809,-83.6981458876,271.910430908,8.1e-05,0.0,0.0,0.0,0.000169,0.0,0.0,0.0,0.002209,2
1668538081115218134,337175,1668538081197253509,gps,2,1,42.3009550187,-83.6981465417,271.91015625,8.1e-05,0.0,0.0,0.0,0.000169,0.0,0.0,0.0,0.002209,2
1668538081125361509,337176,1668538081207255792,gps,2,1,42.3009549621,-83.698147201,271.909210205,0.000121,0.0,0.0,0.0,0.000256,0.0,0.0,0.0,0.002304,2
1668538081135408599,337177,1668538081217259893,gps,2,1,42.300954903,-83.6981478584,271.908691406,0.000121,0.0,0.0,0.0,0.000256,0.0,0.0,0.0,0.002304,2
1668538081145140140,337178,1668538081227310746,gps,2,1,42.3009548427,-83.6981485137,271.908355713,0.000121,0.0,0.0,0.0,0.000256,0.0,0.0,0.0,0.002304,2
1668538081155187447,337179,1668538081237258798,gps,2,1,42.3009547875,-83.6981491744,271.907287598,0.000121,0.0,0.0,0.0,0.000256,0.0,0.0,0.0,0.002304,2
1668538081165141645,337180,1668538081247253655,gps,2,1,42.3009547303,-83.6981498336,271.906677246,0.000121,0.0,0.0,0.0,0.000256,0.0,0.0,0.0,0.002304,2
1668538081175212846,337181,1668538081257317805,gps,2,1,42.3009546713,-83.6981504911,271.906158447,0.000121,0.0,0.0,0.0,0.000256,0.0,0.0,0.0,0.002304,2
1668538081185066918,337182,1668538081267257012,gps,2,1,42.3009546177,-83.6981511538,271.904998779,0.000121,0.0,0.0,0.0,0.000256,0.0,0.0,0.0,0.002304,2
1668538081195064983,337183,1668538081277238737,gps,2,1,42.3009545616,-83.6981518141,271.904266357,0.000121,0.0,0.0,0.0,0.000256,0.0,0.0,0.0,0.002304,2
1668538081205102464,337184,1668538081287312148,gps,2,1,42.3009545042,-83.698152474,271.903594971,0.000121,0.0,0.0,0.0,0.000256,0.0,0.0,0.0,0.002304,2
1668538081215046932,337185,1668538081297237437,gps,2,1,42.3009544515,-83.6981531381,271.902374268,0.000121,0.0,0.0,0.0,0.000256,0.0,0.0,0.0,0.002304,2
1668538081224991708,337186,1668538081307248798,gps,2,1,42.3009543953,-83.6981538001,271.901519775,0.000121,0.0,0.0,0.0,0.000256,0.0,0.0,0.0,0.002304,2
1668538081235016606,337187,1668538081317324435,gps,2,1,42.3009543391,-83.6981544607,271.900817871,0.000121,0.0,0.0,0.0,0.000256,0.0,0.0,0.0,0.002304,2
1668538081244948000,337188,1668538081327255790,gps,2,1,42.3009542861,-83.6981551257,271.899536133,0.000121,0.0,0.0,0.0,0.000256,0.0,0.0,0.0,0.002304,2
1668538081255376412,337189,1668538081337270606,gps,2,1,42.3009542298,-83.698155788,271.898773193,0.000121,0.0,0.0,0.0,0.000256,0.0,0.0,0.0,0.002304,2
1668538081265356246,337190,1668538081347331476,gps,2,1,42.3009541737,-83.6981564511,271.897949219,0.000121,0.0,0.0,0.0,0.000256,0.0,0.0,0.0,0.002304,2
1668538081275532820,337191,1668538081357255357,gps,2,1,42.30095412,-83.6981571168,271.896850586,0.000121,0.0,0.0,0.0,0.000256,0.0,0.0,0.0,0.002304,2
1668538081284838280,337192,1668538081367251716,gps,2,1,42.3009540625,-83.6981577797,271.89630127,0.000121,0.0,0.0,0.0,0.000256,0.0,0.0,0.0,0.002304,2
1668538081295138436,337193,1668538081377326488,gps,2,1,42.3009540058,-83.6981584428,271.895599365,0.000121,0.0,0.0,0.0,0.000256,0.0,0.0,0.0,0.002304,2
1668538081305197089,337194,1668538081387250098,gps,2,1,42.3009539518,-83.6981591089,271.894775391,0.000121,0.0,0.0,0.0,0.000256,0.0,0.0,0.0,0.002304,2
1668538081315172675,337195,1668538081397252228,gps,2,1,42.3009538929,-83.6981597722,271.894500732,0.000121,0.0,0.0,0.0,0.000256,0.0,0.0,0.0,0.002304,2
1668538081325180397,337196,1668538081407302814,gps,2,1,42.3009538354,-83.6981604359,271.893981934,0.000121,0.0,0.0,0.0,0.000256,0.0,0.0,0.0,0.002304,2
1668538081335141926,337197,1668538081417235297,gps,2,1,42.3009537798,-83.6981611022,271.893493652,0.000121,0.0,0.0,0.0,0.000256,0.0,0.0,0.0,0.002304,2
1668538081345050356,337198,1668538081427414128,gps,2,1,42.3009537196,-83.6981617663,271.89352417,0.000121,0.0,0.0,0.0,0.000256,0.0,0.0,0.0,0.002304,2
1668538081355120563,337199,1668538081437319721,gps,2,1,42.3009536605,-83.6981624303,271.893280029,0.000121,0.0,0.0,0.0,0.000256,0.0,0.0,0.0,0.002304,2
1668538081365024517,337200,1668538081447245376,gps,2,1,42.3009536037,-83.698163097,271.893096924,0.000121,0.0,0.0,0.0,0.000256,0.0,0.0,0.0,0.002304,2
1668538081375421448,337201,1668538081457275034,gps,2,1,42.3009535427,-83.6981637614,271.893371582,0.000121,0.0,0.0,0.0,0.000256,0.0,0.0,0.0,0.002304,2
1668538081385361248,337202,1668538081467318819,gps,2,1,42.300953482,-83.6981644258,271.893463135,0.000121,0.0,0.0,0.0,0.000256,0.0,0.0,0.0,0.002304,2
1668538081395225683,337203,1668538081477260776,gps,2,1,42.3009534244,-83.6981650928,271.893463135,0.000121,0.0,0.0,0.0,0.000256,0.0,0.0,0.0,0.002304,2
1668538081405298139,337204,1668538081487249146,gps,2,1,42.3009533625,-83.6981657579,271.893890381,0.000121,0.0,0.0,0.0,0.000256,0.0,0.0,0.0,0.002304,2
1668538081415351602,337205,1668538081497477756,gps,2,1,42.3009533011,-83.6981664221,271.894165039,0.000121,0.0,0.0,0.0,0.000256,0.0,0.0,0.0,0.002304,2
1668538081425331095,337206,1668538081507336340,gps,2,1,42.3009532475,-83.6981670895,271.894500732,0.000121,0.0,0.0,0.0,0.000256,0.0,0.0,0.0,0.002304,2
1668538081435073199,337207,1668538081517265495,gps,2,1,42.3009531851,-83.698167755,271.895019531,0.000121,0.0,0.0,0.0,0.000256,0.0,0.0,0.0,0.002304,2
1668538081445154206,337208,1668538081527345582,gps,2,1,42.3009531233,-83.6981684196,271.895446777,0.000121,0.0,0.0,0.0,0.000256,0.0,0.0,0.0,0.002304,2
1668538081455306211,337209,1668538081537346086,gps,2,1,42.300953069,-83.6981690876,271.895812988,0.000121,0.0,0.0,0.0,0.000256,0.0,0.0,0.0,0.002304,2
1668538081465210173,337210,1668538081547308223,gps,2,1,42.3009530068,-83.6981697535,271.896270752,0.000121,0.0,0.0,0.0,0.000256,0.0,0.0,0.0,0.002304,2
1668538081475318087,337211,1668538081557353563,gps,2,1,42.3009529445,-83.6981704183,271.896759033,0.000121,0.0,0.0,0.0,0.000256,0.0,0.0,0.0,0.002304,2
1668538081485259345,337212,1668538081567316312,gps,2,1,42.3009528898,-83.6981710865,271.897155762,0.000121,0.0,0.0,0.0,0.000256,0.0,0.0,0.0,0.002304,2
1668538081495002575,337213,1668538081577266093,gps,2,1,42.3009528277,-83.6981717514,271.897674561,0.000121,0.0,0.0,0.0,0.000256,0.0,0.0,0.0,0.002304,2
1668538081505099233,337214,1668538081587318330,gps,2,1,42.3009527649,-83.6981724182,271.898071289,0.000121,0.0,0.0,0.0,0.000256,0.0,0.0,0.0,0.002304,2
1668538081514959930,337215,1668538081597252780,gps,2,1,42.3009527105,-83.6981730865,271.898468018,0.000121,0.0,0.0,0.0,0.000256,0.0,0.0,0.0,0.002304,2
1668538081524928377,337216,1668538081607264123,gps,2,1,42.3009526491,-83.6981737522,271.898895264,0.000121,0.0,0.0,0.0,0.000256,0.0,0.0,0.0,0.002304,2
1668538081535432750,337217,1668538081617337963,gps,2,1,42.3009525872,-83.6981744179,271.899383545,0.000121,0.0,0.0,0.0,0.000256,0.0,0.0,0.0,0.002304,2
1668538081545350348,337218,1668538081627325866,gps,2,1,42.300952533,-83.6981750859,271.899658203,0.000121,0.0,0.0,0.0,0.000256,0.0,0.0,0.0,0.002304,2
1668538081555252022,337219,1668538081637275435,gps,2,1,42.3009524737,-83.6981757519,271.899932861,0.000121,0.0,0.0,0.0,0.000256,0.0,0.0,0.0,0.002304,2
1668538081565217701,337220,1668538081647333796,gps,2,1,42.3009524126,-83.6981764179,271.900421143,0.000121,0.0,0.0,0.0,0.000256,0.0,0.0,0.0,0.002304,2
1668538081575041319,337221,1668538081657247315,gps,2,1,42.3009523601,-83.6981770863,271.900543213,0.000121,0.0,0.0,0.0,0.000256,0.0,0.0,0.0,0.002304,2
1668538081585137704,337222,1668538081667254374,gps,2,1,42.3009523029,-83.6981777531,271.900695801,0.000121,0.0,0.0,0.0,0.000256,0.0,0.0,0.0,0.002304,2
1668538081595190991,337223,1668538081677408085,gps,2,1,42.3009522445,-83.6981784187,271.901000977,0.000121,0.0,0.0,0.0,0.000256,0.0,0.0,0.0,0.002304,2
1668538081605207288,337224,1668538081687263307,gps,2,1,42.3009521941,-83.6981790869,271.901000977,0.000121,0.0,0.0,0.0,0.000256,0.0,0.0,0.0,0.002304,2
