%time,field.header.seq,field.header.stamp,field.header.frame_id,field.status.status,field.status.service,field.latitude,field.longitude,field.altitude,field.position_covariance0,field.position_covariance1,field.position_covariance2,field.position_covariance3,field.position_covariance4,field.position_covariance5,field.position_covariance6,field.position_covariance7,field.position_covariance8,field.position_covariance_type
1668537977025667933,326766,1668537977105799351,gps,2,1,42.3009802897,-83.6979520673,272.248260498,0.000121,0.0,0.0,0.0,0.000144,0.0,0.0,0.0,0.0025,2
1668537977035018585,326767,1668537977115716792,gps,2,1,42.3009802901,-83.6979520685,272.248260498,0.000121,0.0,0.0,0.0,0.000144,0.0,0.0,0.0,0.0025,2
1668537977045071620,326768,1668537977125804151,gps,2,1,42.3009802906,-83.6979520698,272.248260498,0.000121,0.0,0.0,0.0,0.000144,0.0,0.0,0.0,0.0025,2
1668537977055217190,326769,1668537977135784688,gps,2,1,42.3009802913,-83.6979520687,272.248413086,0.000121,0.0,0.0,0.0,0.000144,0.0,0.0,0.0,0.0025,2
1668537977065201207,326770,1668537977145782884,gps,2,1,42.3009802918,-83.6979520699,272.248413086,0.000121,0.0,0.0,0.0,0.000144,0.0,0.0,0.0,0.0025,2
1668537977075499895,326771,1668537977155822367,gps,2,1,42.3009802922,-83.6979520711,272.248413086,0.000121,0.0,0.0,0.0,0.000144,0.0,0.0,0.0,0.0025,2
1668537977085122996,326772,1668537977165745158,gps,2,1,42.3009802931,-83.69795207,272.248565674,0.000121,0.0,0.0,0.0,0.000144,0.0,0.0,0.0,0.0025,2
1668537977095199082,326773,1668537977175766553,gps,2,1,42.3009802936,-83.6979520712,272.248565674,0.000121,0.0,0.0,0.0,0.000144,0.0,0.0,0.0,0.0025,2
1668537977105007516,326774,1668537977185839370,gps,2,1,42.300980294,-83.6979520724,272.248565674,0.000121,0.0,0.0,0.0,0.000144,0.0,0.0,0.0,0.0025,2
1668537977114894766,326775,1668537977195740821,gps,2,1,42.3009802949,-83.6979520713,272.248687744,0.000121,0.0,0.0,0.0,0.000144,0.0,0.0,0.0,0.0025,2
1668537977124892206,326776,1668537977205721091,gps,2,1,42.3009802954,-83.6979520726,272.248687744,0.000121,0.0,0.0,0.0,0.000169,0.0,0.0,0.0,0.0025,2
1668537977135321276,326777,1668537977215779668,gps,2,1,42.3009802958,-83.6979520738,272.248687744,0.000121,0.0,0.0,0.0,0.000169,0.0,0.0,0.0,0.0025,2
1668537977145309172,326778,1668537977225722082,gps,2,1,42.3009802967,-83.6979520729,272.248809814,0.000121,0.0,0.0,0.0,0.000169,0.0,0.0,0.0,0.0025,2
1668537977155470306,326779,1668537977235767785,gps,2,1,42.3009802971,-83.6979520742,272.248809814,0.000121,0.0,0.0,0.0,0.000169,0.0,0.0,0.0,0.0025,2
1668537977165309588,326780,1668537977245714828,gps,2,1,42.3009802976,-83.6979520755,272.248809814,0.000121,0.0,0.0,0.0,0.000169,0.0,0.0,0.0,0.0025,2
1668537977175211554,326781,1668537977255735832,gps,2,1,42.3009802985,-83.6979520746,272.248901367,0.000121,0.0,0.0,0.0,0.000169,0.0,0.0,0.0,0.0025,2
1668537977185267268,326782,1668537977265720379,gps,2,1,42.3009802989,-83.6979520759,272.248931885,0.000121,0.0,0.0,0.0,0.000169,0.0,0.0,0.0,0.0025,2
1668537977195062495,326783,1668537977275779165,gps,2,1,42.3009802994,-83.6979520772,272.248931885,0.000121,0.0,0.0,0.0,0.000169,0.0,0.0,0.0,0.0025,2
1668537977205108773,326784,1668537977285739979,gps,2,1,42.3009803002,-83.6979520765,272.249023438,0.000121,0.0,0.0,0.0,0.000169,0.0,0.0,0.0,0.0025,2
1668537977215197047,326785,1668537977295798230,gps,2,1,42.3009803006,-83.6979520778,272.249023438,0.000121,0.0,0.0,0.0,0.000169,0.0,0.0,0.0,0.0025,2
1668537977225082775,326786,1668537977305808274,gps,2,1,42.300980301,-83.6979520792,272.249053955,0.000121,0.0,0.0,0.0,0.000169,0.0,0.0,0.0,0.0025,2
1668537977235114760,326787,1668537977315728044,gps,2,1,42.3009803018,-83.6979520785,272.249145508,0.000121,0.0,0.0,0.0,0.000169,0.0,0.0,0.0,0.0025,2
1668537977244935999,326788,1668537977325717270,gps,2,1,42.3009803023,-83.6979520802,272.249145508,0.000121,0.0,0.0,0.0,0.000169,0.0,0.0,0.0,0.0025,2
1668537977255000100,326789,1668537977335790768,gps,2,1,42.3009803027,-83.6979520816,272.249176025,0.000121,0.0,0.0,0.0,0.000169,0.0,0.0,0.0,0.0025,2
1668537977264831111,326790,1668537977345716995,gps,2,1,42.3009803035,-83.6979520814,272.249267578,0.000121,0.0,0.0,0.0,0.000169,0.0,0.0,0.0,0.0025,2
1668537977275285965,326791,1668537977355724329,gps,2,1,42.3009803039,-83.6979520834,272.249267578,0.000121,0.0,0.0,0.0,0.000169,0.0,0.0,0.0,0.0025,2
1668537977285318289,326792,1668537977365793532,gps,2,1,42.3009803043,-83.6979520851,272.249267578,0.000121,0.0,0.0,0.0,0.000169,0.0,0.0,0.0,0.0025,2
1668537977295305988,326793,1668537977375713913,gps,2,1,42.300980305,-83.6979520853,272.249359131,0.000121,0.0,0.0,0.0,0.000169,0.0,0.0,0.0,0.0025,2
1668537977304966178,326794,1668537977385721228,gps,2,1,42.3009803054,-83.6979520879,272.249328613,0.000121,0.0,0.0,0.0,0.000169,0.0,0.0,0.0,0.0025,2
1668537977315083802,326795,1668537977395775368,gps,2,1,42.3009803058,-83.6979520901,272.249328613,0.000121,0.0,0.0,0.0,0.000169,0.0,0.0,0.0,0.0025,2
1668537977325071625,326796,1668537977405776907,gps,2,1,42.3009803065,-83.697952091,272.249420166,0.000121,0.0,0.0,0.0,0.000169,0.0,0.0,0.0,0.0025,2
1668537977335089258,326797,1668537977415742590,gps,2,1,42.300980307,-83.6979520946,272.249389648,0.000121,0.0,0.0,0.0,0.000169,0.0,0.0,0.0,0.0025,2
1668537977345064095,326798,1668537977425781007,gps,2,1,42.3009803075,-83.6979520973,272.249389648,0.000121,0.0,0.0,0.0,0.000169,0.0,0.0,0.0,0.0025,2
1668537977355137158,326799,1668537977435706653,gps,2,1,42.3009803082,-83.6979520993,272.249450684,0.000121,0.0,0.0,0.0,0.000169,0.0,0.0,0.0,0.0025,2
1668537977364995600,326800,1668537977445714475,gps,2,1,42.3009803086,-83.6979521041,272.249450684,0.000121,0.0,0.0,0.0,0.000169,0.0,0.0,0.0,0.0025,2
1668537977375042210,326801,1668537977455775972,gps,2,1,42.3009803091,-83.697952108,272.249420166,0.000121,0.0,0.0,0.0,0.000169,0.0,0.0,0.0,0.0025,2
1668537977384950275,326802,1668537977465711614,gps,2,1,42.3009803098,-83.6979521115,272.249481201,0.000121,0.0,0.0,0.0,0.000169,0.0,0.0,0.0,0.0025,2
1668537977395019362,326803,1668537977475737515,gps,2,1,42.3009803102,-83.6979521179,272.249450684,0.000121,0.0,0.0,0.0,0.000169,0.0,0.0,0.0,0.0025,2
1668537977404861886,326804,1668537977485779337,gps,2,1,42.3009803107,-83.6979521229,272.249420166,0.000121,0.0,0.0,0.0,0.000169,0.0,0.0,0.0,0.0025,2
1668537977415224313,326805,1668537977495761717,gps,2,1,42.3009803113,-83.6979521281,272.249450684,0.000121,0.0,0.0,0.0,0.000169,0.0,0.0,0.0,0.0025,2
1668537977425037433,326806,1668537977505814933,gps,2,1,42.3009803117,-83.6979521364,272.249420166,0.000121,0.0,0.0,0.0,0.000169,0.0,0.0,0.0,0.0025,2
1668537977434868275,326807,1668537977515773540,gps,2,1,42.3009803121,-83.6979521432,272.249389648,0.000121,0.0,0.0,0.0,0.000169,0.0,0.0,0.0,0.0025,2
1668537977445193289,326808,1668537977525791679,gps,2,1,42.3009803127,-83.6979521505,272.249420166,0.000121,0.0,0.0,0.0,0.000169,0.0,0.0,0.0,0.0025,2
1668537977455270186,326809,1668537977535804764,gps,2,1,42.300980313,-83.6979521611,272.249359131,0.000121,0.0,0.0,0.0,0.000169,0.0,0.0,0.0,0.0025,2
1668537977465228162,326810,1668537977545986355,gps,2,1,42.3009803133,-83.6979521698,272.249298096,0.000121,0.0,0.0,0.0,0.000169,0.0,0.0,0.0,0.0025,2
1668537977475497226,326811,1668537977555838708,gps,2,1,42.3009803106,-83.6979521774,272.249420166,0.000121,0.0,0.0,0.0,0.000169,0.0,0.0,0.0,0.0025,2
1668537977485172094,326812,1668537977565808463,gps,2,1,42.3009803109,-83.6979521907,272.249359131,0.000121,0.0,0.0,0.0,0.000169,0.0,0.0,0.0,0.0025,2
1668537977495340394,326813,1668537977575775180,gps,2,1,42.3009803112,-83.6979522018,272.249298096,0.000121,0.0,0.0,0.0,0.000169,0.0,0.0,0.0,0.0025,2
1668537977505168644,326814,1668537977585728716,gps,2,1,42.3009803085,-83.6979522122,272.249389648,0.000121,0.0,0.0,0.0,0.000169,0.0,0.0,0.0,0.0025,2
1668537977514982645,326815,1668537977595715857,gps,2,1,42.3009803088,-83.6979522282,272.249298096,0.000121,0.0,0.0,0.0,0.000169,0.0,0.0,0.0,0.0025,2
1668537977525125882,326816,1668537977605774294,gps,2,1,42.3009803091,-83.6979522419,272.249237061,0.000121,0.0,0.0,0.0,0.000169,0.0,0.0,0.0,0.0025,2
1668537977534913185,326817,1668537977615702496,gps,2,1,42.3009803066,-83.6979522554,272.249328613,0.000121,0.0,0.0,0.0,0.000169,0.0,0.0,0.0,0.0025,2
1668537977544891339,326818,1668537977625711789,gps,2,1,42.3009803069,-83.6979522745,272.249237061,0.000121,0.0,0.0,0.0,0.000169,0.0,0.0,0.0,0.0025,2
1668537977555038799,326819,1668537977635803468,gps,2,1,42.3009803072,-83.6979522912,272.249145508,0.000121,0.0,0.0,0.0,0.000169,0.0,0.0,0.0,0.0025,2
1668537977565476146,326820,1668537977645719783,gps,2,1,42.3009803047,-83.6979523079,272.249206543,0.000121,0.0,0.0,0.0,0.000169,0.0,0.0,0.0,0.0025,2
1668537977575416932,326821,1668537977655720916,gps,2,1,42.3009803051,-83.6979523304,272.24911499,0.000121,0.0,0.0,0.0,0.000169,0.0,0.0,0.0,0.0025,2
1668537977585176290,326822,1668537977665780253,gps,2,1,42.3009803054,-83.69795235,272.249023438,0.000121,0.0,0.0,0.0,0.000169,0.0,0.0,0.0,0.0025,2
1668537977595307700,326823,1668537977675749211,gps,2,1,42.3009803031,-83.69795237,272.249084473,0.000121,0.0,0.0,0.0,0.000169,0.0,0.0,0.0,0.0025,2
1668537977605088576,326824,1668537977685728398,gps,2,1,42.3009803034,-83.6979523956,272.24899292,0.000121,0.0,0.0,0.0,0.000169,0.0,0.0,0.0,0.0025,2
1668537977615296138,326825,1668537977695789509,gps,2,1,42.3009803038,-83.6979524187,272.24887085,0.000121,0.0,0.0,0.0,0.000169,0.0,0.0,0.0,0.0025,2
1668537977625393135,326826,1668537977705727823,gps,2,1,42.3009803015,-83.6979524422,272.248931885,0.000121,0.0,0.0,0.0,0.000169,0.0,0.0,0.0,0.0025,2
1668537977635268238,326827,1668537977715791778,gps,2,1,42.3009803018,-83.6979524711,272.248840332,0.000121,0.0,0.0,0.0,0.000169,0.0,0.0,0.0,0.0025,2
1668537977645124630,326828,1668537977725721972,gps,2,1,42.3009803021,-83.6979524973,272.248748779,0.000121,0.0,0.0,0.0,0.000169,0.0,0.0,0.0,0.0025,2
1668537977655202131,326829,1668537977735706660,gps,2,1,42.3009802999,-83.6979525241,272.248779297,0.000121,0.0,0.0,0.0,0.000169,0.0,0.0,0.0,0.0025,2
1668537977665020929,326830,1668537977745715584,gps,2,1,42.3009803002,-83.6979525564,272.248687744,0.000121,0.0,0.0,0.0,0.000169,0.0,0.0,0.0,0.0025,2
1668537977674943839,326831,1668537977755797680,gps,2,1,42.3009803005,-83.6979525859,272.248596191,0.000121,0.0,0.0,0.0,0.000169,0.0,0.0,0.0,0.0025,2
1668537977684966314,326832,1668537977765724752,gps,2,1,42.3009802983,-83.6979526162,272.248657227,0.000121,0.0,0.0,0.0,0.000169,0.0,0.0,0.0,0.0025,2
1668537977695161674,326833,1668537977775734252,gps,2,1,42.3009802986,-83.6979526518,272.248565674,0.000121,0.0,0.0,0.0,0.000169,0.0,0.0,0.0,0.0025,2
1668537977705320256,326834,1668537977785784501,gps,2,1,42.3009802988,-83.6979526846,272.248474121,0.000121,0.0,0.0,0.0,0.000169,0.0,0.0,0.0,0.0025,2
1668537977714973898,326835,1668537977795814516,gps,2,1,42.3009802967,-83.6979527184,272.248504639,0.000121,0.0,0.0,0.0,0.000169,0.0,0.0,0.0,0.0025,2
1668537977725389787,326836,1668537977805731666,gps,2,1,42.3009802969,-83.6979527573,272.248443604,0.000121,0.0,0.0,0.0,0.000169,0.0,0.0,0.0,0.0025,2
1668537977735038272,326837,1668537977815794860,gps,2,1,42.3009802971,-83.6979527936,272.248352051,0.000121,0.0,0.0,0.0,0.000169,0.0,0.0,0.0,0.0025,2
1668537977745101995,326838,1668537977825722811,gps,2,1,42.300980295,-83.6979528308,272.248413086,0.000121,0.0,0.0,0.0,0.000169,0.0,0.0,0.0,0.0025,2
1668537977755566501,326839,1668537977835792239,gps,2,1,42.3009802951,-83.6979528732,272.248321533,0.000121,0.0,0.0,0.0,0.000169,0.0,0.0,0.0,0.0025,2
1668537977765160479,326840,1668537977845736925,gps,2,1,42.3009802953,-83.6979529127,272.248260498,0.000121,0.0,0.0,0.0,0.000169,0.0,0.0,0.0,0.0025,2
1668537977775263195,326841,1668537977855729339,gps,2,1,42.3009802932,-83.6979529534,272.248291016,0.000121,0.0,0.0,0.0,0.000169,0.0,0.0,0.0,0.0025,2
1668537977785145017,326842,1668537977865796818,gps,2,1,42.3009802933,-83.6979529992,272.24822998,0.000121,0.0,0.0,0.0,0.000169,0.0,0.0,0.0,0.0025,2
1668537977795251423,326843,1668537977875719180,gps,2,1,42.3009802934,-83.6979530421,272.248168945,0.000121,0.0,0.0,0.0,0.000169,0.0,0.0,0.0,0.0025,2
1668537977805099606,326844,1668537977885713977,gps,2,1,42.3009802914,-83.6979530862,272.248199463,0.000121,0.0,0.0,0.0,0.000169,0.0,0.0,0.0,0.0025,2
1668537977814973881,326845,1668537977895718346,gps,2,1,42.3009802915,-83.6979531354,272.248138428,0.000121,0.0,0.0,0.0,0.000169,0.0,0.0,0.0,0.0025,2
1668537977824971819,326846,1668537977905795530,gps,2,1,42.3009802915,-83.6979531818,272.248046875,0.000121,0.0,0.0,0.0,0.000169,0.0,0.0,0.0,0.0025,2
1668537977835091974,326847,1668537977915722505,gps,2,1,42.3009802895,-83.6979532294,272.248077393,0.000121,0.0,0.0,0.0,0.000169,0.0,0.0,0.0,0.0025,2
1668537977845019607,326848,1668537977925729800,gps,2,1,42.3009802896,-83.6979532821,272.248016357,0.000121,0.0,0.0,0.0,0.000169,0.0,0.0,0.0,0.0025,2
1668537977855127721,326849,1668537977935787545,gps,2,1,42.3009802896,-83.6979533319,272.247955322,0.000121,0.0,0.0,0.0,0.000169,0.0,0.0,0.0,0.0025,2
1668537977865374016,326850,1668537977945728928,gps,2,1,42.3009802877,-83.697953383,272.247955322,0.000121,0.0,0.0,0.0,0.000169,0.0,0.0,0.0,0.0025,2
1668537977875650797,326851,1668537977955732784,gps,2,1,42.3009802877,-83.6979534392,272.247894287,0.000121,0.0,0.0,0.0,0.000169,0.0,0.0,0.0,0.0025,2
1668537977885392474,326852,1668537977965804316,gps,2,1,42.3009802877,-83.6979534925,272.247833252,0.000121,0.0,0.0,0.0,0.000169,0.0,0.0,0.0,0.0025,2
1668537977895340628,326853,1668537977975735444,gps,2,1,42.3009802858,-83.6979535472,272.247833252,0.000121,0.0,0.0,0.0,0.000169,0.0,0.0,0.0,0.0025,2
1668537977905346529,326854,1668537977985729235,gps,2,1,42.3009802857,-83.6979536069,272.247741699,0.000121,0.0,0.0,0.0,0.000169,0.0,0.0,0.0,0.0025,2
1668537977915446123,326855,1668537977995865629,gps,2,1,42.3009802857,-83.6979536636,272.247680664,0.000121,0.0,0.0,0.0,0.000169,0.0,0.0,0.0,0.0025,2
1668537977925297315,326856,1668537978005815715,gps,2,1,42.3009802823,-83.6979537203,272.247619629,0.000121,0.0,0.0,0.0,0.000169,0.0,0.0,0.0,0.0025,2
1668537977935427814,326857,1668537978015756273,gps,2,1,42.3009802822,-83.6979537835,272.247528076,0.000121,0.0,0.0,0.0,0.000169,0.0,0.0,0.0,0.0025,2
1668537977945086339,326858,1668537978025867486,gps,2,1,42.3009802821,-83.6979538437,272.247467041,0.000121,0.0,0.0,0.0,0.000169,0.0,0.0,0.0,0.0025,2
1668537977955040218,326859,1668537978035789149,gps,2,1,42.3009802787,-83.6979539041,272.247375488,0.000121,0.0,0.0,0.0,0.000169,0.0,0.0,0.0,0.0025,2
1668537977965622528,326860,1668537978045953508,gps,2,1,42.3009802786,-83.6979539708,272.247283936,0.000121,0.0,0.0,0.0,0.000169,0.0,0.0,0.0,0.0025,2
1668537977975778793,326861,1668537978055738182,gps,2,1,42.3009802785,-83.6979540345,272.247192383,0.000121,0.0,0.0,0.0,0.000169,0.0,0.0,0.0,0.0025,2
1668537977985039770,326862,1668537978065782795,gps,2,1,42.3009802752,-83.6979540985,272.247131348,0.000121,0.0,0.0,0.0,0.000169,0.0,0.0,0.0,0.0025,2
1668537977995676296,326863,1668537978075884769,gps,2,1,42.300980275,-83.6979541685,272.247009277,0.000121,0.0,0.0,0.0,0.000169,0.0,0.0,0.0,0.0025,2
1668537978005367123,326864,1668537978085767860,gps,2,1,42.3009802749,-83.6979542358,272.246917725,0.000121,0.0,0.0,0.0,0.000169,0.0,0.0,0.0,0.0025,2
1668537978015679609,326865,1668537978095749227,gps,2,1,42.3009802717,-83.6979543033,272.246826172,0.000121,0.0,0.0,0.0,0.000169,0.0,0.0,0.0,0.0025,2
1668537978025241561,326866,1668537978105808418,gps,2,1,42.3009802715,-83.6979543769,272.246704102,0.000121,0.0,0.0,0.0,0.000169,0.0,0.0,0.0,0.0025,2
1668537978034960600,326867,1668537978115744965,gps,2,1,42.3009802714,-83.6979544476,272.246612549,0.000121,0.0,0.0,0.0,0.000169,0.0,0.0,0.0,0.0025,2
1668537978045284508,326868,1668537978125729141,gps,2,1,42.3009802683,-83.6979545185,272.246520996,0.000121,0.0,0.0,0.0,0.000169,0.0,0.0,0.0,0.0025,2
1668537978054957065,326869,1668537978135785706,gps,2,1,42.300980268,-83.6979545955,272.246368408,0.000121,0.0,0.0,0.0,0.000169,0.0,0.0,0.0,0.0025,2
1668537978065483802,326870,1668537978145745622,gps,2,1,42.3009802678,-83.6979546696,272.246276855,0.000121,0.0,0.0,0.0,0.000169,0.0,0.0,0.0,0.0025,2
1668537978075369886,326871,1668537978155722856,gps,2,1,42.3009802647,-83.6979547441,272.246154785,0.000121,0.0,0.0,0.0,0.000169,0.0,0.0,0.0,0.0025,2
1668537978085096542,326872,1668537978165795831,gps,2,1,42.3009802644,-83.6979548244,272.246032715,0.000121,0.0,0.0,0.0,0.000169,0.0,0.0,0.0,0.0025,2
1668537978094964282,326873,1668537978175743571,gps,2,1,42.3009802642,-83.6979549019,272.245880127,0.000121,0.0,0.0,0.0,0.000169,0.0,0.0,0.0,0.0025,2
1668537978104992827,326874,1668537978185736478,gps,2,1,42.3009802611,-83.6979549799,272.245758057,0.000121,0.0,0.0,0.0,0.000169,0.0,0.0,0.0,0.0025,2
1668537978115148495,326875,1668537978195795748,gps,2,1,42.3009802608,-83.6979550636,272.245605469,0.000121,0.0,0.0,0.0,0.000169,0.0,0.0,0.0,0.0025,2
1668537978125560887,326876,1668537978205743191,gps,2,1,42.3009802605,-83.6979551446,272.245452881,8.1e-05,0.0,0.0,0.0,8.1e-05,0.0,0.0,0.0,0.002401,2
1668537978135366305,326877,1668537978215733627,gps,2,1,42.3009802574,-83.697955226,272.245300293,8.1e-05,0.0,0.0,0.0,8.1e-05,0.0,0.0,0.0,0.002401,2
1668537978145227551,326878,1668537978225810233,gps,2,1,42.300980257,-83.6979553132,272.245147705,8.1e-05,0.0,0.0,0.0,8.1e-05,0.0,0.0,0.0,0.002401,2
1668537978155095936,326879,1668537978235732992,gps,2,1,42.3009802567,-83.6979553975,272.2449646,8.1e-05,0.0,0.0,0.0,8.1e-05,0.0,0.0,0.0,0.002401,2
1668537978165128003,326880,1668537978245733648,gps,2,1,42.3009802537,-83.6979554825,272.244812012,8.1e-05,0.0,0.0,0.0,8.1e-05,0.0,0.0,0.0,0.002401,2
1668537978175410313,326881,1668537978255820241,gps,2,1,42.3009802533,-83.697955573,272.244598389,8.1e-05,0.0,0.0,0.0,8.1e-05,0.0,0.0,0.0,0.002401,2
1668537978185121487,326882,1668537978265740694,gps,2,1,42.3009802528,-83.6979556607,272.244415283,8.1e-05,0.0,0.0,0.0,8.1e-05,0.0,0.0,0.0,0.002401,2
1668537978195592083,326883,1668537978275730530,gps,2,1,42.3009802499,-83.6979557492,272.244262695,8.1e-05,0.0,0.0,0.0,8.1e-05,0.0,0.0,0.0,0.002401,2
1668537978205182970,326884,1668537978285794780,gps,2,1,42.3009802495,-83.6979558433,272.244049072,8.1e-05,0.0,0.0,0.0,8.1e-05,0.0,0.0,0.0,0.002401,2
1668537978215321980,326885,1668537978295832354,gps,2,1,42.3009802492,-83.6979559344,272.243865967,8.1e-05,0.0,0.0,0.0,8.1e-05,0.0,0.0,0.0,0.002401,2
1668537978225232089,326886,1668537978305744861,gps,2,1,42.3009802463,-83.6979560264,272.243682861,8.1e-05,0.0,0.0,0.0,8.1e-05,0.0,0.0,0.0,0.002401,2
1668537978234919245,326887,1668537978315808325,gps,2,1,42.300980246,-83.6979561238,272.243469238,8.1e-05,0.0,0.0,0.0,8.1e-05,0.0,0.0,0.0,0.002401,2
1668537978245275793,326888,1668537978325738398,gps,2,1,42.3009802456,-83.6979562185,272.243255615,8.1e-05,0.0,0.0,0.0,8.1e-05,0.0,0.0,0.0,0.002401,2
1668537978255418432,326889,1668537978335740819,gps,2,1,42.3009802429,-83.697956314,272.24307251,8.1e-05,0.0,0.0,0.0,8.1e-05,0.0,0.0,0.0,0.002401,2
1668537978265328816,326890,1668537978345811912,gps,2,1,42.3009802425,-83.6979564149,272.242858887,8.1e-05,0.0,0.0,0.0,8.1e-05,0.0,0.0,0.0,0.002401,2
1668537978275151417,326891,1668537978355738029,gps,2,1,42.3009802421,-83.6979565128,272.242645264,8.1e-05,0.0,0.0,0.0,8.1e-05,0.0,0.0,0.0,0.002401,2
1668537978285280671,326892,1668537978365733467,gps,2,1,42.3009802394,-83.6979566118,272.242462158,8.1e-05,0.0,0.0,0.0,8.1e-05,0.0,0.0,0.0,0.002401,2
1668537978295683099,326893,1668537978375861248,gps,2,1,42.3009802391,-83.697956716,272.242218018,8.1e-05,0.0,0.0,0.0,8.1e-05,0.0,0.0,0.0,0.002401,2
1668537978305280002,326894,1668537978385856074,gps,2,1,42.3009802387,-83.6979568173,272.242034912,8.1e-05,0.0,0.0,0.0,8.1e-05,0.0,0.0,0.0,0.002401,2
1668537978315625235,326895,1668537978395758859,gps,2,1,42.3009802358,-83.6979569198,272.241821289,8.1e-05,0.0,0.0,0.0,8.1e-05,0.0,0.0,0.0,0.002401,2
1668537978325292115,326896,1668537978405824389,gps,2,1,42.3009802354,-83.6979570272,272.241607666,8.1e-05,0.0,0.0,0.0,8.1e-05,0.0,0.0,0.0,0.002401,2
1668537978335671283,326897,1668537978415748595,gps,2,1,42.300980235,-83.6979571319,272.241363525,8.1e-05,0.0,0.0,0.0,8.1e-05,0.0,0.0,0.0,0.002401,2
1668537978345116005,326898,1668537978425748890,gps,2,1,42.3009802322,-83.6979572376,272.241149902,8.1e-05,0.0,0.0,0.0,8.1e-05,0.0,0.0,0.0,0.002401,2
1668537978355087892,326899,1668537978435795056,gps,2,1,42.3009802319,-83.6979573483,272.240936279,8.1e-05,0.0,0.0,0.0,8.1e-05,0.0,0.0,0.0,0.002401,2
1668537978365097942,326900,1668537978445747069,gps,2,1,42.3009802315,-83.6979574562,272.240722656,8.1e-05,0.0,0.0,0.0,8.1e-05,0.0,0.0,0.0,0.002401,2
1668537978375213387,326901,1668537978455742376,gps,2,1,42.3009802288,-83.6979575653,272.240509033,8.1e-05,0.0,0.0,0.0,8.1e-05,0.0,0.0,0.0,0.002401,2
1668537978385002662,326902,1668537978465839966,gps,2,1,42.3009802285,-83.6979576791,272.240264893,8.1e-05,0.0,0.0,0.0,8.1e-05,0.0,0.0,0.0,0.002401,2
1668537978395144231,326903,1668537978475763142,gps,2,1,42.3009802282,-83.6979577903,272.24005127,8.1e-05,0.0,0.0,0.0,8.1e-05,0.0,0.0,0.0,0.002401,2
1668537978404952719,326904,1668537978485737925,gps,2,1,42.3009802255,-83.6979579027,272.239807129,8.1e-05,0.0,0.0,0.0,8.1e-05,0.0,0.0,0.0,0.002401,2
1668537978415018374,326905,1668537978495886222,gps,2,1,42.3009802252,-83.6979580197,272.239562988,8.1e-05,0.0,0.0,0.0,8.1e-05,0.0,0.0,0.0,0.002401,2
1668537978425533624,326906,1668537978505820842,gps,2,1,42.3009802249,-83.6979581341,272.239349365,8.1e-05,0.0,0.0,0.0,8.1e-05,0.0,0.0,0.0,0.002401,2
1668537978435470423,326907,1668537978515802522,gps,2,1,42.3009802205,-83.6979582461,272.238922119,8.1e-05,0.0,0.0,0.0,8.1e-05,0.0,0.0,0.0,0.002401,2
1668537978445344602,326908,1668537978525870564,gps,2,1,42.3009802201,-83.6979583663,272.238677979,8.1e-05,0.0,0.0,0.0,8.1e-05,0.0,0.0,0.0,0.002401,2
1668537978455650488,326909,1668537978535758464,gps,2,1,42.3009802197,-83.6979584839,272.238433838,8.1e-05,0.0,0.0,0.0,8.1e-05,0.0,0.0,0.0,0.002401,2
1668537978465269256,326910,1668537978545942504,gps,2,1,42.3009802154,-83.6979585993,272.238006592,8.1e-05,0.0,0.0,0.0,8.1e-05,0.0,0.0,0.0,0.002401,2
1668537978475431834,326911,1668537978555870497,gps,2,1,42.300980215,-83.6979587228,272.237762451,8.1e-05,0.0,0.0,0.0,8.1e-05,0.0,0.0,0.0,0.002401,2
1668537978485090024,326912,1668537978565752525,gps,2,1,42.3009802146,-83.6979588436,272.237518311,8.1e-05,0.0,0.0,0.0,8.1e-05,0.0,0.0,0.0,0.002401,2
1668537978495653204,326913,1668537978575731307,gps,2,1,42.3009802104,-83.6979589624,272.237091064,8.1e-05,0.0,0.0,0.0,8.1e-05,0.0,0.0,0.0,0.002401,2
1668537978505062696,326914,1668537978585846616,gps,2,1,42.30098021,-83.6979590892,272.236785889,8.1e-05,0.0,0.0,0.0,8.1e-05,0.0,0.0,0.0,0.002401,2
1668537978515176694,326915,1668537978595755496,gps,2,1,42.3009802096,-83.6979592133,272.236541748,8.1e-05,0.0,0.0,0.0,8.1e-05,0.0,0.0,0.0,0.002401,2
1668537978524993943,326916,1668537978605734479,gps,2,1,42.3009802055,-83.6979593357,272.236083984,8.1e-05,0.0,0.0,0.0,8.1e-05,0.0,0.0,0.0,0.002401,2
1668537978535160186,326917,1668537978615828585,gps,2,1,42.3009802051,-83.6979594659,272.235809326,8.1e-05,0.0,0.0,0.0,8.1e-05,0.0,0.0,0.0,0.002401,2
1668537978544937600,326918,1668537978625749103,gps,2,1,42.3009802048,-83.6979595932,272.23550415,8.1e-05,0.0,0.0,0.0,8.1e-05,0.0,0.0,0.0,0.002401,2
1668537978555063892,326919,1668537978635757076,gps,2,1,42.3009802008,-83.6979597192,272.235076904,8.1e-05,0.0,0.0,0.0,8.1e-05,0.0,0.0,0.0,0.002401,2
1668537978565480519,326920,1668537978645810240,gps,2,1,42.3009802005,-83.6979598529,272.234741211,8.1e-05,0.0,0.0,0.0,8.1e-05,0.0,0.0,0.0,0.002401,2
1668537978575021589,326921,1668537978655764984,gps,2,1,42.3009802001,-83.6979599837,272.234466553,8.1e-05,0.0,0.0,0.0,8.1e-05,0.0,0.0,0.0,0.002401,2
1668537978584951241,326922,1668537978665742889,gps,2,1,42.3009801963,-83.6979601134,272.234008789,8.1e-05,0.0,0.0,0.0,8.1e-05,0.0,0.0,0.0,0.002401,2
1668537978595448871,326923,1668537978675806623,gps,2,1,42.300980196,-83.6979602507,272.233673096,8.1e-05,0.0,0.0,0.0,8.1e-05,0.0,0.0,0.0,0.002401,2
1668537978605263255,326924,1668537978685757171,gps,2,1,42.3009801957,-83.697960385,272.23336792,8.1e-05,0.0,0.0,0.0,8.1e-05,0.0,0.0,0.0,0.002401,2
1668537978615448997,326925,1668537978695747753,gps,2,1,42.3009801921,-83.6979605184,272.232910156,8.1e-05,0.0,0.0,0.0,8.1e-05,0.0,0.0,0.0,0.002401,2
1668537978625384899,326926,1668537978705755430,gps,2,1,42.3009801919,-83.6979606593,272.232574463,8.1e-05,0.0,0.0,0.0,8.1e-05,0.0,0.0,0.0,0.002401,2
1668537978635530697,326927,1668537978715800458,gps,2,1,42.3009801916,-83.6979607972,272.23223877,8.1e-05,0.0,0.0,0.0,8.1e-05,0.0,0.0,0.0,0.002401,2
1668537978645107154,326928,1668537978725772265,gps,2,1,42.3009801881,-83.6979609342,272.231811523,8.1e-05,0.0,0.0,0.0,8.1e-05,0.0,0.0,0.0,0.002401,2
1668537978655179049,326929,1668537978735736590,gps,2,1,42.3009801879,-83.6979610786,272.23147583,8.1e-05,0.0,0.0,0.0,8.1e-05,0.0,0.0,0.0,0.002401,2
1668537978665006479,326930,1668537978745815740,gps,2,1,42.3009801877,-83.6979612202,272.231140137,8.1e-05,0.0,0.0,0.0,8.1e-05,0.0,0.0,0.0,0.002401,2
1668537978675156323,326931,1668537978755762191,gps,2,1,42.3009801844,-83.697961361,272.230712891,8.1e-05,0.0,0.0,0.0,8.1e-05,0.0,0.0,0.0,0.002401,2
1668537978685303383,326932,1668537978765826630,gps,2,1,42.3009801842,-83.697961509,272.230377197,8.1e-05,0.0,0.0,0.0,8.1e-05,0.0,0.0,0.0,0.002401,2
1668537978695041837,326933,1668537978775749443,gps,2,1,42.300980184,-83.6979616539,272.230072021,8.1e-05,0.0,0.0,0.0,8.1e-05,0.0,0.0,0.0,0.002401,2
1668537978704950304,326934,1668537978785745445,gps,2,1,42.3009801808,-83.6979617984,272.229644775,8.1e-05,0.0,0.0,0.0,8.1e-05,0.0,0.0,0.0,0.002401,2
1668537978715692946,326935,1668537978795916548,gps,2,1,42.3009801807,-83.6979619499,272.229309082,8.1e-05,0.0,0.0,0.0,8.1e-05,0.0,0.0,0.0,0.002401,2
1668537978725236780,326936,1668537978805762487,gps,2,1,42.3009801806,-83.6979620985,272.229003906,8.1e-05,0.0,0.0,0.0,8.1e-05,0.0,0.0,0.0,0.002401,2
1668537978735678690,326937,1668537978815758045,gps,2,1,42.3009801775,-83.6979622468,272.22857666,8.1e-05,0.0,0.0,0.0,8.1e-05,0.0,0.0,0.0,0.002401,2
1668537978745073947,326938,1668537978825753194,gps,2,1,42.3009801775,-83.6979624019,272.228271484,8.1e-05,0.0,0.0,0.0,8.1e-05,0.0,0.0,0.0,0.002401,2
1668537978755507565,326939,1668537978835822280,gps,2,1,42.3009801774,-83.697962554,272.227935791,8.1e-05,0.0,0.0,0.0,8.1e-05,0.0,0.0,0.0,0.002401,2
1668537978764862006,326940,1668537978845758594,gps,2,1,42.3009801744,-83.6979627061,272.227539062,8.1e-05,0.0,0.0,0.0,8.1e-05,0.0,0.0,0.0,0.002401,2
1668537978775417415,326941,1668537978855740941,gps,2,1,42.3009801743,-83.6979628649,272.227203369,8.1e-05,0.0,0.0,0.0,8.1e-05,0.0,0.0,0.0,0.002401,2
1668537978785305067,326942,1668537978865831054,gps,2,1,42.3009801744,-83.6979630206,272.226898193,8.1e-05,0.0,0.0,0.0,8.1e-05,0.0,0.0,0.0,0.002401,2
1668537978795360855,326943,1668537978875761665,gps,2,1,42.3009801712,-83.6979631765,272.22644043,8.1e-05,0.0,0.0,0.0,8.1e-05,0.0,0.0,0.0,0.002401,2
1668537978805005361,326944,1668537978885743213,gps,2,1,42.3009801711,-83.6979633388,272.226104736,8.1e-05,0.0,0.0,0.0,8.1e-05,0.0,0.0,0.0,0.002401,2
1668537978815076641,326945,1668537978895819816,gps,2,1,42.3009801711,-83.6979634982,272.225769043,8.1e-05,0.0,0.0,0.0,8.1e-05,0.0,0.0,0.0,0.002401,2
1668537978825080879,326946,1668537978905751764,gps,2,1,42.300980168,-83.6979636577,272.225311279,8.1e-05,0.0,0.0,0.0,8.1e-05,0.0,0.0,0.0,0.002401,2
1668537978835037045,326947,1668537978915752383,gps,2,1,42.300980168,-83.6979638235,272.224945068,8.1e-05,0.0,0.0,0.0,8.1e-05,0.0,0.0,0.0,0.002401,2
1668537978845158062,326948,1668537978925831076,gps,2,1,42.3009801681,-83.6979639863,272.224578857,8.1e-05,0.0,0.0,0.0,8.1e-05,0.0,0.0,0.0,0.002401,2
1668537978855027634,326949,1668537978935750633,gps,2,1,42.3009801651,-83.6979641494,272.224121094,8.1e-05,0.0,0.0,0.0,8.1e-05,0.0,0.0,0.0,0.002401,2
1668537978865321836,326950,1668537978945817844,gps,2,1,42.3009801654,-83.6979643186,272.223754883,8.1e-05,0.0,0.0,0.0,8.1e-05,0.0,0.0,0.0,0.002401,2
1668537978874959513,326951,1668537978955763652,gps,2,1,42.3009801655,-83.6979644849,272.223358154,8.1e-05,0.0,0.0,0.0,8.1e-05,0.0,0.0,0.0,0.002401,2
1668537978885108309,326952,1668537978965770400,gps,2,1,42.3009801627,-83.6979646514,272.222900391,8.1e-05,0.0,0.0,0.0,8.1e-05,0.0,0.0,0.0,0.002401,2
1668537978895585546,326953,1668537978975879495,gps,2,1,42.3009801631,-83.6979648239,272.222503662,8.1e-05,0.0,0.0,0.0,8.1e-05,0.0,0.0,0.0,0.002401,2
1668537978905125107,326954,1668537978985760678,gps,2,1,42.3009801633,-83.6979649936,272.222137451,8.1e-05,0.0,0.0,0.0,8.1e-05,0.0,0.0,0.0,0.002401,2
1668537978914959048,326955,1668537978995735948,gps,2,1,42.3009801607,-83.6979651636,272.22164917,8.1e-05,0.0,0.0,0.0,8.1e-05,0.0,0.0,0.0,0.002401,2
1668537978925133159,326956,1668537979005905689,gps,2,1,42.3009801612,-83.6979653394,272.221282959,8.1e-05,0.0,0.0,0.0,8.1e-05,0.0,0.0,0.0,0.002401,2
1668537978935392199,326957,1668537979015803127,gps,2,1,42.3009801615,-83.6979655122,272.22088623,8.1e-05,0.0,0.0,0.0,8.1e-05,0.0,0.0,0.0,0.002401,2
1668537978945012734,326958,1668537979025812539,gps,2,1,42.300980157,-83.6979656837,272.220275879,8.1e-05,0.0,0.0,0.0,8.1e-05,0.0,0.0,0.0,0.002401,2
1668537978955113536,326959,1668537979035809802,gps,2,1,42.3009801575,-83.6979658626,272.219909668,8.1e-05,0.0,0.0,0.0,8.1e-05,0.0,0.0,0.0,0.002401,2
1668537978965327594,326960,1668537979045922511,gps,2,1,42.300980158,-83.6979660388,272.219512939,8.1e-05,0.0,0.0,0.0,8.1e-05,0.0,0.0,0.0,0.002401,2
1668537978975040873,326961,1668537979055801462,gps,2,1,42.3009801537,-83.6979662137,272.218933105,8.1e-05,0.0,0.0,0.0,8.1e-05,0.0,0.0,0.0,0.002401,2
1668537978985262979,326962,1668537979065814296,gps,2,1,42.3009801543,-83.6979663956,272.218597412,8.1e-05,0.0,0.0,0.0,8.1e-05,0.0,0.0,0.0,0.002401,2
1668537978995456612,326963,1668537979075850646,gps,2,1,42.300980155,-83.6979665751,272.218200684,8.1e-05,0.0,0.0,0.0,8.1e-05,0.0,0.0,0.0,0.002401,2
1668537979005090985,326964,1668537979085795040,gps,2,1,42.3009801508,-83.6979667532,272.217651367,8.1e-05,0.0,0.0,0.0,8.1e-05,0.0,0.0,0.0,0.002401,2
1668537979015579474,326965,1668537979095767987,gps,2,1,42.3009801515,-83.6979669384,272.217285156,8.1e-05,0.0,0.0,0.0,8.1e-05,0.0,0.0,0.0,0.002401,2
1668537979025454093,326966,1668537979105826810,gps,2,1,42.3009801523,-83.6979671209,272.216918945,8.1e-05,0.0,0.0,0.0,8.1e-05,0.0,0.0,0.0,0.002401,2
1668537979035232156,326967,1668537979115763765,gps,2,1,42.3009801482,-83.6979673023,272.216369629,8.1e-05,0.0,0.0,0.0,8.1e-05,0.0,0.0,0.0,0.002401,2
1668537979045496497,326968,1668537979125767990,gps,2,1,42.3009801489,-83.6979674905,272.216003418,8.1e-05,0.0,0.0,0.0,8.1e-05,0.0,0.0,0.0,0.002401,2
1668537979055323652,326969,1668537979135831200,gps,2,1,42.3009801497,-83.6979676762,272.215606689,8.1e-05,0.0,0.0,0.0,8.1e-05,0.0,0.0,0.0,0.002401,2
1668537979065155019,326970,1668537979145750256,gps,2,1,42.3009801448,-83.697967861,272.215026855,8.1e-05,0.0,0.0,0.0,8.1e-05,0.0,0.0,0.0,0.002401,2
1668537979075157018,326971,1668537979155763792,gps,2,1,42.3009801455,-83.6979680523,272.214630127,8.1e-05,0.0,0.0,0.0,8.1e-05,0.0,0.0,0.0,0.002401,2
1668537979085346677,326972,1668537979165814696,gps,2,1,42.3009801461,-83.6979682411,272.214263916,8.1e-05,0.0,0.0,0.0,8.1e-05,0.0,0.0,0.0,0.002401,2
1668537979095087641,326973,1668537979175758196,gps,2,1,42.3009801414,-83.697968429,272.213653564,8.1e-05,0.0,0.0,0.0,8.1e-05,0.0,0.0,0.0,0.002401,2
1668537979105052230,326974,1668537979185770320,gps,2,1,42.3009801421,-83.6979686233,272.213256836,8.1e-05,0.0,0.0,0.0,8.1e-05,0.0,0.0,0.0,0.002401,2
1668537979115101132,326975,1668537979195828311,gps,2,1,42.3009801426,-83.6979688151,272.212860107,8.1e-05,0.0,0.0,0.0,8.1e-05,0.0,0.0,0.0,0.002401,2
1668537979125032969,326976,1668537979205771303,gps,2,1,42.300980138,-83.6979690062,272.212249756,0.000121,0.0,0.0,0.0,0.000144,0.0,0.0,0.0,0.0025,2
1668537979134977668,326977,1668537979215770132,gps,2,1,42.3009801385,-83.6979692036,272.211791992,0.000121,0.0,0.0,0.0,0.000144,0.0,0.0,0.0,0.0025,2
1668537979145529998,326978,1668537979225885164,gps,2,1,42.3009801392,-83.6979693984,272.211395264,0.000121,0.0,0.0,0.0,0.000144,0.0,0.0,0.0,0.0025,2
1668537979154958914,326979,1668537979235761950,gps,2,1,42.3009801345,-83.6979695928,272.210784912,0.000121,0.0,0.0,0.0,0.000144,0.0,0.0,0.0,0.0025,2
1668537979165424855,326980,1668537979245769255,gps,2,1,42.3009801349,-83.6979697935,272.210327148,0.000121,0.0,0.0,0.0,0.000144,0.0,0.0,0.0,0.0025,2
1668537979175710529,326981,1668537979255849459,gps,2,1,42.3009801355,-83.6979699915,272.209869385,0.000121,0.0,0.0,0.0,0.000144,0.0,0.0,0.0,0.0025,2
1668537979185298421,326982,1668537979265774198,gps,2,1,42.3009801308,-83.6979701891,272.209289551,0.000121,0.0,0.0,0.0,0.000144,0.0,0.0,0.0,0.0025,2
1668537979195394876,326983,1668537979275761326,gps,2,1,42.3009801311,-83.697970393,272.208831787,0.000121,0.0,0.0,0.0,0.000144,0.0,0.0,0.0,0.0025,2
1668537979205132170,326984,1668537979285823933,gps,2,1,42.3009801316,-83.6979705942,272.208374023,0.000121,0.0,0.0,0.0,0.000144,0.0,0.0,0.0,0.0025,2
1668537979215350224,326985,1668537979295847858,gps,2,1,42.3009801269,-83.6979707954,272.207794189,0.000121,0.0,0.0,0.0,0.000144,0.0,0.0,0.0,0.0025,2
1668537979225161496,326986,1668537979305770656,gps,2,1,42.3009801272,-83.6979710027,272.207366943,0.000121,0.0,0.0,0.0,0.000144,0.0,0.0,0.0,0.0025,2
1668537979235083467,326987,1668537979315841199,gps,2,1,42.3009801275,-83.6979712072,272.20690918,0.000121,0.0,0.0,0.0,0.000144,0.0,0.0,0.0,0.0025,2
1668537979244922409,326988,1668537979325839914,gps,2,1,42.3009801228,-83.6979714119,272.206359863,0.000121,0.0,0.0,0.0,0.000144,0.0,0.0,0.0,0.0025,2
1668537979255102533,326989,1668537979335807886,gps,2,1,42.3009801231,-83.6979716228,272.205963135,0.000121,0.0,0.0,0.0,0.000144,0.0,0.0,0.0,0.0025,2
1668537979265133817,326990,1668537979345829022,gps,2,1,42.3009801233,-83.6979718308,272.205535889,0.000121,0.0,0.0,0.0,0.000144,0.0,0.0,0.0,0.0025,2
1668537979274989196,326991,1668537979355770404,gps,2,1,42.3009801187,-83.6979720392,272.204986572,0.000121,0.0,0.0,0.0,0.000144,0.0,0.0,0.0,0.0025,2
1668537979285398158,326992,1668537979365774043,gps,2,1,42.3009801188,-83.6979722539,272.204589844,0.000121,0.0,0.0,0.0,0.000144,0.0,0.0,0.0,0.0025,2
1668537979295513196,326993,1668537979375844432,gps,2,1,42.3009801191,-83.6979724654,272.204193115,0.000121,0.0,0.0,0.0,0.000144,0.0,0.0,0.0,0.0025,2
1668537979305511170,326994,1668537979385772474,gps,2,1,42.3009801185,-83.6979726777,272.203643799,0.000121,0.0,0.0,0.0,0.000144,0.0,0.0,0.0,0.0025,2
1668537979315351904,326995,1668537979395770472,gps,2,1,42.3009801184,-83.6979728963,272.20324707,0.000121,0.0,0.0,0.0,0.000144,0.0,0.0,0.0,0.0025,2
1668537979325351131,326996,1668537979405834393,gps,2,1,42.3009801186,-83.6979731115,272.202850342,0.000121,0.0,0.0,0.0,0.000144,0.0,0.0,0.0,0.0025,2
1668537979334958520,326997,1668537979415756765,gps,2,1,42.3009801177,-83.6979733281,272.202301025,0.000121,0.0,0.0,0.0,0.000144,0.0,0.0,0.0,0.0025,2
1668537979345188311,326998,1668537979425847272,gps,2,1,42.3009801175,-83.6979735516,272.201812744,0.000121,0.0,0.0,0.0,0.000144,0.0,0.0,0.0,0.0025,2
1668537979355293789,326999,1668537979435844266,gps,2,1,42.3009801175,-83.6979737704,272.201416016,0.000121,0.0,0.0,0.0,0.000144,0.0,0.0,0.0,0.0025,2
1668537979365085046,327000,1668537979445754563,gps,2,1,42.300980117,-83.6979739905,272.200866699,0.000121,0.0,0.0,0.0,0.000144,0.0,0.0,0.0,0.0025,2
1668537979375049682,327001,1668537979455765798,gps,2,1,42.3009801167,-83.6979742163,272.200469971,0.000121,0.0,0.0,0.0,0.000144,0.0,0.0,0.0,0.0025,2
1668537979385181003,327002,1668537979465835285,gps,2,1,42.3009801166,-83.6979744409,272.199920654,0.000121,0.0,0.0,0.0,0.000144,0.0,0.0,0.0,0.0025,2
1668537979395135270,327003,1668537979475835452,gps,2,1,42.3009801163,-83.6979746645,272.19934082,0.000121,0.0,0.0,0.0,0.000144,0.0,0.0,0.0,0.0025,2
1668537979404907571,327004,1668537979485769955,gps,2,1,42.3009801166,-83.6979748935,272.198822021,0.000121,0.0,0.0,0.0,0.000144,0.0,0.0,0.0,0.0025,2
1668537979415060541,327005,1668537979495853514,gps,2,1,42.3009801174,-83.6979751193,272.198486328,0.000121,0.0,0.0,0.0,0.000144,0.0,0.0,0.0,0.0025,2
1668537979425198188,327006,1668537979505838058,gps,2,1,42.3009801262,-83.6979753481,272.197814941,0.000121,0.0,0.0,0.0,0.000144,0.0,0.0,0.0,0.0025,2
1668537979435719022,327007,1668537979515849617,gps,2,1,42.3009801277,-83.6979755807,272.197357178,0.000121,0.0,0.0,0.0,0.000144,0.0,0.0,0.0,0.0025,2
1668537979445190053,327008,1668537979525842149,gps,2,1,42.3009801286,-83.6979758099,272.196899414,0.000121,0.0,0.0,0.0,0.000144,0.0,0.0,0.0,0.0025,2
1668537979455515860,327009,1668537979535830097,gps,2,1,42.300980138,-83.6979760424,272.196228027,0.000121,0.0,0.0,0.0,0.000144,0.0,0.0,0.0,0.0025,2
1668537979465438018,327010,1668537979545976692,gps,2,1,42.30098014,-83.6979762787,272.195709229,0.000121,0.0,0.0,0.0,0.000144,0.0,0.0,0.0,0.0025,2
1668537979475528125,327011,1668537979555855746,gps,2,1,42.3009801413,-83.6979765124,272.195281982,0.000121,0.0,0.0,0.0,0.000144,0.0,0.0,0.0,0.0025,2
1668537979484936183,327012,1668537979565781232,gps,2,1,42.3009801511,-83.697976749,272.194580078,0.000121,0.0,0.0,0.0,0.000144,0.0,0.0,0.0,0.0025,2
1668537979495542428,327013,1668537979575730692,gps,2,1,42.3009801535,-83.6979769896,272.194061279,0.000121,0.0,0.0,0.0,0.000144,0.0,0.0,0.0,0.0025,2
1668537979505118176,327014,1668537979585756040,gps,2,1,42.3009801552,-83.6979772267,272.19354248,0.000121,0.0,0.0,0.0,0.000144,0.0,0.0,0.0,0.0025,2
1668537979515672905,327015,1668537979595850952,gps,2,1,42.3009801651,-83.6979774673,272.192840576,0.000121,0.0,0.0,0.0,0.000144,0.0,0.0,0.0,0.0025,2
1668537979525077244,327016,1668537979605773686,gps,2,1,42.3009801677,-83.697977712,272.192321777,0.000121,0.0,0.0,0.0,0.000144,0.0,0.0,0.0,0.0025,2
1668537979535646618,327017,1668537979615863135,gps,2,1,42.3009801699,-83.6979779534,272.191802979,0.000121,0.0,0.0,0.0,0.000144,0.0,0.0,0.0,0.0025,2
1668537979545062323,327018,1668537979625825603,gps,2,1,42.3009801796,-83.6979781982,272.191101074,0.000121,0.0,0.0,0.0,0.000144,0.0,0.0,0.0,0.0025,2
1668537979554987670,327019,1668537979635807430,gps,2,1,42.3009801824,-83.6979784471,272.190582275,0.000121,0.0,0.0,0.0,0.000144,0.0,0.0,0.0,0.0025,2
1668537979565583002,327020,1668537979645831135,gps,2,1,42.3009801847,-83.6979786926,272.190063477,0.000121,0.0,0.0,0.0,0.000144,0.0,0.0,0.0,0.0025,2
1668537979575123328,327021,1668537979655772642,gps,2,1,42.3009801945,-83.6979789416,272.18939209,0.000121,0.0,0.0,0.0,0.000144,0.0,0.0,0.0,0.0025,2
1668537979585340229,327022,1668537979665786009,gps,2,1,42.3009801972,-83.6979791948,272.188873291,0.000121,0.0,0.0,0.0,0.000144,0.0,0.0,0.0,0.0025,2
1668537979595641782,327023,1668537979675831774,gps,2,1,42.3009801998,-83.6979794443,272.188354492,0.000121,0.0,0.0,0.0,0.000144,0.0,0.0,0.0,0.0025,2
1668537979605140683,327024,1668537979685776561,gps,2,1,42.3009802095,-83.6979796976,272.187683105,0.000121,0.0,0.0,0.0,0.000144,0.0,0.0,0.0,0.0025,2
1668537979615316271,327025,1668537979695784132,gps,2,1,42.3009802123,-83.6979799548,272.187133789,0.000121,0.0,0.0,0.0,0.000144,0.0,0.0,0.0,0.0025,2
1668537979625274213,327026,1668537979705828155,gps,2,1,42.3009802151,-83.6979802086,272.186645508,0.000121,0.0,0.0,0.0,0.000144,0.0,0.0,0.0,0.0025,2
1668537979635205962,327027,1668537979715759848,gps,2,1,42.3009802246,-83.697980466,272.185943604,0.000121,0.0,0.0,0.0,0.000144,0.0,0.0,0.0,0.0025,2
1668537979645057682,327028,1668537979725865490,gps,2,1,42.3009802274,-83.6979807275,272.185333252,0.000121,0.0,0.0,0.0,0.000144,0.0,0.0,0.0,0.0025,2
1668537979655128393,327029,1668537979735827123,gps,2,1,42.3009802301,-83.6979809856,272.184783936,0.000121,0.0,0.0,0.0,0.000144,0.0,0.0,0.0,0.0025,2
1668537979664995410,327030,1668537979745768045,gps,2,1,42.3009802394,-83.6979812474,272.184051514,0.000121,0.0,0.0,0.0,0.000144,0.0,0.0,0.0,0.0025,2
1668537979675244039,327031,1668537979755798971,gps,2,1,42.3009802419,-83.6979815132,272.183380127,0.000121,0.0,0.0,0.0,0.000144,0.0,0.0,0.0,0.0025,2
1668537979685468788,327032,1668537979765847255,gps,2,1,42.3009802445,-83.6979817755,272.182800293,0.000121,0.0,0.0,0.0,0.000144,0.0,0.0,0.0,0.0025,2
1668537979695030858,327033,1668537979775790992,gps,2,1,42.3009802535,-83.6979820414,272.181976318,0.000121,0.0,0.0,0.0,0.000144,0.0,0.0,0.0,0.0025,2
1668537979704936492,327034,1668537979785783503,gps,2,1,42.3009802557,-83.6979823114,272.181274414,0.000121,0.0,0.0,0.0,0.000144,0.0,0.0,0.0,0.0025,2
1668537979715535441,327035,1668537979795927529,gps,2,1,42.3009802581,-83.697982578,272.180633545,0.000121,0.0,0.0,0.0,0.000144,0.0,0.0,0.0,0.0025,2
1668537979725007852,327036,1668537979805779328,gps,2,1,42.3009802667,-83.6979828483,272.179779053,0.000121,0.0,0.0,0.0,0.000144,0.0,0.0,0.0,0.0025,2
1668537979735360015,327037,1668537979815801457,gps,2,1,42.3009802685,-83.6979831227,272.179046631,0.000121,0.0,0.0,0.0,0.000144,0.0,0.0,0.0,0.0025,2
1668537979745037409,327038,1668537979825847741,gps,2,1,42.3009802707,-83.6979833932,272.178314209,0.000121,0.0,0.0,0.0,0.000144,0.0,0.0,0.0,0.0025,2
1668537979755260849,327039,1668537979835784113,gps,2,1,42.3009802788,-83.6979836678,272.177459717,0.000121,0.0,0.0,0.0,0.000144,0.0,0.0,0.0,0.0025,2
1668537979765285215,327040,1668537979845791155,gps,2,1,42.3009802803,-83.6979839461,272.176696777,0.000121,0.0,0.0,0.0,0.000144,0.0,0.0,0.0,0.0025,2
1668537979775375110,327041,1668537979855861918,gps,2,1,42.3009802822,-83.6979842211,272.175964355,0.000121,0.0,0.0,0.0,0.000144,0.0,0.0,0.0,0.0025,2
1668537979785096052,327042,1668537979865778156,gps,2,1,42.3009802901,-83.6979844998,272.175079346,0.000121,0.0,0.0,0.0,0.000144,0.0,0.0,0.0,0.0025,2
1668537979795057203,327043,1668537979875783665,gps,2,1,42.3009802916,-83.6979847823,272.174316406,0.000121,0.0,0.0,0.0,0.000144,0.0,0.0,0.0,0.0025,2
1668537979804972323,327044,1668537979885861577,gps,2,1,42.3009802931,-83.6979850614,272.173553467,0.000121,0.0,0.0,0.0,0.000144,0.0,0.0,0.0,0.0025,2
1668537979815073083,327045,1668537979895782266,gps,2,1,42.3009803016,-83.6979853441,272.172668457,0.000121,0.0,0.0,0.0,0.000144,0.0,0.0,0.0,0.0025,2
1668537979825406011,327046,1668537979905855601,gps,2,1,42.3009803031,-83.6979856308,272.171875,0.000121,0.0,0.0,0.0,0.000144,0.0,0.0,0.0,0.0025,2
1668537979835034588,327047,1668537979915780115,gps,2,1,42.3009803045,-83.6979859141,272.171112061,0.000121,0.0,0.0,0.0,0.000144,0.0,0.0,0.0,0.0025,2
1668537979845121445,327048,1668537979925774950,gps,2,1,42.300980313,-83.6979862009,272.170227051,0.000121,0.0,0.0,0.0,0.000144,0.0,0.0,0.0,0.0025,2
1668537979855096255,327049,1668537979935782312,gps,2,1,42.3009803145,-83.6979864918,272.169433594,0.000121,0.0,0.0,0.0,0.000144,0.0,0.0,0.0,0.0025,2
1668537979865357495,327050,1668537979945844118,gps,2,1,42.300980316,-83.6979867792,272.168670654,0.000121,0.0,0.0,0.0,0.000144,0.0,0.0,0.0,0.0025,2
1668537979875571525,327051,1668537979955787072,gps,2,1,42.3009803244,-83.6979870701,272.167755127,0.000121,0.0,0.0,0.0,0.000144,0.0,0.0,0.0,0.0025,2
1668537979885170434,327052,1668537979965797101,gps,2,1,42.300980326,-83.6979873651,272.166992188,0.000121,0.0,0.0,0.0,0.000144,0.0,0.0,0.0,0.0025,2
1668537979895439046,327053,1668537979975948113,gps,2,1,42.3009803276,-83.6979876565,272.16619873,0.000121,0.0,0.0,0.0,0.000144,0.0,0.0,0.0,0.0025,2
1668537979905128543,327054,1668537979985798399,gps,2,1,42.300980336,-83.6979879516,272.165313721,0.000121,0.0,0.0,0.0,0.000144,0.0,0.0,0.0,0.0025,2
1668537979915465127,327055,1668537979995814643,gps,2,1,42.3009803379,-83.6979882507,272.164520264,0.000121,0.0,0.0,0.0,0.000144,0.0,0.0,0.0,0.0025,2
1668537979925244642,327056,1668537980005921912,gps,2,1,42.3009803394,-83.6979885462,272.163757324,0.000121,0.0,0.0,0.0,0.000144,0.0,0.0,0.0,0.0025,2
1668537979935276764,327057,1668537980015822968,gps,2,1,42.3009803479,-83.6979888455,272.162902832,0.000121,0.0,0.0,0.0,0.000144,0.0,0.0,0.0,0.0025,2
1668537979945228733,327058,1668537980025902752,gps,2,1,42.3009803499,-83.6979891487,272.162139893,0.000121,0.0,0.0,0.0,0.000144,0.0,0.0,0.0,0.0025,2
1668537979955035079,327059,1668537980035834621,gps,2,1,42.3009803518,-83.6979894484,272.161346436,0.000121,0.0,0.0,0.0,0.000144,0.0,0.0,0.0,0.0025,2
1668537979965057323,327060,1668537980045928762,gps,2,1,42.3009803637,-83.6979897511,272.160614014,0.000121,0.0,0.0,0.0,0.000144,0.0,0.0,0.0,0.0025,2
1668537979975128292,327061,1668537980055857081,gps,2,1,42.3009803662,-83.6979900584,272.159851074,0.000121,0.0,0.0,0.0,0.000144,0.0,0.0,0.0,0.0025,2
1668537979985648980,327062,1668537980065911552,gps,2,1,42.3009803683,-83.6979903622,272.159118652,0.000121,0.0,0.0,0.0,0.000144,0.0,0.0,0.0,0.0025,2
1668537979995603322,327063,1668537980075858241,gps,2,1,42.3009803805,-83.697990669,272.15838623,0.000121,0.0,0.0,0.0,0.000144,0.0,0.0,0.0,0.0025,2
1668537980005274446,327064,1668537980085819905,gps,2,1,42.3009803834,-83.6979909803,272.157623291,0.000121,0.0,0.0,0.0,0.000144,0.0,0.0,0.0,0.0025,2
1668537980015459300,327065,1668537980095839755,gps,2,1,42.300980386,-83.6979912883,272.156890869,0.000121,0.0,0.0,0.0,0.000144,0.0,0.0,0.0,0.0025,2
1668537980025114206,327066,1668537980105785741,gps,2,1,42.3009803985,-83.6979915992,272.15612793,0.000121,0.0,0.0,0.0,0.000144,0.0,0.0,0.0,0.0025,2
1668537980035470211,327067,1668537980115796534,gps,2,1,42.3009804019,-83.6979919146,272.155395508,0.000121,0.0,0.0,0.0,0.000144,0.0,0.0,0.0,0.0025,2
1668537980045383877,327068,1668537980125865946,gps,2,1,42.3009804048,-83.6979922267,272.154663086,0.000121,0.0,0.0,0.0,0.000144,0.0,0.0,0.0,0.0025,2
1668537980055383262,327069,1668537980135788478,gps,2,1,42.3009804188,-83.6979925417,272.153930664,0.000121,0.0,0.0,0.0,0.000144,0.0,0.0,0.0,0.0025,2
1668537980065394165,327070,1668537980145772296,gps,2,1,42.3009804223,-83.697992861,272.153198242,0.000121,0.0,0.0,0.0,0.000144,0.0,0.0,0.0,0.0025,2
1668537980075339431,327071,1668537980155841603,gps,2,1,42.3009804256,-83.697993177,272.15246582,0.000121,0.0,0.0,0.0,0.000144,0.0,0.0,0.0,0.0025,2
1668537980085046963,327072,1668537980165777802,gps,2,1,42.3009804394,-83.697993496,272.151733398,0.000121,0.0,0.0,0.0,0.000144,0.0,0.0,0.0,0.0025,2
1668537980095279033,327073,1668537980175776524,gps,2,1,42.3009804428,-83.6979938193,272.151000977,0.000121,0.0,0.0,0.0,0.000144,0.0,0.0,0.0,0.0025,2
1668537980105021006,327074,1668537980185845433,gps,2,1,42.3009804464,-83.6979941391,272.150268555,0.000121,0.0,0.0,0.0,0.000144,0.0,0.0,0.0,0.0025,2
1668537980115075324,327075,1668537980195787054,gps,2,1,42.3009804599,-83.6979944622,272.149536133,0.000121,0.0,0.0,0.0,0.000144,0.0,0.0,0.0,0.0025,2
1668537980125580337,327076,1668537980205797032,gps,2,1,42.3009804631,-83.6979947893,272.148773193,0.000121,0.0,0.0,0.0,0.000289,0.0,0.0,0.0,0.0025,2
1668537980135055969,327077,1668537980215859185,gps,2,1,42.3009804662,-83.6979951133,272.148010254,0.000121,0.0,0.0,0.0,0.000289,0.0,0.0,0.0,0.0025,2
1668537980145211475,327078,1668537980225868624,gps,2,1,42.3009804793,-83.6979954402,272.147216797,0.000121,0.0,0.0,0.0,0.000289,0.0,0.0,0.0,0.0025,2
1668537980155448356,327079,1668537980235799939,gps,2,1,42.3009804819,-83.6979957711,272.14642334,0.000121,0.0,0.0,0.0,0.000289,0.0,0.0,0.0,0.0025,2
1668537980165362878,327080,1668537980245844724,gps,2,1,42.3009804848,-83.697996099,272.1456604,0.000121,0.0,0.0,0.0,0.000289,0.0,0.0,0.0,0.0025,2
1668537980175409779,327081,1668537980255818098,gps,2,1,42.3009804974,-83.6979964297,272.144866943,0.000121,0.0,0.0,0.0,0.000289,0.0,0.0,0.0,0.0025,2
1668537980185130853,327082,1668537980265804406,gps,2,1,42.3009804996,-83.6979967643,272.144104004,0.000121,0.0,0.0,0.0,0.000289,0.0,0.0,0.0,0.0025,2
1668537980195509520,327083,1668537980275836767,gps,2,1,42.3009805023,-83.6979970959,272.143341064,0.000121,0.0,0.0,0.0,0.000289,0.0,0.0,0.0,0.0025,2
1668537980205126577,327084,1668537980285793139,gps,2,1,42.3009805144,-83.6979974306,272.142578125,0.000121,0.0,0.0,0.0,0.000289,0.0,0.0,0.0,0.0025,2
1668537980215089184,327085,1668537980295873559,gps,2,1,42.3009805164,-83.6979977692,272.141876221,0.000121,0.0,0.0,0.0,0.000289,0.0,0.0,0.0,0.0025,2
1668537980225140886,327086,1668537980305869113,gps,2,1,42.3009805188,-83.6979981045,272.141082764,0.000121,0.0,0.0,0.0,0.000289,0.0,0.0,0.0,0.0025,2
1668537980235188972,327087,1668537980315807319,gps,2,1,42.3009805304,-83.697998443,272.140350342,0.000121,0.0,0.0,0.0,0.000289,0.0,0.0,0.0,0.0025,2
1668537980245100826,327088,1668537980325802816,gps,2,1,42.3009805323,-83.6979987852,272.139648438,0.000121,0.0,0.0,0.0,0.000289,0.0,0.0,0.0,0.0025,2
1668537980255027452,327089,1668537980335880978,gps,2,1,42.3009805343,-83.6979991244,272.138916016,0.000121,0.0,0.0,0.0,0.000289,0.0,0.0,0.0,0.0025,2
1668537980264870475,327090,1668537980345801850,gps,2,1,42.3009805457,-83.6979994668,272.138183594,0.000121,0.0,0.0,0.0,0.000289,0.0,0.0,0.0,0.0025,2
1668537980274905959,327091,1668537980355793889,gps,2,1,42.3009805473,-83.697999813,272.137451172,0.000121,0.0,0.0,0.0,0.000289,0.0,0.0,0.0,0.0025,2
1668537980285419474,327092,1668537980365872296,gps,2,1,42.3009805492,-83.6980001558,272.13671875,0.000121,0.0,0.0,0.0,0.000289,0.0,0.0,0.0,0.0025,2
1668537980295707144,327093,1668537980375789520,gps,2,1,42.3009805616,-83.6980005018,272.135986328,0.000121,0.0,0.0,0.0,0.000289,0.0,0.0,0.0,0.0025,2
1668537980305253468,327094,1668537980385812759,gps,2,1,42.3009805632,-83.698000852,272.135223389,0.000121,0.0,0.0,0.0,0.000289,0.0,0.0,0.0,0.0025,2
1668537980315569677,327095,1668537980395856537,gps,2,1,42.3009805649,-83.6980011987,272.134460449,0.000121,0.0,0.0,0.0,0.000289,0.0,0.0,0.0,0.0025,2
1668537980325104359,327096,1668537980405808671,gps,2,1,42.3009805773,-83.6980015487,272.13369751,0.000121,0.0,0.0,0.0,0.000289,0.0,0.0,0.0,0.0025,2
1668537980335483125,327097,1668537980415784241,gps,2,1,42.3009805789,-83.6980019027,272.132904053,0.000121,0.0,0.0,0.0,0.000289,0.0,0.0,0.0,0.0025,2
1668537980345162303,327098,1668537980425911679,gps,2,1,42.3009805807,-83.6980022535,272.132110596,0.000121,0.0,0.0,0.0,0.000289,0.0,0.0,0.0,0.0025,2
1668537980355239784,327099,1668537980435799335,gps,2,1,42.3009805931,-83.6980026074,272.131317139,0.000121,0.0,0.0,0.0,0.000289,0.0,0.0,0.0,0.0025,2
1668537980365062621,327100,1668537980445794668,gps,2,1,42.3009805951,-83.6980029649,272.130523682,0.000121,0.0,0.0,0.0,0.000289,0.0,0.0,0.0,0.0025,2
1668537980375079026,327101,1668537980455860323,gps,2,1,42.3009805971,-83.6980033193,272.129730225,0.000121,0.0,0.0,0.0,0.000289,0.0,0.0,0.0,0.0025,2
1668537980385078752,327102,1668537980465809077,gps,2,1,42.3009806096,-83.6980036765,272.128997803,0.000121,0.0,0.0,0.0,0.000289,0.0,0.0,0.0,0.0025,2
1668537980395076713,327103,1668537980475883943,gps,2,1,42.3009806121,-83.6980040372,272.128295898,0.000121,0.0,0.0,0.0,0.000289,0.0,0.0,0.0,0.0025,2
1668537980405151554,327104,1668537980485855959,gps,2,1,42.3009806141,-83.6980043953,272.127502441,0.000121,0.0,0.0,0.0,0.000289,0.0,0.0,0.0,0.0025,2
1668537980415596483,327105,1668537980495835395,gps,2,1,42.3009806271,-83.698004756,272.126861572,0.000121,0.0,0.0,0.0,0.000289,0.0,0.0,0.0,0.0025,2
1668537980425406560,327106,1668537980505886400,gps,2,1,42.3009806299,-83.6980051204,272.126281738,0.000121,0.0,0.0,0.0,0.000289,0.0,0.0,0.0,0.0025,2
1668537980435248756,327107,1668537980515873348,gps,2,1,42.3009806323,-83.6980054815,272.125579834,0.000121,0.0,0.0,0.0,0.000289,0.0,0.0,0.0,0.0025,2
1668537980445314212,327108,1668537980525875375,gps,2,1,42.3009806452,-83.6980058456,272.125030518,0.000121,0.0,0.0,0.0,0.000289,0.0,0.0,0.0,0.0025,2
1668537980455349409,327109,1668537980535882843,gps,2,1,42.3009806481,-83.6980062132,272.124511719,0.000121,0.0,0.0,0.0,0.000289,0.0,0.0,0.0,0.0025,2
1668537980465230091,327110,1668537980546011340,gps,2,1,42.3009806512,-83.698006578,272.123931885,0.000121,0.0,0.0,0.0,0.000289,0.0,0.0,0.0,0.0025,2
1668537980475678253,327111,1668537980555862818,gps,2,1,42.300980677,-83.6980069433,272.123687744,0.000121,0.0,0.0,0.0,0.000289,0.0,0.0,0.0,0.0025,2
1668537980485150572,327112,1668537980565886374,gps,2,1,42.3009806802,-83.6980073144,272.123138428,0.000121,0.0,0.0,0.0,0.000289,0.0,0.0,0.0,0.0025,2
1668537980495140225,327113,1668537980575857560,gps,2,1,42.3009806832,-83.6980076827,272.122619629,0.000121,0.0,0.0,0.0,0.000289,0.0,0.0,0.0,0.0025,2
1668537980505005218,327114,1668537980585804877,gps,2,1,42.3009807087,-83.6980080512,272.122375488,0.000121,0.0,0.0,0.0,0.000289,0.0,0.0,0.0,0.0025,2
1668537980515150071,327115,1668537980595794823,gps,2,1,42.3009807111,-83.6980084257,272.121704102,0.000121,0.0,0.0,0.0,0.000289,0.0,0.0,0.0,0.0025,2
1668537980525049542,327116,1668537980605888998,gps,2,1,42.3009807146,-83.6980087981,272.121246338,0.000121,0.0,0.0,0.0,0.000289,0.0,0.0,0.0,0.0025,2
1668537980535164899,327117,1668537980615804029,gps,2,1,42.3009807394,-83.6980091706,272.120941162,0.000121,0.0,0.0,0.0,0.000289,0.0,0.0,0.0,0.0025,2
1668537980545598971,327118,1668537980625873773,gps,2,1,42.300980742,-83.6980095477,272.120391846,0.000121,0.0,0.0,0.0,0.000289,0.0,0.0,0.0,0.0025,2
1668537980555085507,327119,1668537980635870716,gps,2,1,42.3009807452,-83.6980099228,272.119812012,0.000121,0.0,0.0,0.0,0.000289,0.0,0.0,0.0,0.0025,2
1668537980564936972,327120,1668537980645817099,gps,2,1,42.3009807696,-83.6980102972,272.119598389,0.000121,0.0,0.0,0.0,0.000289,0.0,0.0,0.0,0.0025,2
1668537980575333518,327121,1668537980655814255,gps,2,1,42.3009807733,-83.6980106776,272.119171143,0.000121,0.0,0.0,0.0,0.000289,0.0,0.0,0.0,0.0025,2
1668537980585191156,327122,1668537980665866655,gps,2,1,42.300980776,-83.698011055,272.118560791,0.000121,0.0,0.0,0.0,0.000289,0.0,0.0,0.0,0.0025,2
1668537980595767649,327123,1668537980675791619,gps,2,1,42.3009807987,-83.698011434,272.118377686,0.000121,0.0,0.0,0.0,0.000289,0.0,0.0,0.0,0.0025,2
1668537980605110878,327124,1668537980685825653,gps,2,1,42.3009808028,-83.6980118192,272.117919922,0.000121,0.0,0.0,0.0,0.000289,0.0,0.0,0.0,0.0025,2
1668537980615132275,327125,1668537980695861738,gps,2,1,42.300980806,-83.6980121997,272.117431641,0.000121,0.0,0.0,0.0,0.000289,0.0,0.0,0.0,0.0025,2
1668537980625382218,327126,1668537980705806491,gps,2,1,42.3009808286,-83.6980125824,272.117156982,0.000121,0.0,0.0,0.0,0.000289,0.0,0.0,0.0,0.0025,2
1668537980634934050,327127,1668537980715792337,gps,2,1,42.3009808325,-83.6980129698,272.116546631,0.000121,0.0,0.0,0.0,0.000289,0.0,0.0,0.0,0.0025,2
1668537980645186309,327128,1668537980725958005,gps,2,1,42.3009808358,-83.6980133557,272.11605835,0.000121,0.0,0.0,0.0,0.000289,0.0,0.0,0.0,0.0025,2
1668537980655020952,327129,1668537980735796177,gps,2,1,42.3009808582,-83.6980137412,272.115661621,0.000121,0.0,0.0,0.0,0.000289,0.0,0.0,0.0,0.0025,2
1668537980664926775,327130,1668537980745802590,gps,2,1,42.3009808619,-83.6980141321,272.114929199,0.000121,0.0,0.0,0.0,0.000289,0.0,0.0,0.0,0.0025,2
1668537980675483347,327131,1668537980755874608,gps,2,1,42.3009808654,-83.6980145203,272.114318848,0.000121,0.0,0.0,0.0,0.000289,0.0,0.0,0.0,0.0025,2
1668537980685309906,327132,1668537980765808253,gps,2,1,42.3009808874,-83.69801491,272.113800049,0.000121,0.0,0.0,0.0,0.000289,0.0,0.0,0.0,0.0025,2
1668537980694943707,327133,1668537980775797581,gps,2,1,42.3009808908,-83.6980153048,272.112915039,0.000121,0.0,0.0,0.0,0.000289,0.0,0.0,0.0,0.0025,2
1668537980705504734,327134,1668537980785873814,gps,2,1,42.3009808946,-83.6980156961,272.112182617,0.000121,0.0,0.0,0.0,0.000289,0.0,0.0,0.0,0.0025,2
1668537980715653301,327135,1668537980795899681,gps,2,1,42.3009809161,-83.6980160893,272.111480713,0.000121,0.0,0.0,0.0,0.000289,0.0,0.0,0.0,0.0025,2
1668537980725099453,327136,1668537980805822829,gps,2,1,42.3009809197,-83.6980164871,272.11050415,0.000121,0.0,0.0,0.0,0.000289,0.0,0.0,0.0,0.0025,2
1668537980735330131,327137,1668537980815875999,gps,2,1,42.3009809233,-83.6980168822,272.109619141,0.000121,0.0,0.0,0.0,0.000289,0.0,0.0,0.0,0.0025,2
1668537980745087447,327138,1668537980825795709,gps,2,1,42.3009809444,-83.6980172785,272.108795166,0.000121,0.0,0.0,0.0,0.000289,0.0,0.0,0.0,0.0025,2
1668537980755422834,327139,1668537980835825025,gps,2,1,42.3009809479,-83.6980176793,272.107696533,0.000121,0.0,0.0,0.0,0.000289,0.0,0.0,0.0,0.0025,2
1668537980765267812,327140,1668537980845842866,gps,2,1,42.3009809513,-83.6980180778,272.106628418,0.000121,0.0,0.0,0.0,0.000289,0.0,0.0,0.0,0.0025,2
1668537980775409951,327141,1668537980855807844,gps,2,1,42.300980972,-83.6980184775,272.105682373,0.000121,0.0,0.0,0.0,0.000289,0.0,0.0,0.0,0.0025,2
1668537980785079377,327142,1668537980865796759,gps,2,1,42.3009809752,-83.698018882,272.104400635,0.000121,0.0,0.0,0.0,0.000289,0.0,0.0,0.0,0.0025,2
1668537980795071116,327143,1668537980875899207,gps,2,1,42.3009809786,-83.6980192835,272.103302002,0.000121,0.0,0.0,0.0,0.000289,0.0,0.0,0.0,0.0025,2
1668537980805112417,327144,1668537980885796819,gps,2,1,42.3009809988,-83.6980196867,272.102203369,0.000121,0.0,0.0,0.0,0.000289,0.0,0.0,0.0,0.0025,2
1668537980815621046,327145,1668537980895815925,gps,2,1,42.3009810018,-83.6980200948,272.100891113,0.000121,0.0,0.0,0.0,0.000289,0.0,0.0,0.0,0.0025,2
1668537980824999416,327146,1668537980905876533,gps,2,1,42.3009810053,-83.6980204996,272.099639893,0.000121,0.0,0.0,0.0,0.000289,0.0,0.0,0.0,0.0025,2
1668537980835093049,327147,1668537980915806528,gps,2,1,42.3009810248,-83.6980209064,272.098510742,0.000121,0.0,0.0,0.0,0.000289,0.0,0.0,0.0,0.0025,2
1668537980844953555,327148,1668537980925808702,gps,2,1,42.3009810275,-83.6980213175,272.097167969,0.000121,0.0,0.0,0.0,0.000289,0.0,0.0,0.0,0.0025,2
1668537980855200803,327149,1668537980935864019,gps,2,1,42.3009810306,-83.6980217261,272.09588623,0.000121,0.0,0.0,0.0,0.000289,0.0,0.0,0.0,0.0025,2
1668537980865094625,327150,1668537980945806973,gps,2,1,42.3009810495,-83.6980221362,272.094726562,0.000121,0.0,0.0,0.0,0.000289,0.0,0.0,0.0,0.0025,2
1668537980875561844,327151,1668537980955808530,gps,2,1,42.3009810519,-83.698022551,272.093444824,0.000121,0.0,0.0,0.0,0.000289,0.0,0.0,0.0,0.0025,2
1668537980885223407,327152,1668537980965883177,gps,2,1,42.3009810545,-83.6980229626,272.092102051,0.000121,0.0,0.0,0.0,0.000289,0.0,0.0,0.0,0.0025,2
1668537980895572747,327153,1668537980975889455,gps,2,1,42.3009810727,-83.6980233765,272.0909729,0.000121,0.0,0.0,0.0,0.000289,0.0,0.0,0.0,0.0025,2
1668537980905086263,327154,1668537980985811728,gps,2,1,42.3009810748,-83.6980237949,272.089660645,0.000121,0.0,0.0,0.0,0.000289,0.0,0.0,0.0,0.0025,2
1668537980915181180,327155,1668537980995908650,gps,2,1,42.3009810773,-83.6980242103,272.088378906,0.000121,0.0,0.0,0.0,0.000289,0.0,0.0,0.0,0.0025,2
1668537980925400726,327156,1668537981005891755,gps,2,1,42.3009810944,-83.6980246265,272.087371826,0.000121,0.0,0.0,0.0,0.000289,0.0,0.0,0.0,0.0025,2
1668537980935150015,327157,1668537981015824636,gps,2,1,42.3009810967,-83.6980250482,272.086090088,0.000121,0.0,0.0,0.0,0.000289,0.0,0.0,0.0,0.0025,2
1668537980945094102,327158,1668537981025931104,gps,2,1,42.300981099,-83.6980254675,272.08480835,0.000121,0.0,0.0,0.0,0.000289,0.0,0.0,0.0,0.0025,2
1668537980955443018,327159,1668537981035891659,gps,2,1,42.3009811159,-83.6980258871,272.08380127,0.000121,0.0,0.0,0.0,0.000289,0.0,0.0,0.0,0.0025,2
1668537980965487891,327160,1668537981045947566,gps,2,1,42.3009811184,-83.6980263122,272.082489014,0.000121,0.0,0.0,0.0,0.000289,0.0,0.0,0.0,0.0025,2
1668537980975034159,327161,1668537981055914154,gps,2,1,42.3009811207,-83.6980267346,272.081207275,0.000121,0.0,0.0,0.0,0.000289,0.0,0.0,0.0,0.0025,2
1668537980985214678,327162,1668537981065882614,gps,2,1,42.3009811377,-83.6980271577,272.080169678,0.000121,0.0,0.0,0.0,0.000289,0.0,0.0,0.0,0.0025,2
1668537980995700721,327163,1668537981075918410,gps,2,1,42.3009811404,-83.6980275864,272.078826904,0.000121,0.0,0.0,0.0,0.000289,0.0,0.0,0.0,0.0025,2
1668537981005165473,327164,1668537981085882095,gps,2,1,42.3009811427,-83.698028012,272.077545166,0.000121,0.0,0.0,0.0,0.000289,0.0,0.0,0.0,0.0025,2
1668537981015341699,327165,1668537981095814781,gps,2,1,42.3009811596,-83.6980284385,272.076507568,0.000121,0.0,0.0,0.0,0.000289,0.0,0.0,0.0,0.0025,2
