%time,field.header.seq,field.header.stamp,field.header.frame_id,field.status.status,field.status.service,field.latitude,field.longitude,field.altitude,field.position_covariance0,field.position_covariance1,field.position_covariance2,field.position_covariance3,field.position_covariance4,field.position_covariance5,field.position_covariance6,field.position_covariance7,field.position_covariance8,field.position_covariance_type
1668539208435954998,449907,1668539208517899251,gps,2,1,42.3009508063,-83.6978969146,272.300323486,8.1e-05,0.0,0.0,0.0,8.1e-05,0.0,0.0,0.0,0.0016,2
1668539208445832381,449908,1668539208527965884,gps,2,1,42.300950806,-83.6978969157,272.300323486,8.1e-05,0.0,0.0,0.0,8.1e-05,0.0,0.0,0.0,0.0016,2
1668539208455891902,449909,1668539208537845980,gps,2,1,42.3009508057,-83.6978969169,272.300354004,8.1e-05,0.0,0.0,0.0,8.1e-05,0.0,0.0,0.0,0.0016,2
1668539208465908480,449910,1668539208547911392,gps,2,1,42.3009508058,-83.6978969145,272.300537109,8.1e-05,0.0,0.0,0.0,8.1e-05,0.0,0.0,0.0,0.0016,2
1668539208475675105,449911,1668539208557904609,gps,2,1,42.3009508055,-83.6978969156,272.300537109,8.1e-05,0.0,0.0,0.0,8.1e-05,0.0,0.0,0.0,0.0016,2
1668539208486002501,449912,1668539208567831899,gps,2,1,42.3009508052,-83.6978969167,272.300567627,8.1e-05,0.0,0.0,0.0,8.1e-05,0.0,0.0,0.0,0.0016,2
1668539208495502222,449913,1668539208577823737,gps,2,1,42.3009508054,-83.6978969143,272.300750732,8.1e-05,0.0,0.0,0.0,8.1e-05,0.0,0.0,0.0,0.0016,2
1668539208505873214,449914,1668539208587896915,gps,2,1,42.3009508051,-83.6978969154,272.300750732,8.1e-05,0.0,0.0,0.0,8.1e-05,0.0,0.0,0.0,0.0016,2
1668539208515788516,449915,1668539208597855250,gps,2,1,42.3009508048,-83.6978969165,272.30078125,8.1e-05,0.0,0.0,0.0,8.1e-05,0.0,0.0,0.0,0.0016,2
1668539208525848957,449916,1668539208607837565,gps,2,1,42.300950805,-83.6978969142,272.300933838,8.1e-05,0.0,0.0,0.0,8.1e-05,0.0,0.0,0.0,0.0016,2
1668539208535847481,449917,1668539208617839945,gps,2,1,42.3009508047,-83.6978969153,272.300964355,8.1e-05,0.0,0.0,0.0,8.1e-05,0.0,0.0,0.0,0.0016,2
1668539208545827708,449918,1668539208627898175,gps,2,1,42.3009508044,-83.6978969164,272.300994873,8.1e-05,0.0,0.0,0.0,8.1e-05,0.0,0.0,0.0,0.0016,2
1668539208555814494,449919,1668539208637833046,gps,2,1,42.3009508046,-83.6978969142,272.301147461,8.1e-05,0.0,0.0,0.0,8.1e-05,0.0,0.0,0.0,0.0016,2
1668539208565739466,449920,1668539208647821989,gps,2,1,42.3009508043,-83.6978969153,272.301177979,8.1e-05,0.0,0.0,0.0,8.1e-05,0.0,0.0,0.0,0.0016,2
1668539208576207355,449921,1668539208657889819,gps,2,1,42.300950804,-83.6978969164,272.301177979,8.1e-05,0.0,0.0,0.0,8.1e-05,0.0,0.0,0.0,0.0016,2
1668539208585526873,449922,1668539208667827359,gps,2,1,42.3009508042,-83.6978969143,272.301330566,8.1e-05,0.0,0.0,0.0,8.1e-05,0.0,0.0,0.0,0.0016,2
1668539208595999536,449923,1668539208677892756,gps,2,1,42.3009508039,-83.6978969154,272.301361084,8.1e-05,0.0,0.0,0.0,8.1e-05,0.0,0.0,0.0,0.0016,2
1668539208606199974,449924,1668539208687873533,gps,2,1,42.3009508037,-83.6978969166,272.301361084,8.1e-05,0.0,0.0,0.0,8.1e-05,0.0,0.0,0.0,0.0016,2
1668539208615582937,449925,1668539208697832893,gps,2,1,42.3009508038,-83.6978969146,272.301513672,8.1e-05,0.0,0.0,0.0,8.1e-05,0.0,0.0,0.0,0.0016,2
1668539208625809408,449926,1668539208707906701,gps,2,1,42.3009508035,-83.6978969157,272.301513672,8.1e-05,0.0,0.0,0.0,8.1e-05,0.0,0.0,0.0,0.0016,2
1668539208636057149,449927,1668539208717834631,gps,2,1,42.3009508032,-83.6978969169,272.301544189,8.1e-05,0.0,0.0,0.0,8.1e-05,0.0,0.0,0.0,0.0016,2
1668539208645700589,449928,1668539208727844518,gps,2,1,42.3009508033,-83.697896915,272.30166626,8.1e-05,0.0,0.0,0.0,8.1e-05,0.0,0.0,0.0,0.0016,2
1668539208655749875,449929,1668539208737900630,gps,2,1,42.300950803,-83.6978969161,272.30166626,8.1e-05,0.0,0.0,0.0,8.1e-05,0.0,0.0,0.0,0.0016,2
1668539208665716781,449930,1668539208747847329,gps,2,1,42.3009508027,-83.6978969173,272.301696777,8.1e-05,0.0,0.0,0.0,8.1e-05,0.0,0.0,0.0,0.0016,2
1668539208675765372,449931,1668539208757969048,gps,2,1,42.3009508027,-83.6978969155,272.301818848,8.1e-05,0.0,0.0,0.0,8.1e-05,0.0,0.0,0.0,0.0016,2
1668539208685867151,449932,1668539208767891911,gps,2,1,42.3009508024,-83.6978969167,272.301849365,8.1e-05,0.0,0.0,0.0,8.1e-05,0.0,0.0,0.0,0.0016,2
1668539208695727910,449933,1668539208777839597,gps,2,1,42.300950802,-83.6978969178,272.301849365,8.1e-05,0.0,0.0,0.0,8.1e-05,0.0,0.0,0.0,0.0016,2
1668539208705648712,449934,1668539208787827850,gps,2,1,42.3009508021,-83.6978969161,272.301971436,8.1e-05,0.0,0.0,0.0,8.1e-05,0.0,0.0,0.0,0.0016,2
1668539208715647124,449935,1668539208797827918,gps,2,1,42.3009508018,-83.6978969173,272.302001953,8.1e-05,0.0,0.0,0.0,8.1e-05,0.0,0.0,0.0,0.0016,2
1668539208725940934,449936,1668539208807906169,gps,2,1,42.3009508014,-83.6978969184,272.302032471,8.1e-05,0.0,0.0,0.0,8.1e-05,0.0,0.0,0.0,0.0016,2
1668539208735620552,449937,1668539208817843286,gps,2,1,42.3009508015,-83.6978969168,272.302154541,8.1e-05,0.0,0.0,0.0,8.1e-05,0.0,0.0,0.0,0.0016,2
1668539208745998647,449938,1668539208827893523,gps,2,1,42.3009508012,-83.6978969179,272.302154541,8.1e-05,0.0,0.0,0.0,8.1e-05,0.0,0.0,0.0,0.0016,2
1668539208755928396,449939,1668539208837839242,gps,2,1,42.3009508008,-83.697896919,272.302185059,8.1e-05,0.0,0.0,0.0,8.1e-05,0.0,0.0,0.0,0.0016,2
1668539208765827501,449940,1668539208847837105,gps,2,1,42.3009508009,-83.6978969174,272.302307129,8.1e-05,0.0,0.0,0.0,8.1e-05,0.0,0.0,0.0,0.0016,2
1668539208775943738,449941,1668539208857915070,gps,2,1,42.3009508006,-83.6978969185,272.302337646,8.1e-05,0.0,0.0,0.0,8.1e-05,0.0,0.0,0.0,0.0016,2
1668539208785840939,449942,1668539208867828103,gps,2,1,42.3009508003,-83.6978969196,272.302337646,8.1e-05,0.0,0.0,0.0,8.1e-05,0.0,0.0,0.0,0.0016,2
1668539208795703650,449943,1668539208877847618,gps,2,1,42.3009508009,-83.6978969179,272.302459717,8.1e-05,0.0,0.0,0.0,8.1e-05,0.0,0.0,0.0,0.0016,2
1668539208805879879,449944,1668539208887901602,gps,2,1,42.3009508007,-83.697896919,272.302459717,8.1e-05,0.0,0.0,0.0,8.1e-05,0.0,0.0,0.0,0.0016,2
1668539208815678692,449945,1668539208897830187,gps,2,1,42.3009508004,-83.6978969201,272.302490234,8.1e-05,0.0,0.0,0.0,8.1e-05,0.0,0.0,0.0,0.0016,2
1668539208825672976,449946,1668539208907828606,gps,2,1,42.3009508009,-83.6978969184,272.302581787,8.1e-05,0.0,0.0,0.0,8.1e-05,0.0,0.0,0.0,0.0016,2
1668539208835834661,449947,1668539208917811884,gps,2,1,42.3009508007,-83.6978969195,272.302612305,8.1e-05,0.0,0.0,0.0,8.1e-05,0.0,0.0,0.0,0.0016,2
1668539208845855957,449948,1668539208927889275,gps,2,1,42.3009508005,-83.6978969206,272.302642822,8.1e-05,0.0,0.0,0.0,8.1e-05,0.0,0.0,0.0,0.0016,2
1668539208855582548,449949,1668539208937872797,gps,2,1,42.300950801,-83.6978969191,272.302734375,8.1e-05,0.0,0.0,0.0,8.1e-05,0.0,0.0,0.0,0.0016,2
1668539208865548916,449950,1668539208947884280,gps,2,1,42.3009508007,-83.6978969201,272.302764893,8.1e-05,0.0,0.0,0.0,8.1e-05,0.0,0.0,0.0,0.0016,2
1668539208875474359,449951,1668539208957834244,gps,2,1,42.3009508005,-83.6978969212,272.302764893,8.1e-05,0.0,0.0,0.0,8.1e-05,0.0,0.0,0.0,0.0016,2
1668539208886000317,449952,1668539208967842970,gps,2,1,42.300950801,-83.6978969197,272.302886963,8.1e-05,0.0,0.0,0.0,8.1e-05,0.0,0.0,0.0,0.0016,2
1668539208896062808,449953,1668539208977897027,gps,2,1,42.3009508007,-83.6978969208,272.302886963,8.1e-05,0.0,0.0,0.0,8.1e-05,0.0,0.0,0.0,0.0016,2
1668539208905861413,449954,1668539208987838835,gps,2,1,42.3009508005,-83.6978969219,272.30291748,8.1e-05,0.0,0.0,0.0,8.1e-05,0.0,0.0,0.0,0.0016,2
1668539208915719117,449955,1668539208997864364,gps,2,1,42.3009508009,-83.6978969205,272.303009033,8.1e-05,0.0,0.0,0.0,8.1e-05,0.0,0.0,0.0,0.0016,2
1668539208925729375,449956,1668539209008073202,gps,2,1,42.3009508006,-83.6978969216,272.303039551,8.1e-05,0.0,0.0,0.0,8.1e-05,0.0,0.0,0.0,0.0016,2
1668539208935895157,449957,1668539209017946045,gps,2,1,42.3009508003,-83.6978969227,272.303039551,8.1e-05,0.0,0.0,0.0,8.1e-05,0.0,0.0,0.0,0.0016,2
1668539208945968013,449958,1668539209027884356,gps,2,1,42.3009508042,-83.6978969196,272.303009033,8.1e-05,0.0,0.0,0.0,8.1e-05,0.0,0.0,0.0,0.0016,2
1668539208955792453,449959,1668539209037928578,gps,2,1,42.3009508038,-83.6978969208,272.303009033,8.1e-05,0.0,0.0,0.0,8.1e-05,0.0,0.0,0.0,0.0016,2
1668539208965813276,449960,1668539209047924464,gps,2,1,42.3009508035,-83.6978969219,272.303039551,8.1e-05,0.0,0.0,0.0,8.1e-05,0.0,0.0,0.0,0.0016,2
1668539208975667434,449961,1668539209057831842,gps,2,1,42.3009508072,-83.697896919,272.302978516,8.1e-05,0.0,0.0,0.0,8.1e-05,0.0,0.0,0.0,0.0016,2
1668539208986328868,449962,1668539209068032246,gps,2,1,42.3009508068,-83.6978969201,272.303009033,8.1e-05,0.0,0.0,0.0,8.1e-05,0.0,0.0,0.0,0.0016,2
1668539208995672647,449963,1668539209077957318,gps,2,1,42.3009508064,-83.6978969213,272.303009033,8.1e-05,0.0,0.0,0.0,8.1e-05,0.0,0.0,0.0,0.0016,2
1668539209005746793,449964,1668539209087856606,gps,2,1,42.30095081,-83.6978969185,272.302978516,8.1e-05,0.0,0.0,0.0,8.1e-05,0.0,0.0,0.0,0.0016,2
1668539209015526423,449965,1668539209097839487,gps,2,1,42.3009508096,-83.6978969196,272.302978516,8.1e-05,0.0,0.0,0.0,8.1e-05,0.0,0.0,0.0,0.0016,2
1668539209025973709,449966,1668539209107911285,gps,2,1,42.3009508092,-83.6978969208,272.303009033,8.1e-05,0.0,0.0,0.0,8.1e-05,0.0,0.0,0.0,0.0016,2
1668539209035987452,449967,1668539209117841087,gps,2,1,42.3009508127,-83.6978969181,272.302947998,8.1e-05,0.0,0.0,0.0,8.1e-05,0.0,0.0,0.0,0.0016,2
1668539209045951046,449968,1668539209127852307,gps,2,1,42.3009508123,-83.6978969192,272.302978516,8.1e-05,0.0,0.0,0.0,8.1e-05,0.0,0.0,0.0,0.0016,2
1668539209055874988,449969,1668539209137921664,gps,2,1,42.300950812,-83.6978969204,272.303009033,8.1e-05,0.0,0.0,0.0,8.1e-05,0.0,0.0,0.0,0.0016,2
1668539209065693993,449970,1668539209147835751,gps,2,1,42.3009508151,-83.6978969175,272.302947998,8.1e-05,0.0,0.0,0.0,8.1e-05,0.0,0.0,0.0,0.0016,2
1668539209075806087,449971,1668539209157852949,gps,2,1,42.3009508148,-83.6978969187,272.302978516,8.1e-05,0.0,0.0,0.0,8.1e-05,0.0,0.0,0.0,0.0016,2
1668539209085902882,449972,1668539209167913851,gps,2,1,42.3009508145,-83.6978969197,272.303009033,8.1e-05,0.0,0.0,0.0,8.1e-05,0.0,0.0,0.0,0.0016,2
1668539209095752902,449973,1668539209177828945,gps,2,1,42.3009508176,-83.697896917,272.302947998,8.1e-05,0.0,0.0,0.0,8.1e-05,0.0,0.0,0.0,0.0016,2
1668539209105815310,449974,1668539209187890462,gps,2,1,42.3009508174,-83.697896918,272.302978516,8.1e-05,0.0,0.0,0.0,8.1e-05,0.0,0.0,0.0,0.0016,2
1668539209115695382,449975,1668539209197891485,gps,2,1,42.3009508171,-83.6978969191,272.302978516,8.1e-05,0.0,0.0,0.0,8.1e-05,0.0,0.0,0.0,0.0016,2
1668539209125659115,449976,1668539209207840873,gps,2,1,42.3009508202,-83.6978969164,272.302947998,0.000144,0.0,0.0,0.0,0.000144,0.0,0.0,0.0,0.001681,2
1668539209135720826,449977,1668539209217839354,gps,2,1,42.30095082,-83.6978969175,272.302978516,0.000144,0.0,0.0,0.0,0.000144,0.0,0.0,0.0,0.001681,2
1668539209145648369,449978,1668539209227911505,gps,2,1,42.3009508198,-83.6978969185,272.302978516,0.000144,0.0,0.0,0.0,0.000144,0.0,0.0,0.0,0.001681,2
1668539209155702615,449979,1668539209237841975,gps,2,1,42.3009508228,-83.697896916,272.302947998,0.000144,0.0,0.0,0.0,0.000144,0.0,0.0,0.0,0.001681,2
1668539209165561672,449980,1668539209247841786,gps,2,1,42.3009508226,-83.697896917,272.302947998,0.000144,0.0,0.0,0.0,0.000144,0.0,0.0,0.0,0.001681,2
1668539209175857984,449981,1668539209258030028,gps,2,1,42.3009508225,-83.6978969181,272.302978516,0.000144,0.0,0.0,0.0,0.000144,0.0,0.0,0.0,0.001681,2
1668539209186049556,449982,1668539209267836398,gps,2,1,42.3009508254,-83.6978969157,272.302947998,0.000144,0.0,0.0,0.0,0.000144,0.0,0.0,0.0,0.001681,2
1668539209195920625,449983,1668539209277843180,gps,2,1,42.3009508252,-83.6978969168,272.302947998,0.000144,0.0,0.0,0.0,0.000144,0.0,0.0,0.0,0.001681,2
1668539209205901574,449984,1668539209287913349,gps,2,1,42.3009508251,-83.6978969178,272.302978516,0.000144,0.0,0.0,0.0,0.000144,0.0,0.0,0.0,0.001681,2
1668539209215845500,449985,1668539209297846118,gps,2,1,42.3009508279,-83.6978969155,272.302947998,0.000144,0.0,0.0,0.0,0.000144,0.0,0.0,0.0,0.001681,2
1668539209225716089,449986,1668539209307855650,gps,2,1,42.3009508277,-83.6978969166,272.302947998,0.000144,0.0,0.0,0.0,0.000144,0.0,0.0,0.0,0.001681,2
1668539209235936452,449987,1668539209317922536,gps,2,1,42.3009508276,-83.6978969177,272.302978516,0.000144,0.0,0.0,0.0,0.000144,0.0,0.0,0.0,0.001681,2
1668539209245748734,449988,1668539209327837161,gps,2,1,42.3009508303,-83.6978969155,272.302947998,0.000144,0.0,0.0,0.0,0.000144,0.0,0.0,0.0,0.001681,2
1668539209255917861,449989,1668539209337896658,gps,2,1,42.3009508301,-83.6978969165,272.302947998,0.000144,0.0,0.0,0.0,0.000144,0.0,0.0,0.0,0.001681,2
1668539209265724243,449990,1668539209347921667,gps,2,1,42.3009508299,-83.6978969176,272.302978516,0.000144,0.0,0.0,0.0,0.000144,0.0,0.0,0.0,0.001681,2
1668539209275621400,449991,1668539209357834258,gps,2,1,42.3009508325,-83.6978969154,272.302947998,0.000144,0.0,0.0,0.0,0.000144,0.0,0.0,0.0,0.001681,2
1668539209285708476,449992,1668539209367834884,gps,2,1,42.3009508322,-83.6978969165,272.302947998,0.000144,0.0,0.0,0.0,0.000144,0.0,0.0,0.0,0.001681,2
1668539209296023922,449993,1668539209377928198,gps,2,1,42.300950832,-83.6978969176,272.302978516,0.000144,0.0,0.0,0.0,0.000144,0.0,0.0,0.0,0.001681,2
1668539209305815631,449994,1668539209387847306,gps,2,1,42.3009508345,-83.6978969156,272.302947998,0.000144,0.0,0.0,0.0,0.000144,0.0,0.0,0.0,0.001681,2
1668539209315956246,449995,1668539209397847579,gps,2,1,42.3009508342,-83.6978969167,272.302978516,0.000144,0.0,0.0,0.0,0.000144,0.0,0.0,0.0,0.001681,2
1668539209326042032,449996,1668539209407918911,gps,2,1,42.300950834,-83.6978969178,272.303009033,0.000144,0.0,0.0,0.0,0.000144,0.0,0.0,0.0,0.001681,2
1668539209336125906,449997,1668539209417838645,gps,2,1,42.3009508363,-83.6978969159,272.302978516,0.000144,0.0,0.0,0.0,0.000144,0.0,0.0,0.0,0.001681,2
1668539209345722642,449998,1668539209427848441,gps,2,1,42.300950836,-83.697896917,272.302978516,0.000144,0.0,0.0,0.0,0.000144,0.0,0.0,0.0,0.001681,2
1668539209356024250,449999,1668539209438089461,gps,2,1,42.3009508358,-83.697896918,272.303009033,0.000144,0.0,0.0,0.0,0.000144,0.0,0.0,0.0,0.001681,2
1668539209365818250,450000,1668539209447865307,gps,2,1,42.300950838,-83.6978969163,272.302978516,0.000144,0.0,0.0,0.0,0.000144,0.0,0.0,0.0,0.001681,2
1668539209375820422,450001,1668539209457852460,gps,2,1,42.3009508378,-83.6978969174,272.303009033,0.000144,0.0,0.0,0.0,0.000144,0.0,0.0,0.0,0.001681,2
1668539209385925724,450002,1668539209467915640,gps,2,1,42.3009508375,-83.6978969184,272.303009033,0.000144,0.0,0.0,0.0,0.000144,0.0,0.0,0.0,0.001681,2
1668539209395744931,450003,1668539209477836565,gps,2,1,42.3009508397,-83.6978969167,272.302978516,0.000144,0.0,0.0,0.0,0.000144,0.0,0.0,0.0,0.001681,2
1668539209405737474,450004,1668539209487857528,gps,2,1,42.3009508395,-83.6978969178,272.303009033,0.000144,0.0,0.0,0.0,0.000144,0.0,0.0,0.0,0.001681,2
1668539209415736444,450005,1668539209497972043,gps,2,1,42.3009508392,-83.6978969188,272.303009033,0.000144,0.0,0.0,0.0,0.000144,0.0,0.0,0.0,0.001681,2
1668539209426192572,450006,1668539209508045685,gps,2,1,42.300950841,-83.697896914,272.302978516,0.000144,0.0,0.0,0.0,0.000144,0.0,0.0,0.0,0.001681,2
1668539209435973880,450007,1668539209517854838,gps,2,1,42.3009508408,-83.6978969151,272.303009033,0.000144,0.0,0.0,0.0,0.000144,0.0,0.0,0.0,0.001681,2
1668539209446065201,450008,1668539209527961544,gps,2,1,42.3009508405,-83.6978969161,272.303009033,0.000144,0.0,0.0,0.0,0.000144,0.0,0.0,0.0,0.001681,2
1668539209456180913,450009,1668539209537925907,gps,2,1,42.3009508423,-83.6978969114,272.302978516,0.000144,0.0,0.0,0.0,0.000144,0.0,0.0,0.0,0.001681,2
1668539209465878335,450010,1668539209547974603,gps,2,1,42.3009508421,-83.6978969124,272.302978516,0.000144,0.0,0.0,0.0,0.000144,0.0,0.0,0.0,0.001681,2
1668539209475856175,450011,1668539209557926855,gps,2,1,42.3009508419,-83.6978969134,272.303009033,0.000144,0.0,0.0,0.0,0.000144,0.0,0.0,0.0,0.001681,2
1668539209485905204,450012,1668539209567874512,gps,2,1,42.3009508436,-83.6978969089,272.302978516,0.000144,0.0,0.0,0.0,0.000144,0.0,0.0,0.0,0.001681,2
1668539209495860051,450013,1668539209577857213,gps,2,1,42.3009508434,-83.6978969099,272.302978516,0.000144,0.0,0.0,0.0,0.000144,0.0,0.0,0.0,0.001681,2
1668539209505773714,450014,1668539209587931990,gps,2,1,42.3009508432,-83.6978969109,272.303009033,0.000144,0.0,0.0,0.0,0.000144,0.0,0.0,0.0,0.001681,2
1668539209515766079,450015,1668539209597847700,gps,2,1,42.3009508449,-83.6978969066,272.302978516,0.000144,0.0,0.0,0.0,0.000144,0.0,0.0,0.0,0.001681,2
1668539209525805384,450016,1668539209607838386,gps,2,1,42.3009508447,-83.6978969076,272.302978516,0.000144,0.0,0.0,0.0,0.000144,0.0,0.0,0.0,0.001681,2
1668539209535841564,450017,1668539209617909097,gps,2,1,42.3009508446,-83.6978969086,272.303009033,0.000144,0.0,0.0,0.0,0.000144,0.0,0.0,0.0,0.001681,2
1668539209545879203,450018,1668539209627839757,gps,2,1,42.3009508463,-83.6978969045,272.302978516,0.000144,0.0,0.0,0.0,0.000144,0.0,0.0,0.0,0.001681,2
1668539209555937872,450019,1668539209637861378,gps,2,1,42.3009508461,-83.6978969055,272.302978516,0.000144,0.0,0.0,0.0,0.000144,0.0,0.0,0.0,0.001681,2
1668539209565654324,450020,1668539209647928414,gps,2,1,42.300950846,-83.6978969065,272.303009033,0.000144,0.0,0.0,0.0,0.000144,0.0,0.0,0.0,0.001681,2
1668539209575538833,450021,1668539209657845237,gps,2,1,42.3009508476,-83.6978969025,272.302978516,0.000144,0.0,0.0,0.0,0.000144,0.0,0.0,0.0,0.001681,2
1668539209585627144,450022,1668539209667848972,gps,2,1,42.3009508474,-83.6978969035,272.302978516,0.000144,0.0,0.0,0.0,0.000144,0.0,0.0,0.0,0.001681,2
1668539209596015410,450023,1668539209677933179,gps,2,1,42.3009508473,-83.6978969045,272.303009033,0.000144,0.0,0.0,0.0,0.000144,0.0,0.0,0.0,0.001681,2
1668539209605951523,450024,1668539209687948414,gps,2,1,42.3009508489,-83.6978969007,272.302978516,0.000144,0.0,0.0,0.0,0.000144,0.0,0.0,0.0,0.001681,2
1668539209616005131,450025,1668539209697851166,gps,2,1,42.3009508487,-83.6978969017,272.302978516,0.000144,0.0,0.0,0.0,0.000144,0.0,0.0,0.0,0.001681,2
1668539209625893154,450026,1668539209707925833,gps,2,1,42.3009508485,-83.6978969027,272.303009033,0.000144,0.0,0.0,0.0,0.000144,0.0,0.0,0.0,0.001681,2
1668539209635959604,450027,1668539209717862219,gps,2,1,42.3009508501,-83.697896899,272.302978516,0.000144,0.0,0.0,0.0,0.000144,0.0,0.0,0.0,0.001681,2
1668539209645903644,450028,1668539209727869935,gps,2,1,42.3009508499,-83.6978968999,272.302978516,0.000144,0.0,0.0,0.0,0.000144,0.0,0.0,0.0,0.001681,2
1668539209655824403,450029,1668539209737918707,gps,2,1,42.3009508497,-83.6978969009,272.303009033,0.000144,0.0,0.0,0.0,0.000144,0.0,0.0,0.0,0.001681,2
1668539209665815887,450030,1668539209747894562,gps,2,1,42.3009508512,-83.6978968974,272.302978516,0.000144,0.0,0.0,0.0,0.000144,0.0,0.0,0.0,0.001681,2
1668539209675705710,450031,1668539209757971504,gps,2,1,42.3009508511,-83.6978968983,272.302978516,0.000144,0.0,0.0,0.0,0.000144,0.0,0.0,0.0,0.001681,2
1668539209685820011,450032,1668539209767905145,gps,2,1,42.3009508509,-83.6978968993,272.303009033,0.000144,0.0,0.0,0.0,0.000144,0.0,0.0,0.0,0.001681,2
1668539209695702112,450033,1668539209777852855,gps,2,1,42.3009508523,-83.6978968959,272.302978516,0.000144,0.0,0.0,0.0,0.000144,0.0,0.0,0.0,0.001681,2
1668539209705794226,450034,1668539209787836816,gps,2,1,42.3009508522,-83.6978968968,272.302978516,0.000144,0.0,0.0,0.0,0.000144,0.0,0.0,0.0,0.001681,2
1668539209715566194,450035,1668539209797921344,gps,2,1,42.300950852,-83.6978968977,272.303009033,0.000144,0.0,0.0,0.0,0.000144,0.0,0.0,0.0,0.001681,2
1668539209725614301,450036,1668539209807857510,gps,2,1,42.3009508534,-83.6978968944,272.302978516,0.000144,0.0,0.0,0.0,0.000144,0.0,0.0,0.0,0.001681,2
1668539209736050360,450037,1668539209817869537,gps,2,1,42.3009508533,-83.6978968953,272.302978516,0.000144,0.0,0.0,0.0,0.000144,0.0,0.0,0.0,0.001681,2
1668539209746012624,450038,1668539209827926062,gps,2,1,42.3009508531,-83.6978968963,272.303009033,0.000144,0.0,0.0,0.0,0.000144,0.0,0.0,0.0,0.001681,2
1668539209755886068,450039,1668539209837861377,gps,2,1,42.3009508545,-83.6978968931,272.302978516,0.000144,0.0,0.0,0.0,0.000144,0.0,0.0,0.0,0.001681,2
1668539209765956575,450040,1668539209847865549,gps,2,1,42.3009508543,-83.697896894,272.302978516,0.000144,0.0,0.0,0.0,0.000144,0.0,0.0,0.0,0.001681,2
1668539209775757021,450041,1668539209857922409,gps,2,1,42.3009508542,-83.6978968949,272.303009033,0.000144,0.0,0.0,0.0,0.000144,0.0,0.0,0.0,0.001681,2
1668539209785729874,450042,1668539209867887346,gps,2,1,42.3009508555,-83.6978968918,272.302978516,0.000144,0.0,0.0,0.0,0.000144,0.0,0.0,0.0,0.001681,2
1668539209795774038,450043,1668539209877861539,gps,2,1,42.3009508554,-83.6978968928,272.303009033,0.000144,0.0,0.0,0.0,0.000144,0.0,0.0,0.0,0.001681,2
1668539209805846532,450044,1668539209887930270,gps,2,1,42.3009508552,-83.6978968937,272.303009033,0.000144,0.0,0.0,0.0,0.000144,0.0,0.0,0.0,0.001681,2
1668539209815758120,450045,1668539209897850867,gps,2,1,42.3009508564,-83.6978968907,272.303009033,0.000144,0.0,0.0,0.0,0.000144,0.0,0.0,0.0,0.001681,2
1668539209825776050,450046,1668539209907851249,gps,2,1,42.3009508563,-83.6978968916,272.303039551,0.000144,0.0,0.0,0.0,0.000144,0.0,0.0,0.0,0.001681,2
1668539209835830387,450047,1668539209917918157,gps,2,1,42.3009508561,-83.6978968925,272.303039551,0.000144,0.0,0.0,0.0,0.000144,0.0,0.0,0.0,0.001681,2
1668539209845628423,450048,1668539209927845856,gps,2,1,42.3009508573,-83.6978968897,272.303039551,0.000144,0.0,0.0,0.0,0.000144,0.0,0.0,0.0,0.001681,2
1668539209855646710,450049,1668539209937948309,gps,2,1,42.3009508572,-83.6978968906,272.303039551,0.000144,0.0,0.0,0.0,0.000144,0.0,0.0,0.0,0.001681,2
1668539209866028992,450050,1668539209947923725,gps,2,1,42.300950857,-83.6978968915,272.303070068,0.000144,0.0,0.0,0.0,0.000144,0.0,0.0,0.0,0.001681,2
1668539209875985567,450051,1668539209957870527,gps,2,1,42.3009508582,-83.6978968888,272.303070068,0.000144,0.0,0.0,0.0,0.000144,0.0,0.0,0.0,0.001681,2
1668539209886026752,450052,1668539209967884090,gps,2,1,42.3009508581,-83.6978968896,272.303070068,0.000144,0.0,0.0,0.0,0.000144,0.0,0.0,0.0,0.001681,2
1668539209895672102,450053,1668539209977918012,gps,2,1,42.3009508579,-83.6978968905,272.303070068,0.000144,0.0,0.0,0.0,0.000144,0.0,0.0,0.0,0.001681,2
1668539209906028129,450054,1668539209987858327,gps,2,1,42.3009508591,-83.6978968879,272.303070068,0.000144,0.0,0.0,0.0,0.000144,0.0,0.0,0.0,0.001681,2
1668539209915703770,450055,1668539209997861539,gps,2,1,42.3009508589,-83.6978968888,272.303100586,0.000144,0.0,0.0,0.0,0.000144,0.0,0.0,0.0,0.001681,2
1668539209925911515,450056,1668539210008069040,gps,2,1,42.3009508588,-83.6978968897,272.303100586,0.000144,0.0,0.0,0.0,0.000144,0.0,0.0,0.0,0.001681,2
1668539209935947066,450057,1668539210017977053,gps,2,1,42.3009508599,-83.6978968872,272.303100586,0.000144,0.0,0.0,0.0,0.000144,0.0,0.0,0.0,0.001681,2
1668539209945882437,450058,1668539210027934062,gps,2,1,42.3009508598,-83.6978968881,272.303100586,0.000144,0.0,0.0,0.0,0.000144,0.0,0.0,0.0,0.001681,2
1668539209955894345,450059,1668539210037890537,gps,2,1,42.3009508597,-83.697896889,272.303131104,0.000144,0.0,0.0,0.0,0.000144,0.0,0.0,0.0,0.001681,2
1668539209965792532,450060,1668539210047929618,gps,2,1,42.3009508606,-83.6978968852,272.303161621,0.000144,0.0,0.0,0.0,0.000144,0.0,0.0,0.0,0.001681,2
1668539209975756284,450061,1668539210057911287,gps,2,1,42.3009508605,-83.6978968861,272.303192139,0.000144,0.0,0.0,0.0,0.000144,0.0,0.0,0.0,0.001681,2
1668539209985745825,450062,1668539210067973945,gps,2,1,42.3009508603,-83.697896887,272.303192139,0.000144,0.0,0.0,0.0,0.000144,0.0,0.0,0.0,0.001681,2
1668539209995585400,450063,1668539210077947591,gps,2,1,42.3009508612,-83.6978968834,272.303253174,0.000144,0.0,0.0,0.0,0.000144,0.0,0.0,0.0,0.001681,2
1668539210006246873,450064,1668539210087941965,gps,2,1,42.3009508611,-83.6978968842,272.303283691,0.000144,0.0,0.0,0.0,0.000144,0.0,0.0,0.0,0.001681,2
1668539210015673568,450065,1668539210097872577,gps,2,1,42.300950861,-83.6978968851,272.303283691,0.000144,0.0,0.0,0.0,0.000144,0.0,0.0,0.0,0.001681,2
1668539210025923421,450066,1668539210107872701,gps,2,1,42.3009508618,-83.6978968816,272.303344727,0.000144,0.0,0.0,0.0,0.000144,0.0,0.0,0.0,0.001681,2
1668539210035711255,450067,1668539210117943494,gps,2,1,42.3009508617,-83.6978968825,272.303344727,0.000144,0.0,0.0,0.0,0.000144,0.0,0.0,0.0,0.001681,2
1668539210046076696,450068,1668539210127862586,gps,2,1,42.3009508616,-83.6978968833,272.303375244,0.000144,0.0,0.0,0.0,0.000144,0.0,0.0,0.0,0.001681,2
1668539210055939305,450069,1668539210137853310,gps,2,1,42.3009508624,-83.69789688,272.303405762,0.000144,0.0,0.0,0.0,0.000144,0.0,0.0,0.0,0.001681,2
1668539210065776034,450070,1668539210147924446,gps,2,1,42.3009508623,-83.6978968808,272.303405762,0.000144,0.0,0.0,0.0,0.000144,0.0,0.0,0.0,0.001681,2
1668539210075704139,450071,1668539210157869219,gps,2,1,42.3009508621,-83.6978968817,272.303436279,0.000144,0.0,0.0,0.0,0.000144,0.0,0.0,0.0,0.001681,2
1668539210085827720,450072,1668539210167861788,gps,2,1,42.3009508629,-83.6978968784,272.303466797,0.000144,0.0,0.0,0.0,0.000144,0.0,0.0,0.0,0.001681,2
1668539210095844907,450073,1668539210177926024,gps,2,1,42.3009508628,-83.6978968793,272.303466797,0.000144,0.0,0.0,0.0,0.000144,0.0,0.0,0.0,0.001681,2
1668539210105926305,450074,1668539210187943411,gps,2,1,42.3009508627,-83.6978968801,272.303497314,0.000144,0.0,0.0,0.0,0.000144,0.0,0.0,0.0,0.001681,2
1668539210115764093,450075,1668539210197860899,gps,2,1,42.3009508635,-83.697896877,272.303527832,0.000144,0.0,0.0,0.0,0.000144,0.0,0.0,0.0,0.001681,2
1668539210125828473,450076,1668539210207940080,gps,2,1,42.3009508634,-83.6978968778,272.30355835,0.000121,0.0,0.0,0.0,0.000144,0.0,0.0,0.0,0.001681,2
1668539210135772203,450077,1668539210217856510,gps,2,1,42.3009508632,-83.6978968786,272.30355835,0.000121,0.0,0.0,0.0,0.000144,0.0,0.0,0.0,0.001681,2
1668539210145626352,450078,1668539210227862468,gps,2,1,42.300950864,-83.6978968755,272.303588867,0.000121,0.0,0.0,0.0,0.000144,0.0,0.0,0.0,0.001681,2
1668539210155878429,450079,1668539210237924529,gps,2,1,42.3009508639,-83.6978968763,272.303619385,0.000121,0.0,0.0,0.0,0.000144,0.0,0.0,0.0,0.001681,2
1668539210165564303,450080,1668539210247863745,gps,2,1,42.3009508638,-83.6978968771,272.303619385,0.000121,0.0,0.0,0.0,0.000144,0.0,0.0,0.0,0.001681,2
1668539210175906713,450081,1668539210257981404,gps,2,1,42.3009508646,-83.6978968742,272.303649902,0.000121,0.0,0.0,0.0,0.000144,0.0,0.0,0.0,0.001681,2
1668539210185838925,450082,1668539210267936171,gps,2,1,42.3009508645,-83.6978968749,272.30368042,0.000121,0.0,0.0,0.0,0.000144,0.0,0.0,0.0,0.001681,2
1668539210195586025,450083,1668539210277861871,gps,2,1,42.3009508644,-83.6978968757,272.30368042,0.000121,0.0,0.0,0.0,0.000144,0.0,0.0,0.0,0.001681,2
1668539210205775307,450084,1668539210287945342,gps,2,1,42.3009508651,-83.6978968729,272.303710938,0.000121,0.0,0.0,0.0,0.000144,0.0,0.0,0.0,0.001681,2
1668539210215895137,450085,1668539210297949896,gps,2,1,42.300950865,-83.6978968737,272.303741455,0.000121,0.0,0.0,0.0,0.000144,0.0,0.0,0.0,0.001681,2
1668539210225724619,450086,1668539210307889454,gps,2,1,42.3009508649,-83.6978968744,272.303741455,0.000121,0.0,0.0,0.0,0.000144,0.0,0.0,0.0,0.001681,2
1668539210235833928,450087,1668539210317870340,gps,2,1,42.3009508656,-83.6978968717,272.303771973,0.000121,0.0,0.0,0.0,0.000144,0.0,0.0,0.0,0.001681,2
1668539210245815773,450088,1668539210327922005,gps,2,1,42.3009508655,-83.6978968725,272.30380249,0.000121,0.0,0.0,0.0,0.000144,0.0,0.0,0.0,0.001681,2
1668539210255979149,450089,1668539210337872992,gps,2,1,42.3009508654,-83.6978968732,272.30380249,0.000121,0.0,0.0,0.0,0.000144,0.0,0.0,0.0,0.001681,2
1668539210265700973,450090,1668539210347851981,gps,2,1,42.300950866,-83.6978968706,272.303833008,0.000121,0.0,0.0,0.0,0.000144,0.0,0.0,0.0,0.001681,2
1668539210275594522,450091,1668539210357857023,gps,2,1,42.3009508659,-83.6978968714,272.303863525,0.000121,0.0,0.0,0.0,0.000144,0.0,0.0,0.0,0.001681,2
1668539210286082064,450092,1668539210367958262,gps,2,1,42.3009508658,-83.6978968721,272.303863525,0.000121,0.0,0.0,0.0,0.000144,0.0,0.0,0.0,0.001681,2
1668539210295668747,450093,1668539210377872527,gps,2,1,42.3009508666,-83.6978968697,272.303894043,0.000121,0.0,0.0,0.0,0.000144,0.0,0.0,0.0,0.001681,2
1668539210306086867,450094,1668539210387922656,gps,2,1,42.3009508665,-83.6978968704,272.303894043,0.000121,0.0,0.0,0.0,0.000144,0.0,0.0,0.0,0.001681,2
1668539210315869253,450095,1668539210398019935,gps,2,1,42.3009508663,-83.6978968712,272.303924561,0.000121,0.0,0.0,0.0,0.000144,0.0,0.0,0.0,0.001681,2
1668539210326102297,450096,1668539210407886599,gps,2,1,42.3009508671,-83.6978968688,272.303955078,0.000121,0.0,0.0,0.0,0.000144,0.0,0.0,0.0,0.001681,2
1668539210335814930,450097,1668539210417927391,gps,2,1,42.300950867,-83.6978968696,272.303955078,0.000121,0.0,0.0,0.0,0.000144,0.0,0.0,0.0,0.001681,2
1668539210345761856,450098,1668539210427869422,gps,2,1,42.3009508669,-83.6978968704,272.303985596,0.000121,0.0,0.0,0.0,0.000144,0.0,0.0,0.0,0.001681,2
1668539210355798664,450099,1668539210437955328,gps,2,1,42.3009508676,-83.6978968681,272.303985596,0.000121,0.0,0.0,0.0,0.000144,0.0,0.0,0.0,0.001681,2
1668539210365872331,450100,1668539210447951038,gps,2,1,42.3009508675,-83.6978968688,272.304016113,0.000121,0.0,0.0,0.0,0.000144,0.0,0.0,0.0,0.001681,2
1668539210375717406,450101,1668539210457879439,gps,2,1,42.3009508674,-83.6978968696,272.304016113,0.000121,0.0,0.0,0.0,0.000144,0.0,0.0,0.0,0.001681,2
1668539210385840259,450102,1668539210467886021,gps,2,1,42.3009508681,-83.6978968674,272.304046631,0.000121,0.0,0.0,0.0,0.000144,0.0,0.0,0.0,0.001681,2
1668539210395771956,450103,1668539210477920841,gps,2,1,42.300950868,-83.6978968681,272.304077148,0.000121,0.0,0.0,0.0,0.000144,0.0,0.0,0.0,0.001681,2
1668539210405740104,450104,1668539210487864521,gps,2,1,42.3009508679,-83.6978968689,272.304077148,0.000121,0.0,0.0,0.0,0.000144,0.0,0.0,0.0,0.001681,2
1668539210415676998,450105,1668539210497897705,gps,2,1,42.3009508686,-83.6978968667,272.304107666,0.000121,0.0,0.0,0.0,0.000144,0.0,0.0,0.0,0.001681,2
1668539210426044046,450106,1668539210508144239,gps,2,1,42.3009508685,-83.6978968675,272.304107666,0.000121,0.0,0.0,0.0,0.000144,0.0,0.0,0.0,0.001681,2
1668539210435702632,450107,1668539210517936828,gps,2,1,42.3009508684,-83.6978968682,272.304138184,0.000121,0.0,0.0,0.0,0.000144,0.0,0.0,0.0,0.001681,2
1668539210445919604,450108,1668539210527943346,gps,2,1,42.3009508691,-83.6978968662,272.304168701,0.000121,0.0,0.0,0.0,0.000144,0.0,0.0,0.0,0.001681,2
1668539210456087849,450109,1668539210537946162,gps,2,1,42.300950869,-83.6978968669,272.304168701,0.000121,0.0,0.0,0.0,0.000144,0.0,0.0,0.0,0.001681,2
1668539210465893849,450110,1668539210547962405,gps,2,1,42.3009508689,-83.6978968677,272.304199219,0.000121,0.0,0.0,0.0,0.000144,0.0,0.0,0.0,0.001681,2
1668539210475902389,450111,1668539210557897611,gps,2,1,42.3009508689,-83.6978968648,272.304077148,0.000121,0.0,0.0,0.0,0.000144,0.0,0.0,0.0,0.001681,2
1668539210485776899,450112,1668539210567886463,gps,2,1,42.3009508688,-83.6978968655,272.304107666,0.000121,0.0,0.0,0.0,0.000144,0.0,0.0,0.0,0.001681,2
1668539210495838573,450113,1668539210577943568,gps,2,1,42.3009508687,-83.6978968663,272.304107666,0.000121,0.0,0.0,0.0,0.000144,0.0,0.0,0.0,0.001681,2
1668539210505797933,450114,1668539210587896507,gps,2,1,42.3009508687,-83.6978968636,272.304046631,0.000121,0.0,0.0,0.0,0.000144,0.0,0.0,0.0,0.001681,2
1668539210515774678,450115,1668539210597925525,gps,2,1,42.3009508686,-83.6978968643,272.304046631,0.000121,0.0,0.0,0.0,0.000144,0.0,0.0,0.0,0.001681,2
1668539210525711594,450116,1668539210607876828,gps,2,1,42.3009508685,-83.697896865,272.304046631,0.000121,0.0,0.0,0.0,0.000144,0.0,0.0,0.0,0.001681,2
1668539210535818860,450117,1668539210617855074,gps,2,1,42.3009508685,-83.6978968624,272.303985596,0.000121,0.0,0.0,0.0,0.000144,0.0,0.0,0.0,0.001681,2
1668539210545735101,450118,1668539210627940935,gps,2,1,42.3009508684,-83.697896863,272.303985596,0.000121,0.0,0.0,0.0,0.000144,0.0,0.0,0.0,0.001681,2
1668539210555682673,450119,1668539210637863146,gps,2,1,42.3009508682,-83.6978968638,272.304016113,0.000121,0.0,0.0,0.0,0.000144,0.0,0.0,0.0,0.001681,2
1668539210565654864,450120,1668539210647861960,gps,2,1,42.3009508681,-83.697896861,272.303924561,0.000121,0.0,0.0,0.0,0.000144,0.0,0.0,0.0,0.001681,2
1668539210575671349,450121,1668539210657895668,gps,2,1,42.300950868,-83.6978968617,272.303955078,0.000121,0.0,0.0,0.0,0.000144,0.0,0.0,0.0,0.001681,2
1668539210586032523,450122,1668539210667938887,gps,2,1,42.3009508679,-83.6978968624,272.303955078,0.000121,0.0,0.0,0.0,0.000144,0.0,0.0,0.0,0.001681,2
1668539210595927187,450123,1668539210677867546,gps,2,1,42.3009508678,-83.6978968597,272.303894043,0.000121,0.0,0.0,0.0,0.000144,0.0,0.0,0.0,0.001681,2
1668539210605873809,450124,1668539210687977604,gps,2,1,42.3009508677,-83.6978968605,272.303894043,0.000121,0.0,0.0,0.0,0.000144,0.0,0.0,0.0,0.001681,2
1668539210615906997,450125,1668539210697945765,gps,2,1,42.3009508676,-83.6978968612,272.303924561,0.000121,0.0,0.0,0.0,0.000144,0.0,0.0,0.0,0.001681,2
1668539210626047240,450126,1668539210707871622,gps,2,1,42.3009508675,-83.6978968587,272.303863525,0.000121,0.0,0.0,0.0,0.000144,0.0,0.0,0.0,0.001681,2
1668539210635880769,450127,1668539210717926327,gps,2,1,42.3009508674,-83.6978968595,272.303863525,0.000121,0.0,0.0,0.0,0.000144,0.0,0.0,0.0,0.001681,2
1668539210645804023,450128,1668539210727901115,gps,2,1,42.3009508672,-83.6978968602,272.303863525,0.000121,0.0,0.0,0.0,0.000144,0.0,0.0,0.0,0.001681,2
1668539210655763919,450129,1668539210737868230,gps,2,1,42.3009508671,-83.6978968578,272.30380249,0.000121,0.0,0.0,0.0,0.000144,0.0,0.0,0.0,0.001681,2
1668539210665918815,450130,1668539210747973992,gps,2,1,42.300950867,-83.6978968586,272.303833008,0.000121,0.0,0.0,0.0,0.000144,0.0,0.0,0.0,0.001681,2
1668539210676004742,450131,1668539210757979481,gps,2,1,42.3009508668,-83.6978968594,272.303833008,0.000121,0.0,0.0,0.0,0.000144,0.0,0.0,0.0,0.001681,2
1668539210685740793,450132,1668539210767865649,gps,2,1,42.3009508667,-83.6978968571,272.303771973,0.000121,0.0,0.0,0.0,0.000144,0.0,0.0,0.0,0.001681,2
1668539210695698668,450133,1668539210777923803,gps,2,1,42.3009508666,-83.6978968579,272.30380249,0.000121,0.0,0.0,0.0,0.000144,0.0,0.0,0.0,0.001681,2
1668539210705667368,450134,1668539210787866938,gps,2,1,42.3009508665,-83.6978968587,272.30380249,0.000121,0.0,0.0,0.0,0.000144,0.0,0.0,0.0,0.001681,2
1668539210715621286,450135,1668539210797873816,gps,2,1,42.3009508664,-83.6978968565,272.303741455,0.000121,0.0,0.0,0.0,0.000144,0.0,0.0,0.0,0.001681,2
1668539210725487563,450136,1668539210807878018,gps,2,1,42.3009508663,-83.6978968574,272.303771973,0.000121,0.0,0.0,0.0,0.000144,0.0,0.0,0.0,0.001681,2
1668539210736064230,450137,1668539210817944330,gps,2,1,42.3009508661,-83.6978968582,272.303771973,0.000121,0.0,0.0,0.0,0.000144,0.0,0.0,0.0,0.001681,2
1668539210745994328,450138,1668539210827882796,gps,2,1,42.3009508661,-83.6978968562,272.303741455,0.000121,0.0,0.0,0.0,0.000144,0.0,0.0,0.0,0.001681,2
1668539210755830922,450139,1668539210837937961,gps,2,1,42.300950866,-83.6978968572,272.303741455,0.000121,0.0,0.0,0.0,0.000144,0.0,0.0,0.0,0.001681,2
1668539210765858370,450140,1668539210847877001,gps,2,1,42.3009508659,-83.697896858,272.303741455,0.000121,0.0,0.0,0.0,0.000144,0.0,0.0,0.0,0.001681,2
1668539210775694490,450141,1668539210857867371,gps,2,1,42.3009508659,-83.6978968563,272.303710938,0.000121,0.0,0.0,0.0,0.000144,0.0,0.0,0.0,0.001681,2
1668539210785919087,450142,1668539210867958326,gps,2,1,42.300950866,-83.6978968578,272.303710938,0.000121,0.0,0.0,0.0,0.000144,0.0,0.0,0.0,0.001681,2
1668539210795886260,450143,1668539210877879299,gps,2,1,42.300950866,-83.6978968588,272.303710938,0.000121,0.0,0.0,0.0,0.000144,0.0,0.0,0.0,0.001681,2
1668539210805787073,450144,1668539210887881432,gps,2,1,42.3009508661,-83.6978968578,272.303649902,0.000121,0.0,0.0,0.0,0.000144,0.0,0.0,0.0,0.001681,2
1668539210815796825,450145,1668539210897951043,gps,2,1,42.3009508663,-83.6978968597,272.303649902,0.000121,0.0,0.0,0.0,0.000144,0.0,0.0,0.0,0.001681,2
1668539210825774723,450146,1668539210907877036,gps,2,1,42.3009508664,-83.6978968612,272.303649902,0.000121,0.0,0.0,0.0,0.000144,0.0,0.0,0.0,0.001681,2
1668539210835701161,450147,1668539210917855969,gps,2,1,42.3009508667,-83.6978968608,272.303588867,0.000121,0.0,0.0,0.0,0.000144,0.0,0.0,0.0,0.001681,2
1668539210845664711,450148,1668539210927935721,gps,2,1,42.300950867,-83.6978968634,272.303588867,0.000121,0.0,0.0,0.0,0.000144,0.0,0.0,0.0,0.001681,2
1668539210855562366,450149,1668539210937965575,gps,2,1,42.3009508671,-83.6978968655,272.303588867,0.000121,0.0,0.0,0.0,0.000144,0.0,0.0,0.0,0.001681,2
1668539210865502005,450150,1668539210947879263,gps,2,1,42.3009508676,-83.697896866,272.303527832,0.000121,0.0,0.0,0.0,0.000144,0.0,0.0,0.0,0.001681,2
1668539210875914724,450151,1668539210957935974,gps,2,1,42.3009508681,-83.6978968695,272.303497314,0.000121,0.0,0.0,0.0,0.000144,0.0,0.0,0.0,0.001681,2
1668539210885999781,450152,1668539210967888298,gps,2,1,42.3009508684,-83.6978968723,272.303497314,0.000121,0.0,0.0,0.0,0.000144,0.0,0.0,0.0,0.001681,2
1668539210895973794,450153,1668539210977881294,gps,2,1,42.300950869,-83.6978968739,272.303405762,0.000121,0.0,0.0,0.0,0.000144,0.0,0.0,0.0,0.001681,2
1668539210905845044,450154,1668539210987949913,gps,2,1,42.3009508698,-83.6978968787,272.303375244,0.000121,0.0,0.0,0.0,0.000144,0.0,0.0,0.0,0.001681,2
1668539210915947531,450155,1668539210997903062,gps,2,1,42.3009508703,-83.6978968826,272.303344727,0.000121,0.0,0.0,0.0,0.000144,0.0,0.0,0.0,0.001681,2
1668539210926043499,450156,1668539211008048306,gps,2,1,42.3009508708,-83.6978968846,272.303344727,0.000121,0.0,0.0,0.0,0.000144,0.0,0.0,0.0,0.001681,2
1668539210936028228,450157,1668539211018035217,gps,2,1,42.3009508718,-83.6978968909,272.303283691,0.000121,0.0,0.0,0.0,0.000144,0.0,0.0,0.0,0.001681,2
1668539210945849174,450158,1668539211027941288,gps,2,1,42.3009508726,-83.6978968959,272.303253174,0.000121,0.0,0.0,0.0,0.000144,0.0,0.0,0.0,0.001681,2
1668539210955691524,450159,1668539211037878061,gps,2,1,42.3009508733,-83.6978968995,272.303222656,0.000121,0.0,0.0,0.0,0.000144,0.0,0.0,0.0,0.001681,2
1668539210965773444,450160,1668539211047976003,gps,2,1,42.3009508747,-83.6978969076,272.303161621,0.000121,0.0,0.0,0.0,0.000144,0.0,0.0,0.0,0.001681,2
1668539210975643912,450161,1668539211057925847,gps,2,1,42.3009508758,-83.6978969143,272.303100586,0.000121,0.0,0.0,0.0,0.000144,0.0,0.0,0.0,0.001681,2
1668539210985807139,450162,1668539211067974520,gps,2,1,42.300950877,-83.69789692,272.303070068,0.000121,0.0,0.0,0.0,0.000144,0.0,0.0,0.0,0.001681,2
1668539210995722754,450163,1668539211077966039,gps,2,1,42.3009508789,-83.6978969301,272.303009033,0.000121,0.0,0.0,0.0,0.000144,0.0,0.0,0.0,0.001681,2
1668539211005656637,450164,1668539211087850088,gps,2,1,42.3009508803,-83.6978969385,272.302947998,0.000121,0.0,0.0,0.0,0.000144,0.0,0.0,0.0,0.001681,2
1668539211015466497,450165,1668539211097826055,gps,2,1,42.300950882,-83.6978969465,272.30291748,0.000121,0.0,0.0,0.0,0.000144,0.0,0.0,0.0,0.001681,2
1668539211025437458,450166,1668539211107829531,gps,2,1,42.3009508843,-83.6978969589,272.302856445,0.000121,0.0,0.0,0.0,0.000144,0.0,0.0,0.0,0.001681,2
1668539211035965271,450167,1668539211117844902,gps,2,1,42.3009508862,-83.6978969695,272.30279541,0.000121,0.0,0.0,0.0,0.000144,0.0,0.0,0.0,0.001681,2
1668539211045834499,450168,1668539211127949433,gps,2,1,42.3009508884,-83.6978969799,272.302734375,0.000121,0.0,0.0,0.0,0.000144,0.0,0.0,0.0,0.001681,2
1668539211055811947,450169,1668539211137921394,gps,2,1,42.3009508912,-83.6978969949,272.30267334,0.000121,0.0,0.0,0.0,0.000144,0.0,0.0,0.0,0.001681,2
1668539211065743920,450170,1668539211147910320,gps,2,1,42.3009508936,-83.6978970077,272.302612305,0.000121,0.0,0.0,0.0,0.000144,0.0,0.0,0.0,0.001681,2
1668539211075837447,450171,1668539211157883776,gps,2,1,42.3009508962,-83.6978970206,272.30255127,0.000121,0.0,0.0,0.0,0.000144,0.0,0.0,0.0,0.001681,2
1668539211085909819,450172,1668539211167953739,gps,2,1,42.3009508996,-83.6978970382,272.302490234,0.000121,0.0,0.0,0.0,0.000144,0.0,0.0,0.0,0.001681,2
1668539211095753975,450173,1668539211177871652,gps,2,1,42.3009509025,-83.6978970537,272.302429199,0.000121,0.0,0.0,0.0,0.000144,0.0,0.0,0.0,0.001681,2
1668539211105739878,450174,1668539211187959346,gps,2,1,42.3009509057,-83.6978970694,272.302368164,0.000121,0.0,0.0,0.0,0.000144,0.0,0.0,0.0,0.001681,2
1668539211115723017,450175,1668539211197932991,gps,2,1,42.3009509096,-83.6978970898,272.302307129,0.000121,0.0,0.0,0.0,0.000144,0.0,0.0,0.0,0.001681,2
1668539211125722343,450176,1668539211207881620,gps,2,1,42.300950913,-83.6978971077,272.302215576,8.1e-05,0.0,0.0,0.0,8.1e-05,0.0,0.0,0.0,0.0016,2
1668539211135685114,450177,1668539211217889819,gps,2,1,42.3009509167,-83.6978971261,272.302185059,8.1e-05,0.0,0.0,0.0,8.1e-05,0.0,0.0,0.0,0.0016,2
1668539211145580512,450178,1668539211227888433,gps,2,1,42.3009509211,-83.6978971492,272.302124023,8.1e-05,0.0,0.0,0.0,8.1e-05,0.0,0.0,0.0,0.0016,2
1668539211155949109,450179,1668539211237946421,gps,2,1,42.3009509251,-83.69789717,272.302062988,8.1e-05,0.0,0.0,0.0,8.1e-05,0.0,0.0,0.0,0.0016,2
1668539211165945362,450180,1668539211247881255,gps,2,1,42.3009509294,-83.6978971914,272.302032471,8.1e-05,0.0,0.0,0.0,8.1e-05,0.0,0.0,0.0,0.0016,2
1668539211175831892,450181,1668539211258010052,gps,2,1,42.3009509343,-83.6978972173,272.301971436,8.1e-05,0.0,0.0,0.0,8.1e-05,0.0,0.0,0.0,0.0016,2
1668539211185835333,450182,1668539211267950308,gps,2,1,42.3009509389,-83.6978972408,272.301940918,8.1e-05,0.0,0.0,0.0,8.1e-05,0.0,0.0,0.0,0.0016,2
1668539211195759455,450183,1668539211277867702,gps,2,1,42.3009509437,-83.6978972651,272.301879883,8.1e-05,0.0,0.0,0.0,8.1e-05,0.0,0.0,0.0,0.0016,2
1668539211205766517,450184,1668539211287937632,gps,2,1,42.3009509493,-83.697897294,272.301849365,8.1e-05,0.0,0.0,0.0,8.1e-05,0.0,0.0,0.0,0.0016,2
1668539211215800794,450185,1668539211297896415,gps,2,1,42.3009509543,-83.6978973203,272.301818848,8.1e-05,0.0,0.0,0.0,8.1e-05,0.0,0.0,0.0,0.0016,2
1668539211225684692,450186,1668539211307874087,gps,2,1,42.3009509598,-83.6978973476,272.30178833,8.1e-05,0.0,0.0,0.0,8.1e-05,0.0,0.0,0.0,0.0016,2
1668539211235843123,450187,1668539211317983671,gps,2,1,42.3009509659,-83.6978973794,272.301757812,8.1e-05,0.0,0.0,0.0,8.1e-05,0.0,0.0,0.0,0.0016,2
1668539211245782812,450188,1668539211327912596,gps,2,1,42.3009509715,-83.6978974088,272.301696777,8.1e-05,0.0,0.0,0.0,8.1e-05,0.0,0.0,0.0,0.0016,2
1668539211255800268,450189,1668539211337861287,gps,2,1,42.3009509776,-83.6978974392,272.301696777,8.1e-05,0.0,0.0,0.0,8.1e-05,0.0,0.0,0.0,0.0016,2
1668539211265610804,450190,1668539211347957106,gps,2,1,42.3009509843,-83.697897474,272.30166626,8.1e-05,0.0,0.0,0.0,8.1e-05,0.0,0.0,0.0,0.0016,2
1668539211275555830,450191,1668539211357878216,gps,2,1,42.3009509906,-83.6978975064,272.301635742,8.1e-05,0.0,0.0,0.0,8.1e-05,0.0,0.0,0.0,0.0016,2
1668539211285656981,450192,1668539211367878902,gps,2,1,42.3009509973,-83.6978975399,272.301605225,8.1e-05,0.0,0.0,0.0,8.1e-05,0.0,0.0,0.0,0.0016,2
1668539211296030004,450193,1668539211377965170,gps,2,1,42.3009510047,-83.6978975779,272.301574707,8.1e-05,0.0,0.0,0.0,8.1e-05,0.0,0.0,0.0,0.0016,2
1668539211305567430,450194,1668539211387894175,gps,2,1,42.3009510116,-83.6978976132,272.301544189,8.1e-05,0.0,0.0,0.0,8.1e-05,0.0,0.0,0.0,0.0016,2
1668539211315846664,450195,1668539211397883539,gps,2,1,42.3009510189,-83.6978976502,272.301544189,8.1e-05,0.0,0.0,0.0,8.1e-05,0.0,0.0,0.0,0.0016,2
1668539211325977964,450196,1668539211407892400,gps,2,1,42.3009510269,-83.6978976913,272.301513672,8.1e-05,0.0,0.0,0.0,8.1e-05,0.0,0.0,0.0,0.0016,2
1668539211335994145,450197,1668539211418025323,gps,2,1,42.3009510345,-83.6978977299,272.301513672,8.1e-05,0.0,0.0,0.0,8.1e-05,0.0,0.0,0.0,0.0016,2
1668539211345835385,450198,1668539211427904850,gps,2,1,42.3009510424,-83.6978977701,272.301513672,8.1e-05,0.0,0.0,0.0,8.1e-05,0.0,0.0,0.0,0.0016,2
1668539211355818843,450199,1668539211437988457,gps,2,1,42.3009510512,-83.6978978146,272.301483154,8.1e-05,0.0,0.0,0.0,8.1e-05,0.0,0.0,0.0,0.0016,2
1668539211365859016,450200,1668539211447948433,gps,2,1,42.3009510593,-83.6978978563,272.301452637,8.1e-05,0.0,0.0,0.0,8.1e-05,0.0,0.0,0.0,0.0016,2
1668539211375820403,450201,1668539211457969939,gps,2,1,42.300951068,-83.6978978998,272.301483154,8.1e-05,0.0,0.0,0.0,8.1e-05,0.0,0.0,0.0,0.0016,2
1668539211385786648,450202,1668539211467943211,gps,2,1,42.3009510774,-83.6978979475,272.301452637,8.1e-05,0.0,0.0,0.0,8.1e-05,0.0,0.0,0.0,0.0016,2
1668539211395605421,450203,1668539211477930930,gps,2,1,42.3009510863,-83.6978979925,272.301452637,8.1e-05,0.0,0.0,0.0,8.1e-05,0.0,0.0,0.0,0.0016,2
1668539211405652086,450204,1668539211487905635,gps,2,1,42.3009510957,-83.6978980394,272.301452637,8.1e-05,0.0,0.0,0.0,8.1e-05,0.0,0.0,0.0,0.0016,2
1668539211415934157,450205,1668539211498007440,gps,2,1,42.3009511058,-83.6978980905,272.301422119,8.1e-05,0.0,0.0,0.0,8.1e-05,0.0,0.0,0.0,0.0016,2
1668539211425974082,450206,1668539211508051259,gps,2,1,42.3009511154,-83.6978981387,272.301422119,8.1e-05,0.0,0.0,0.0,8.1e-05,0.0,0.0,0.0,0.0016,2
1668539211435954765,450207,1668539211517958181,gps,2,1,42.3009511258,-83.6978981889,272.301452637,8.1e-05,0.0,0.0,0.0,8.1e-05,0.0,0.0,0.0,0.0016,2
1668539211445964062,450208,1668539211527964378,gps,2,1,42.3009511367,-83.6978982435,272.301422119,8.1e-05,0.0,0.0,0.0,8.1e-05,0.0,0.0,0.0,0.0016,2
1668539211455928860,450209,1668539211537941729,gps,2,1,42.3009511469,-83.6978982952,272.301422119,8.1e-05,0.0,0.0,0.0,8.1e-05,0.0,0.0,0.0,0.0016,2
1668539211465815729,450210,1668539211548001172,gps,2,1,42.3009511581,-83.6978983489,272.301452637,8.1e-05,0.0,0.0,0.0,8.1e-05,0.0,0.0,0.0,0.0016,2
1668539211475703840,450211,1668539211557967638,gps,2,1,42.3009511697,-83.697898407,272.301422119,8.1e-05,0.0,0.0,0.0,8.1e-05,0.0,0.0,0.0,0.0016,2
1668539211485702519,450212,1668539211567888633,gps,2,1,42.3009511807,-83.6978984621,272.301422119,8.1e-05,0.0,0.0,0.0,8.1e-05,0.0,0.0,0.0,0.0016,2
1668539211495727045,450213,1668539211577884766,gps,2,1,42.3009511926,-83.6978985194,272.301452637,8.1e-05,0.0,0.0,0.0,8.1e-05,0.0,0.0,0.0,0.0016,2
1668539211505680935,450214,1668539211587905872,gps,2,1,42.300951205,-83.697898581,272.301422119,8.1e-05,0.0,0.0,0.0,8.1e-05,0.0,0.0,0.0,0.0016,2
1668539211515801842,450215,1668539211597941716,gps,2,1,42.3009512167,-83.6978986397,272.301391602,8.1e-05,0.0,0.0,0.0,8.1e-05,0.0,0.0,0.0,0.0016,2
1668539211525620835,450216,1668539211607881797,gps,2,1,42.3009512293,-83.6978987007,272.301422119,8.1e-05,0.0,0.0,0.0,8.1e-05,0.0,0.0,0.0,0.0016,2
1668539211535710230,450217,1668539211617952793,gps,2,1,42.3009512425,-83.6978987658,272.301391602,8.1e-05,0.0,0.0,0.0,8.1e-05,0.0,0.0,0.0,0.0016,2
1668539211545638209,450218,1668539211627883405,gps,2,1,42.300951255,-83.697898828,272.301361084,8.1e-05,0.0,0.0,0.0,8.1e-05,0.0,0.0,0.0,0.0016,2
1668539211555699991,450219,1668539211637861818,gps,2,1,42.3009512683,-83.6978988925,272.301361084,8.1e-05,0.0,0.0,0.0,8.1e-05,0.0,0.0,0.0,0.0016,2
1668539211565655039,450220,1668539211647941810,gps,2,1,42.3009512823,-83.6978989613,272.301330566,8.1e-05,0.0,0.0,0.0,8.1e-05,0.0,0.0,0.0,0.0016,2
1668539211575448312,450221,1668539211657888328,gps,2,1,42.3009512955,-83.6978990272,272.301300049,8.1e-05,0.0,0.0,0.0,8.1e-05,0.0,0.0,0.0,0.0016,2
1668539211585883404,450222,1668539211667882182,gps,2,1,42.3009513096,-83.6978990953,272.301269531,8.1e-05,0.0,0.0,0.0,8.1e-05,0.0,0.0,0.0,0.0016,2
1668539211595923135,450223,1668539211677947852,gps,2,1,42.3009513243,-83.6978991678,272.301239014,8.1e-05,0.0,0.0,0.0,8.1e-05,0.0,0.0,0.0,0.0016,2
1668539211605903133,450224,1668539211687978198,gps,2,1,42.3009513383,-83.6978992372,272.301208496,8.1e-05,0.0,0.0,0.0,8.1e-05,0.0,0.0,0.0,0.0016,2
1668539211615907303,450225,1668539211697897725,gps,2,1,42.3009513532,-83.697899309,272.301177979,8.1e-05,0.0,0.0,0.0,8.1e-05,0.0,0.0,0.0,0.0016,2
1668539211625633767,450226,1668539211707887287,gps,2,1,42.3009513687,-83.6978993852,272.301116943,8.1e-05,0.0,0.0,0.0,8.1e-05,0.0,0.0,0.0,0.0016,2
1668539211635772039,450227,1668539211717942707,gps,2,1,42.3009513834,-83.6978994583,272.301086426,8.1e-05,0.0,0.0,0.0,8.1e-05,0.0,0.0,0.0,0.0016,2
1668539211645701510,450228,1668539211727894180,gps,2,1,42.3009513991,-83.6978995339,272.301055908,8.1e-05,0.0,0.0,0.0,8.1e-05,0.0,0.0,0.0,0.0016,2
1668539211655685657,450229,1668539211737869566,gps,2,1,42.3009514153,-83.6978996138,272.300994873,8.1e-05,0.0,0.0,0.0,8.1e-05,0.0,0.0,0.0,0.0016,2
1668539211665867830,450230,1668539211748015712,gps,2,1,42.3009514308,-83.6978996906,272.300933838,8.1e-05,0.0,0.0,0.0,8.1e-05,0.0,0.0,0.0,0.0016,2
1668539211675545454,450231,1668539211758002456,gps,2,1,42.3009514472,-83.69789977,272.30090332,8.1e-05,0.0,0.0,0.0,8.1e-05,0.0,0.0,0.0,0.0016,2
1668539211685671919,450232,1668539211767945296,gps,2,1,42.3009514642,-83.6978998537,272.300842285,8.1e-05,0.0,0.0,0.0,8.1e-05,0.0,0.0,0.0,0.0016,2
1668539211695589930,450233,1668539211777892758,gps,2,1,42.3009514806,-83.6978999342,272.300750732,8.1e-05,0.0,0.0,0.0,8.1e-05,0.0,0.0,0.0,0.0016,2
1668539211705561030,450234,1668539211787891551,gps,2,1,42.3009514978,-83.6979000173,272.300720215,8.1e-05,0.0,0.0,0.0,8.1e-05,0.0,0.0,0.0,0.0016,2
1668539211715936119,450235,1668539211797948254,gps,2,1,42.3009515156,-83.6979001047,272.30065918,8.1e-05,0.0,0.0,0.0,8.1e-05,0.0,0.0,0.0,0.0016,2
1668539211725802209,450236,1668539211807893792,gps,2,1,42.3009515327,-83.6979001889,272.300598145,8.1e-05,0.0,0.0,0.0,8.1e-05,0.0,0.0,0.0,0.0016,2
1668539211735887377,450237,1668539211817894159,gps,2,1,42.3009515507,-83.6979002759,272.300537109,8.1e-05,0.0,0.0,0.0,8.1e-05,0.0,0.0,0.0,0.0016,2
1668539211745882685,450238,1668539211827892073,gps,2,1,42.3009515692,-83.697900367,272.300445557,8.1e-05,0.0,0.0,0.0,8.1e-05,0.0,0.0,0.0,0.0016,2
1668539211755760865,450239,1668539211837950956,gps,2,1,42.3009515871,-83.697900455,272.300384521,8.1e-05,0.0,0.0,0.0,8.1e-05,0.0,0.0,0.0,0.0016,2
1668539211765721040,450240,1668539211847884709,gps,2,1,42.3009516058,-83.6979005458,272.300323486,8.1e-05,0.0,0.0,0.0,8.1e-05,0.0,0.0,0.0,0.0016,2
1668539211775730967,450241,1668539211857891157,gps,2,1,42.3009516251,-83.6979006407,272.300231934,8.1e-05,0.0,0.0,0.0,8.1e-05,0.0,0.0,0.0,0.0016,2
1668539211785806646,450242,1668539211867964726,gps,2,1,42.3009516437,-83.6979007324,272.300170898,8.1e-05,0.0,0.0,0.0,8.1e-05,0.0,0.0,0.0,0.0016,2
1668539211795713886,450243,1668539211877919389,gps,2,1,42.3009516631,-83.6979008271,272.300109863,8.1e-05,0.0,0.0,0.0,8.1e-05,0.0,0.0,0.0,0.0016,2
1668539211805734198,450244,1668539211887904737,gps,2,1,42.3009516831,-83.6979009258,272.299987793,8.1e-05,0.0,0.0,0.0,8.1e-05,0.0,0.0,0.0,0.0016,2
1668539211815696700,450245,1668539211897928860,gps,2,1,42.3009517026,-83.6979010214,272.29989624,8.1e-05,0.0,0.0,0.0,8.1e-05,0.0,0.0,0.0,0.0016,2
1668539211825648458,450246,1668539211907911560,gps,2,1,42.3009517227,-83.6979011199,272.299835205,8.1e-05,0.0,0.0,0.0,8.1e-05,0.0,0.0,0.0,0.0016,2
1668539211835799803,450247,1668539211917879686,gps,2,1,42.3009517434,-83.6979012224,272.299713135,8.1e-05,0.0,0.0,0.0,8.1e-05,0.0,0.0,0.0,0.0016,2
1668539211845915389,450248,1668539211927954929,gps,2,1,42.3009517636,-83.6979013218,272.299621582,8.1e-05,0.0,0.0,0.0,8.1e-05,0.0,0.0,0.0,0.0016,2
1668539211855987915,450249,1668539211937986506,gps,2,1,42.3009517845,-83.6979014242,272.299530029,8.1e-05,0.0,0.0,0.0,8.1e-05,0.0,0.0,0.0,0.0016,2
1668539211865531137,450250,1668539211947893402,gps,2,1,42.3009518061,-83.6979015306,272.299438477,8.1e-05,0.0,0.0,0.0,8.1e-05,0.0,0.0,0.0,0.0016,2
1668539211875864707,450251,1668539211957946617,gps,2,1,42.3009518271,-83.6979016338,272.299346924,8.1e-05,0.0,0.0,0.0,8.1e-05,0.0,0.0,0.0,0.0016,2
1668539211885897663,450252,1668539211967914187,gps,2,1,42.3009518488,-83.6979017402,272.299255371,8.1e-05,0.0,0.0,0.0,8.1e-05,0.0,0.0,0.0,0.0016,2
1668539211896022842,450253,1668539211977909116,gps,2,1,42.3009518713,-83.6979018505,272.299133301,8.1e-05,0.0,0.0,0.0,8.1e-05,0.0,0.0,0.0,0.0016,2
1668539211906017289,450254,1668539211987977072,gps,2,1,42.300951893,-83.6979019576,272.29901123,8.1e-05,0.0,0.0,0.0,8.1e-05,0.0,0.0,0.0,0.0016,2
1668539211915626753,450255,1668539211997900448,gps,2,1,42.3009519155,-83.6979020663,272.298797607,8.1e-05,0.0,0.0,0.0,8.1e-05,0.0,0.0,0.0,0.0016,2
1668539211926027650,450256,1668539212008159403,gps,2,1,42.3009519389,-83.6979021805,272.298675537,8.1e-05,0.0,0.0,0.0,8.1e-05,0.0,0.0,0.0,0.0016,2
1668539211935824487,450257,1668539212018013455,gps,2,1,42.3009519615,-83.6979022915,272.298583984,8.1e-05,0.0,0.0,0.0,8.1e-05,0.0,0.0,0.0,0.0016,2
1668539211945704497,450258,1668539212027899179,gps,2,1,42.300951985,-83.6979024042,272.298370361,8.1e-05,0.0,0.0,0.0,8.1e-05,0.0,0.0,0.0,0.0016,2
1668539211955980802,450259,1668539212037945084,gps,2,1,42.3009520093,-83.6979025224,272.298248291,8.1e-05,0.0,0.0,0.0,8.1e-05,0.0,0.0,0.0,0.0016,2
1668539211965603630,450260,1668539212048009284,gps,2,1,42.3009520329,-83.6979026372,272.298126221,8.1e-05,0.0,0.0,0.0,8.1e-05,0.0,0.0,0.0,0.0016,2
1668539211975556702,450261,1668539212057897752,gps,2,1,42.3009520573,-83.6979027539,272.297912598,8.1e-05,0.0,0.0,0.0,8.1e-05,0.0,0.0,0.0,0.0016,2
1668539211985610467,450262,1668539212067950491,gps,2,1,42.3009520826,-83.697902876,272.297790527,8.1e-05,0.0,0.0,0.0,8.1e-05,0.0,0.0,0.0,0.0016,2
1668539211995980375,450263,1668539212078005082,gps,2,1,42.3009521071,-83.6979029948,272.297668457,8.1e-05,0.0,0.0,0.0,8.1e-05,0.0,0.0,0.0,0.0016,2
1668539212005898962,450264,1668539212087907663,gps,2,1,42.3009521325,-83.6979031155,272.297424316,8.1e-05,0.0,0.0,0.0,8.1e-05,0.0,0.0,0.0,0.0016,2
1668539212016062650,450265,1668539212097948807,gps,2,1,42.3009521588,-83.6979032415,272.297302246,8.1e-05,0.0,0.0,0.0,8.1e-05,0.0,0.0,0.0,0.0016,2
1668539212025827109,450266,1668539212108012003,gps,2,1,42.3009521843,-83.6979033642,272.297180176,8.1e-05,0.0,0.0,0.0,8.1e-05,0.0,0.0,0.0,0.0016,2
1668539212036059412,450267,1668539212117900261,gps,2,1,42.3009522106,-83.697903489,272.296966553,8.1e-05,0.0,0.0,0.0,8.1e-05,0.0,0.0,0.0,0.0016,2
1668539212045822795,450268,1668539212127934901,gps,2,1,42.3009522378,-83.6979036189,272.296813965,8.1e-05,0.0,0.0,0.0,8.1e-05,0.0,0.0,0.0,0.0016,2
1668539212055847838,450269,1668539212138029714,gps,2,1,42.3009522643,-83.6979037455,272.296691895,8.1e-05,0.0,0.0,0.0,8.1e-05,0.0,0.0,0.0,0.0016,2
1668539212065855284,450270,1668539212147973276,gps,2,1,42.3009522916,-83.6979038743,272.296478271,8.1e-05,0.0,0.0,0.0,8.1e-05,0.0,0.0,0.0,0.0016,2
1668539212075761789,450271,1668539212157952546,gps,2,1,42.3009523196,-83.6979040082,272.296325684,8.1e-05,0.0,0.0,0.0,8.1e-05,0.0,0.0,0.0,0.0016,2
1668539212085917658,450272,1668539212168029431,gps,2,1,42.3009523471,-83.6979041387,272.296173096,8.1e-05,0.0,0.0,0.0,8.1e-05,0.0,0.0,0.0,0.0016,2
1668539212095768686,450273,1668539212177943770,gps,2,1,42.3009523752,-83.6979042715,272.295959473,8.1e-05,0.0,0.0,0.0,8.1e-05,0.0,0.0,0.0,0.0016,2
1668539212105699640,450274,1668539212188091142,gps,2,1,42.3009524041,-83.6979044093,272.295806885,8.1e-05,0.0,0.0,0.0,8.1e-05,0.0,0.0,0.0,0.0016,2
1668539212115649201,450275,1668539212198041224,gps,2,1,42.3009524323,-83.6979045439,272.295654297,8.1e-05,0.0,0.0,0.0,8.1e-05,0.0,0.0,0.0,0.0016,2
1668539212125596975,450276,1668539212207924268,gps,2,1,42.3009524612,-83.6979046809,272.295440674,8.1e-05,0.0,0.0,0.0,8.1e-05,0.0,0.0,0.0,0.0016,2
1668539212135658990,450277,1668539212217904991,gps,2,1,42.3009524908,-83.6979048229,272.295288086,8.1e-05,0.0,0.0,0.0,8.1e-05,0.0,0.0,0.0,0.0016,2
1668539212146004565,450278,1668539212227961884,gps,2,1,42.3009525199,-83.6979049613,272.295135498,8.1e-05,0.0,0.0,0.0,8.1e-05,0.0,0.0,0.0,0.0016,2
1668539212156057790,450279,1668539212237891514,gps,2,1,42.3009525495,-83.6979051024,272.294921875,8.1e-05,0.0,0.0,0.0,8.1e-05,0.0,0.0,0.0,0.0016,2
1668539212165970487,450280,1668539212247901575,gps,2,1,42.3009525798,-83.6979052485,272.29473877,8.1e-05,0.0,0.0,0.0,8.1e-05,0.0,0.0,0.0,0.0016,2
1668539212175952828,450281,1668539212258073403,gps,2,1,42.3009526095,-83.6979053912,272.294586182,8.1e-05,0.0,0.0,0.0,8.1e-05,0.0,0.0,0.0,0.0016,2
1668539212186038204,450282,1668539212267900727,gps,2,1,42.3009526397,-83.6979055366,272.294372559,8.1e-05,0.0,0.0,0.0,8.1e-05,0.0,0.0,0.0,0.0016,2
1668539212195705728,450283,1668539212277893970,gps,2,1,42.3009526706,-83.697905687,272.294189453,8.1e-05,0.0,0.0,0.0,8.1e-05,0.0,0.0,0.0,0.0016,2
1668539212205851823,450284,1668539212287956926,gps,2,1,42.300952701,-83.6979058338,272.294036865,8.1e-05,0.0,0.0,0.0,8.1e-05,0.0,0.0,0.0,0.0016,2
1668539212215722263,450285,1668539212297905878,gps,2,1,42.3009527319,-83.6979059836,272.293823242,8.1e-05,0.0,0.0,0.0,8.1e-05,0.0,0.0,0.0,0.0016,2
1668539212225990395,450286,1668539212308005872,gps,2,1,42.3009527632,-83.6979061383,272.293640137,8.1e-05,0.0,0.0,0.0,8.1e-05,0.0,0.0,0.0,0.0016,2
1668539212235799299,450287,1668539212317955730,gps,2,1,42.3009527942,-83.6979062894,272.293487549,8.1e-05,0.0,0.0,0.0,8.1e-05,0.0,0.0,0.0,0.0016,2
1668539212245756882,450288,1668539212327894559,gps,2,1,42.3009528256,-83.6979064436,272.293243408,8.1e-05,0.0,0.0,0.0,8.1e-05,0.0,0.0,0.0,0.0016,2
1668539212255642938,450289,1668539212337894307,gps,2,1,42.3009528576,-83.6979066027,272.29309082,8.1e-05,0.0,0.0,0.0,8.1e-05,0.0,0.0,0.0,0.0016,2
1668539212265676261,450290,1668539212347961007,gps,2,1,42.300952889,-83.697906758,272.292938232,8.1e-05,0.0,0.0,0.0,8.1e-05,0.0,0.0,0.0,0.0016,2
1668539212275556821,450291,1668539212357897059,gps,2,1,42.3009529209,-83.6979069165,272.292724609,8.1e-05,0.0,0.0,0.0,8.1e-05,0.0,0.0,0.0,0.0016,2
1668539212285671686,450292,1668539212367902747,gps,2,1,42.3009529534,-83.6979070799,272.292541504,8.1e-05,0.0,0.0,0.0,8.1e-05,0.0,0.0,0.0,0.0016,2
1668539212295989353,450293,1668539212377977200,gps,2,1,42.3009529854,-83.6979072396,272.292388916,8.1e-05,0.0,0.0,0.0,8.1e-05,0.0,0.0,0.0,0.0016,2
1668539212305990704,450294,1668539212387913299,gps,2,1,42.3009530175,-83.697907403,272.292205811,8.1e-05,0.0,0.0,0.0,8.1e-05,0.0,0.0,0.0,0.0016,2
1668539212315975236,450295,1668539212397905305,gps,2,1,42.3009530505,-83.6979075705,272.292053223,8.1e-05,0.0,0.0,0.0,8.1e-05,0.0,0.0,0.0,0.0016,2
1668539212325786434,450296,1668539212407965213,gps,2,1,42.300953083,-83.6979077345,272.291900635,8.1e-05,0.0,0.0,0.0,8.1e-05,0.0,0.0,0.0,0.0016,2
1668539212335844451,450297,1668539212417898364,gps,2,1,42.3009531157,-83.6979079019,272.291717529,8.1e-05,0.0,0.0,0.0,8.1e-05,0.0,0.0,0.0,0.0016,2
1668539212345784548,450298,1668539212427904607,gps,2,1,42.3009531493,-83.6979080734,272.291595459,8.1e-05,0.0,0.0,0.0,8.1e-05,0.0,0.0,0.0,0.0016,2
1668539212356176578,450299,1668539212438138717,gps,2,1,42.3009531826,-83.6979082415,272.291442871,8.1e-05,0.0,0.0,0.0,8.1e-05,0.0,0.0,0.0,0.0016,2
1668539212365793321,450300,1668539212447906723,gps,2,1,42.300953216,-83.697908413,272.291259766,8.1e-05,0.0,0.0,0.0,8.1e-05,0.0,0.0,0.0,0.0016,2
1668539212375901680,450301,1668539212457908036,gps,2,1,42.3009532505,-83.6979085882,272.291107178,8.1e-05,0.0,0.0,0.0,8.1e-05,0.0,0.0,0.0,0.0016,2
1668539212385894699,450302,1668539212467951818,gps,2,1,42.3009532843,-83.6979087605,272.290985107,8.1e-05,0.0,0.0,0.0,8.1e-05,0.0,0.0,0.0,0.0016,2
1668539212395722082,450303,1668539212477894677,gps,2,1,42.3009533186,-83.6979089357,272.290802002,8.1e-05,0.0,0.0,0.0,8.1e-05,0.0,0.0,0.0,0.0016,2
1668539212405681633,450304,1668539212487886706,gps,2,1,42.300953354,-83.6979091148,272.290679932,8.1e-05,0.0,0.0,0.0,8.1e-05,0.0,0.0,0.0,0.0016,2
1668539212416150333,450305,1668539212498028901,gps,2,1,42.3009533886,-83.6979092908,272.290527344,8.1e-05,0.0,0.0,0.0,8.1e-05,0.0,0.0,0.0,0.0016,2
1668539212426186184,450306,1668539212508086952,gps,2,1,42.3009534231,-83.6979094704,272.290313721,8.1e-05,0.0,0.0,0.0,8.1e-05,0.0,0.0,0.0,0.0016,2
