%time,field.header.seq,field.header.stamp,field.header.frame_id,field.status.status,field.status.service,field.latitude,field.longitude,field.altitude,field.position_covariance0,field.position_covariance1,field.position_covariance2,field.position_covariance3,field.position_covariance4,field.position_covariance5,field.position_covariance6,field.position_covariance7,field.position_covariance8,field.position_covariance_type
1668537653035010409,294367,1668537653117210528,gps,2,1,42.3002460793,-83.698598285,270.859008789,0.000121,0.0,0.0,0.0,0.000144,0.0,0.0,0.0,0.002809,2
1668537653045100567,294368,1668537653127288285,gps,2,1,42.3002461094,-83.6985982875,270.859069824,0.000121,0.0,0.0,0.0,0.000144,0.0,0.0,0.0,0.002809,2
1668537653055123570,294369,1668537653137225646,gps,2,1,42.3002461397,-83.6985982887,270.859191895,0.000121,0.0,0.0,0.0,0.000144,0.0,0.0,0.0,0.002809,2
1668537653065013686,294370,1668537653147257956,gps,2,1,42.3002461713,-83.6985982913,270.85925293,0.000121,0.0,0.0,0.0,0.000144,0.0,0.0,0.0,0.002809,2
1668537653075012582,294371,1668537653157225867,gps,2,1,42.3002462021,-83.6985982939,270.859313965,0.000121,0.0,0.0,0.0,0.000144,0.0,0.0,0.0,0.002809,2
1668537653085101180,294372,1668537653167187280,gps,2,1,42.3002462332,-83.6985982951,270.859436035,0.000121,0.0,0.0,0.0,0.000144,0.0,0.0,0.0,0.002809,2
1668537653094993986,294373,1668537653177246050,gps,2,1,42.3002462654,-83.6985982978,270.85949707,0.000121,0.0,0.0,0.0,0.000144,0.0,0.0,0.0,0.002809,2
1668537653104953596,294374,1668537653187199866,gps,2,1,42.3002462971,-83.6985983004,270.859527588,0.000121,0.0,0.0,0.0,0.000144,0.0,0.0,0.0,0.002809,2
1668537653114898659,294375,1668537653197191681,gps,2,1,42.3002463288,-83.6985983018,270.859649658,0.000121,0.0,0.0,0.0,0.000144,0.0,0.0,0.0,0.002809,2
1668537653124795809,294376,1668537653207204166,gps,2,1,42.3002463618,-83.6985983045,270.859710693,0.000121,0.0,0.0,0.0,0.000144,0.0,0.0,0.0,0.002809,2
1668537653135223879,294377,1668537653217262758,gps,2,1,42.3002463941,-83.6985983072,270.859771729,0.000121,0.0,0.0,0.0,0.000144,0.0,0.0,0.0,0.002809,2
1668537653145240671,294378,1668537653227283954,gps,2,1,42.3002464266,-83.6985983086,270.859893799,0.000121,0.0,0.0,0.0,0.000144,0.0,0.0,0.0,0.002809,2
1668537653155176742,294379,1668537653237203913,gps,2,1,42.3002464603,-83.6985983114,270.859954834,0.000121,0.0,0.0,0.0,0.000144,0.0,0.0,0.0,0.002809,2
1668537653165064234,294380,1668537653247246242,gps,2,1,42.3002464934,-83.6985983141,270.859985352,0.000121,0.0,0.0,0.0,0.000144,0.0,0.0,0.0,0.002809,2
1668537653175201183,294381,1668537653257240118,gps,2,1,42.3002465266,-83.6985983155,270.860107422,0.000121,0.0,0.0,0.0,0.000144,0.0,0.0,0.0,0.002809,2
1668537653185050490,294382,1668537653267251934,gps,2,1,42.3002465611,-83.6985983183,270.860168457,0.000121,0.0,0.0,0.0,0.000144,0.0,0.0,0.0,0.002809,2
1668537653195114526,294383,1668537653277202083,gps,2,1,42.3002465948,-83.698598321,270.860229492,0.000121,0.0,0.0,0.0,0.000144,0.0,0.0,0.0,0.002809,2
1668537653204919654,294384,1668537653287198052,gps,2,1,42.3002466288,-83.6985983226,270.860351562,0.000121,0.0,0.0,0.0,0.000144,0.0,0.0,0.0,0.002809,2
1668537653215104141,294385,1668537653297412960,gps,2,1,42.300246664,-83.6985983253,270.860412598,0.000121,0.0,0.0,0.0,0.000144,0.0,0.0,0.0,0.002809,2
1668537653225078019,294386,1668537653307291565,gps,2,1,42.3002466985,-83.6985983281,270.860473633,0.000121,0.0,0.0,0.0,0.000144,0.0,0.0,0.0,0.002809,2
1668537653234831353,294387,1668537653317192140,gps,2,1,42.3002467333,-83.6985983297,270.860595703,0.000121,0.0,0.0,0.0,0.000144,0.0,0.0,0.0,0.002809,2
1668537653244934272,294388,1668537653327235541,gps,2,1,42.3002467691,-83.6985983326,270.860656738,0.000121,0.0,0.0,0.0,0.000144,0.0,0.0,0.0,0.002809,2
1668537653254795990,294389,1668537653337180002,gps,2,1,42.3002468044,-83.6985983354,270.860717773,0.000121,0.0,0.0,0.0,0.000144,0.0,0.0,0.0,0.002809,2
1668537653264876471,294390,1668537653347180001,gps,2,1,42.3002468399,-83.6985983371,270.860809326,0.000121,0.0,0.0,0.0,0.000144,0.0,0.0,0.0,0.002809,2
1668537653274698631,294391,1668537653357191867,gps,2,1,42.3002468765,-83.6985983401,270.860870361,0.000121,0.0,0.0,0.0,0.000144,0.0,0.0,0.0,0.002809,2
1668537653285121156,294392,1668537653367288372,gps,2,1,42.3002469125,-83.698598343,270.860931396,0.000121,0.0,0.0,0.0,0.000144,0.0,0.0,0.0,0.002809,2
1668537653295189950,294393,1668537653377194777,gps,2,1,42.3002469488,-83.698598345,270.861053467,0.000121,0.0,0.0,0.0,0.000144,0.0,0.0,0.0,0.002809,2
1668537653305200481,294394,1668537653387191281,gps,2,1,42.3002469861,-83.698598348,270.861083984,0.000121,0.0,0.0,0.0,0.000144,0.0,0.0,0.0,0.002809,2
1668537653314922925,294395,1668537653397286235,gps,2,1,42.3002470228,-83.6985983509,270.86114502,0.000121,0.0,0.0,0.0,0.000144,0.0,0.0,0.0,0.002809,2
1668537653325007559,294396,1668537653407240160,gps,2,1,42.3002470598,-83.6985983531,270.861236572,0.000121,0.0,0.0,0.0,0.000144,0.0,0.0,0.0,0.002809,2
1668537653335050634,294397,1668537653417247940,gps,2,1,42.3002470978,-83.6985983562,270.861297607,0.000121,0.0,0.0,0.0,0.000144,0.0,0.0,0.0,0.002809,2
1668537653344849321,294398,1668537653427231282,gps,2,1,42.3002471352,-83.6985983592,270.861358643,0.000121,0.0,0.0,0.0,0.000144,0.0,0.0,0.0,0.002809,2
1668537653355052725,294399,1668537653437198863,gps,2,1,42.3002471729,-83.6985983614,270.861450195,0.000121,0.0,0.0,0.0,0.000144,0.0,0.0,0.0,0.002809,2
1668537653364868155,294400,1668537653447230557,gps,2,1,42.3002472116,-83.6985983645,270.86151123,0.000121,0.0,0.0,0.0,0.000144,0.0,0.0,0.0,0.002809,2
1668537653374916439,294401,1668537653457191194,gps,2,1,42.3002472498,-83.6985983676,270.861541748,0.000121,0.0,0.0,0.0,0.000144,0.0,0.0,0.0,0.002809,2
1668537653384964156,294402,1668537653467187893,gps,2,1,42.3002472883,-83.6985983699,270.861633301,0.000121,0.0,0.0,0.0,0.000144,0.0,0.0,0.0,0.002809,2
1668537653395313593,294403,1668537653477331185,gps,2,1,42.3002473278,-83.698598373,270.861694336,0.000121,0.0,0.0,0.0,0.000144,0.0,0.0,0.0,0.002809,2
1668537653404720683,294404,1668537653487175888,gps,2,1,42.3002473666,-83.6985983762,270.861755371,0.000121,0.0,0.0,0.0,0.000144,0.0,0.0,0.0,0.002809,2
1668537653414814310,294405,1668537653497218531,gps,2,1,42.3002474058,-83.6985983785,270.861846924,0.000121,0.0,0.0,0.0,0.000144,0.0,0.0,0.0,0.002809,2
1668537653425139862,294406,1668537653507260159,gps,2,1,42.300247446,-83.6985983816,270.861877441,0.000121,0.0,0.0,0.0,0.000144,0.0,0.0,0.0,0.002809,2
1668537653435105514,294407,1668537653517248540,gps,2,1,42.3002474856,-83.6985983847,270.861938477,0.000121,0.0,0.0,0.0,0.000144,0.0,0.0,0.0,0.002809,2
1668537653445202304,294408,1668537653527234412,gps,2,1,42.3002475256,-83.6985983871,270.862030029,0.000121,0.0,0.0,0.0,0.000144,0.0,0.0,0.0,0.002809,2
1668537653454985074,294409,1668537653537259876,gps,2,1,42.3002475666,-83.6985983902,270.862091064,0.000121,0.0,0.0,0.0,0.000144,0.0,0.0,0.0,0.002809,2
1668537653464902382,294410,1668537653547267549,gps,2,1,42.3002476069,-83.6985983933,270.8621521,0.000121,0.0,0.0,0.0,0.000144,0.0,0.0,0.0,0.002809,2
1668537653475068895,294411,1668537653557240642,gps,2,1,42.3002476482,-83.6985983948,270.862060547,0.000121,0.0,0.0,0.0,0.000144,0.0,0.0,0.0,0.002809,2
1668537653484934635,294412,1668537653567256874,gps,2,1,42.3002476899,-83.698598398,270.862121582,0.000121,0.0,0.0,0.0,0.000144,0.0,0.0,0.0,0.002809,2
1668537653494999699,294413,1668537653577246134,gps,2,1,42.300247731,-83.6985984011,270.8621521,0.000121,0.0,0.0,0.0,0.000144,0.0,0.0,0.0,0.002809,2
1668537653504946574,294414,1668537653587189769,gps,2,1,42.3002477729,-83.6985984027,270.862091064,0.000121,0.0,0.0,0.0,0.000144,0.0,0.0,0.0,0.002809,2
1668537653514817223,294415,1668537653597172411,gps,2,1,42.3002478154,-83.6985984059,270.862121582,0.000121,0.0,0.0,0.0,0.000144,0.0,0.0,0.0,0.002809,2
1668537653524819644,294416,1668537653607209094,gps,2,1,42.3002478573,-83.6985984091,270.862182617,0.000121,0.0,0.0,0.0,0.000144,0.0,0.0,0.0,0.002809,2
1668537653534776298,294417,1668537653617156763,gps,2,1,42.3002479,-83.6985984108,270.862091064,0.000121,0.0,0.0,0.0,0.000144,0.0,0.0,0.0,0.002809,2
1668537653544872687,294418,1668537653627152114,gps,2,1,42.3002479432,-83.6985984141,270.8621521,0.000121,0.0,0.0,0.0,0.000144,0.0,0.0,0.0,0.002809,2
1668537653554774889,294419,1668537653637250998,gps,2,1,42.3002479859,-83.6985984174,270.862213135,0.000121,0.0,0.0,0.0,0.000144,0.0,0.0,0.0,0.002809,2
1668537653564643924,294420,1668537653647184628,gps,2,1,42.3002480295,-83.6985984189,270.862121582,0.000121,0.0,0.0,0.0,0.000144,0.0,0.0,0.0,0.002809,2
1668537653575007877,294421,1668537653657164550,gps,2,1,42.3002480735,-83.6985984224,270.8621521,0.000121,0.0,0.0,0.0,0.000144,0.0,0.0,0.0,0.002809,2
1668537653584986297,294422,1668537653667218397,gps,2,1,42.3002481169,-83.6985984257,270.862213135,0.000121,0.0,0.0,0.0,0.000144,0.0,0.0,0.0,0.002809,2
1668537653595015260,294423,1668537653677154783,gps,2,1,42.3002481614,-83.6985984274,270.862121582,0.000121,0.0,0.0,0.0,0.000144,0.0,0.0,0.0,0.002809,2
1668537653605154115,294424,1668537653687161751,gps,2,1,42.3002482061,-83.6985984309,270.862182617,0.000121,0.0,0.0,0.0,0.000144,0.0,0.0,0.0,0.002809,2
1668537653615137489,294425,1668537653697220944,gps,2,1,42.3002482502,-83.6985984343,270.862213135,0.000121,0.0,0.0,0.0,0.000144,0.0,0.0,0.0,0.002809,2
1668537653624861193,294426,1668537653707157253,gps,2,1,42.3002482954,-83.6985984362,270.862121582,0.000121,0.0,0.0,0.0,0.000144,0.0,0.0,0.0,0.002809,2
1668537653634885843,294427,1668537653717185366,gps,2,1,42.3002483409,-83.6985984397,270.8621521,0.000121,0.0,0.0,0.0,0.000144,0.0,0.0,0.0,0.002809,2
1668537653644976880,294428,1668537653727294029,gps,2,1,42.3002483857,-83.6985984433,270.862213135,0.000121,0.0,0.0,0.0,0.000144,0.0,0.0,0.0,0.002809,2
1668537653654832591,294429,1668537653737152961,gps,2,1,42.3002484317,-83.6985984452,270.862121582,0.000121,0.0,0.0,0.0,0.000144,0.0,0.0,0.0,0.002809,2
1668537653664810336,294430,1668537653747145931,gps,2,1,42.3002484779,-83.6985984487,270.8621521,0.000121,0.0,0.0,0.0,0.000144,0.0,0.0,0.0,0.002809,2
1668537653674839646,294431,1668537653757230486,gps,2,1,42.3002485236,-83.6985984523,270.862213135,0.000121,0.0,0.0,0.0,0.000144,0.0,0.0,0.0,0.002809,2
1668537653684684781,294432,1668537653767146951,gps,2,1,42.3002485702,-83.6985984542,270.862121582,0.000121,0.0,0.0,0.0,0.000144,0.0,0.0,0.0,0.002809,2
1668537653694720039,294433,1668537653777161201,gps,2,1,42.3002486172,-83.6985984578,270.862182617,0.000121,0.0,0.0,0.0,0.000144,0.0,0.0,0.0,0.002809,2
1668537653704692388,294434,1668537653787207248,gps,2,1,42.3002486636,-83.6985984613,270.862213135,0.000121,0.0,0.0,0.0,0.000144,0.0,0.0,0.0,0.002809,2
1668537653714736408,294435,1668537653797152701,gps,2,1,42.3002487109,-83.6985984633,270.8621521,0.000121,0.0,0.0,0.0,0.000144,0.0,0.0,0.0,0.002809,2
1668537653725041649,294436,1668537653807155954,gps,2,1,42.3002487586,-83.6985984668,270.862182617,0.000121,0.0,0.0,0.0,0.000144,0.0,0.0,0.0,0.002809,2
1668537653735125839,294437,1668537653817212167,gps,2,1,42.3002488057,-83.6985984703,270.862213135,0.000121,0.0,0.0,0.0,0.000144,0.0,0.0,0.0,0.002809,2
1668537653744923793,294438,1668537653827156114,gps,2,1,42.3002488538,-83.6985984723,270.8621521,0.000121,0.0,0.0,0.0,0.000144,0.0,0.0,0.0,0.002809,2
1668537653754991705,294439,1668537653837161391,gps,2,1,42.3002489021,-83.6985984759,270.862182617,0.000121,0.0,0.0,0.0,0.000144,0.0,0.0,0.0,0.002809,2
1668537653764842788,294440,1668537653847203588,gps,2,1,42.30024895,-83.6985984794,270.862243652,0.000121,0.0,0.0,0.0,0.000144,0.0,0.0,0.0,0.002809,2
1668537653774808829,294441,1668537653857147784,gps,2,1,42.3002489988,-83.6985984814,270.8621521,0.000121,0.0,0.0,0.0,0.000144,0.0,0.0,0.0,0.002809,2
1668537653784895546,294442,1668537653867145728,gps,2,1,42.3002490479,-83.698598485,270.862182617,0.000121,0.0,0.0,0.0,0.000144,0.0,0.0,0.0,0.002809,2
1668537653794862382,294443,1668537653877222791,gps,2,1,42.3002490963,-83.6985984885,270.862243652,0.000121,0.0,0.0,0.0,0.000144,0.0,0.0,0.0,0.002809,2
1668537653804768051,294444,1668537653887134033,gps,2,1,42.3002491457,-83.6985984907,270.8621521,0.000121,0.0,0.0,0.0,0.000144,0.0,0.0,0.0,0.002809,2
1668537653814733410,294445,1668537653897137346,gps,2,1,42.3002491955,-83.6985984943,270.862213135,0.000121,0.0,0.0,0.0,0.000144,0.0,0.0,0.0,0.002809,2
1668537653824693136,294446,1668537653907199813,gps,2,1,42.3002492447,-83.6985984978,270.862243652,0.000121,0.0,0.0,0.0,0.000144,0.0,0.0,0.0,0.002809,2
1668537653834927602,294447,1668537653917156903,gps,2,1,42.3002492948,-83.6985985001,270.862182617,0.000121,0.0,0.0,0.0,0.000144,0.0,0.0,0.0,0.002809,2
1668537653844670614,294448,1668537653927143840,gps,2,1,42.3002493453,-83.6985985037,270.862213135,0.000121,0.0,0.0,0.0,0.000144,0.0,0.0,0.0,0.002809,2
1668537653855075791,294449,1668537653937206484,gps,2,1,42.3002493952,-83.6985985072,270.862243652,0.000121,0.0,0.0,0.0,0.000144,0.0,0.0,0.0,0.002809,2
1668537653865001635,294450,1668537653947136311,gps,2,1,42.300249446,-83.6985985096,270.862182617,0.000121,0.0,0.0,0.0,0.000144,0.0,0.0,0.0,0.002809,2
1668537653874974397,294451,1668537653957135694,gps,2,1,42.3002494971,-83.6985985133,270.862213135,0.000121,0.0,0.0,0.0,0.000144,0.0,0.0,0.0,0.002809,2
1668537653884841188,294452,1668537653967210148,gps,2,1,42.3002495477,-83.6985985169,270.86227417,0.000121,0.0,0.0,0.0,0.000144,0.0,0.0,0.0,0.002809,2
1668537653895057370,294453,1668537653977231843,gps,2,1,42.3002495991,-83.6985985193,270.862213135,0.000121,0.0,0.0,0.0,0.000144,0.0,0.0,0.0,0.002809,2
1668537653904793162,294454,1668537653987148704,gps,2,1,42.300249651,-83.6985985231,270.86227417,0.000121,0.0,0.0,0.0,0.000144,0.0,0.0,0.0,0.002809,2
1668537653915044406,294455,1668537653997266402,gps,2,1,42.3002497023,-83.6985985267,270.862304688,0.000121,0.0,0.0,0.0,0.000144,0.0,0.0,0.0,0.002809,2
1668537653924937416,294456,1668537654007234086,gps,2,1,42.3002497554,-83.6985985274,270.861907959,0.000121,0.0,0.0,0.0,0.000144,0.0,0.0,0.0,0.002809,2
1668537653935089694,294457,1668537654017166605,gps,2,1,42.3002498078,-83.6985985312,270.861968994,0.000121,0.0,0.0,0.0,0.000144,0.0,0.0,0.0,0.002809,2
1668537653945077111,294458,1668537654027248269,gps,2,1,42.3002498598,-83.6985985349,270.861999512,0.000121,0.0,0.0,0.0,0.000144,0.0,0.0,0.0,0.002809,2
1668537653954816581,294459,1668537654037221174,gps,2,1,42.3002499136,-83.6985985357,270.861633301,0.000121,0.0,0.0,0.0,0.000144,0.0,0.0,0.0,0.002809,2
1668537653964864274,294460,1668537654047161695,gps,2,1,42.3002499668,-83.6985985396,270.861694336,0.000121,0.0,0.0,0.0,0.000144,0.0,0.0,0.0,0.002809,2
1668537653975133728,294461,1668537654057245723,gps,2,1,42.3002500194,-83.6985985434,270.861724854,0.000121,0.0,0.0,0.0,0.000144,0.0,0.0,0.0,0.002809,2
1668537653985049032,294462,1668537654067252237,gps,2,1,42.3002500738,-83.6985985444,270.86138916,0.000121,0.0,0.0,0.0,0.000144,0.0,0.0,0.0,0.002809,2
1668537653994826131,294463,1668537654077163742,gps,2,1,42.3002501277,-83.6985985483,270.861419678,0.000121,0.0,0.0,0.0,0.000144,0.0,0.0,0.0,0.002809,2
1668537654005110799,294464,1668537654087212552,gps,2,1,42.3002501811,-83.6985985522,270.861450195,0.000121,0.0,0.0,0.0,0.000144,0.0,0.0,0.0,0.002809,2
1668537654015031172,294465,1668537654097135971,gps,2,1,42.3002502361,-83.6985985533,270.86114502,0.000121,0.0,0.0,0.0,0.000144,0.0,0.0,0.0,0.002809,2
1668537654024949030,294466,1668537654107215614,gps,2,1,42.3002502906,-83.6985985574,270.861175537,0.000121,0.0,0.0,0.0,0.000144,0.0,0.0,0.0,0.002809,2
1668537654034911085,294467,1668537654117141013,gps,2,1,42.3002503446,-83.6985985613,270.861206055,0.000121,0.0,0.0,0.0,0.000144,0.0,0.0,0.0,0.002809,2
1668537654044853271,294468,1668537654127117412,gps,2,1,42.3002504002,-83.6985985625,270.860900879,0.000121,0.0,0.0,0.0,0.000144,0.0,0.0,0.0,0.002809,2
1668537654054986309,294469,1668537654137143985,gps,2,1,42.3002504554,-83.6985985665,270.860961914,0.000121,0.0,0.0,0.0,0.000144,0.0,0.0,0.0,0.002809,2
1668537654064920206,294470,1668537654147184018,gps,2,1,42.30025051,-83.6985985705,270.860992432,0.000121,0.0,0.0,0.0,0.000144,0.0,0.0,0.0,0.002809,2
1668537654074976224,294471,1668537654157136324,gps,2,1,42.3002505663,-83.6985985718,270.860687256,0.000121,0.0,0.0,0.0,0.000144,0.0,0.0,0.0,0.002809,2
1668537654084763820,294472,1668537654167133917,gps,2,1,42.3002506221,-83.6985985757,270.860748291,0.000121,0.0,0.0,0.0,0.000144,0.0,0.0,0.0,0.002809,2
1668537654094831019,294473,1668537654177173979,gps,2,1,42.3002506773,-83.6985985798,270.860778809,0.000121,0.0,0.0,0.0,0.000144,0.0,0.0,0.0,0.002809,2
1668537654104773522,294474,1668537654187112632,gps,2,1,42.3002507342,-83.6985985811,270.86050415,0.000121,0.0,0.0,0.0,0.000144,0.0,0.0,0.0,0.002809,2
1668537654114837840,294475,1668537654197121883,gps,2,1,42.3002507906,-83.698598585,270.860534668,0.000121,0.0,0.0,0.0,0.000144,0.0,0.0,0.0,0.002809,2
1668537654125199502,294476,1668537654207187957,gps,2,1,42.3002508465,-83.6985985889,270.860595703,8.1e-05,0.0,0.0,0.0,0.0001,0.0,0.0,0.0,0.002809,2
1668537654134550260,294477,1668537654217126172,gps,2,1,42.300250904,-83.6985985903,270.860321045,8.1e-05,0.0,0.0,0.0,0.0001,0.0,0.0,0.0,0.002809,2
1668537654145158392,294478,1668537654227223691,gps,2,1,42.300250961,-83.6985985942,270.86038208,8.1e-05,0.0,0.0,0.0,0.0001,0.0,0.0,0.0,0.002809,2
1668537654155076251,294479,1668537654237190918,gps,2,1,42.3002510175,-83.6985985981,270.860412598,8.1e-05,0.0,0.0,0.0,0.0001,0.0,0.0,0.0,0.002809,2
1668537654165072165,294480,1668537654247122393,gps,2,1,42.3002510756,-83.6985985995,270.860168457,8.1e-05,0.0,0.0,0.0,0.0001,0.0,0.0,0.0,0.002809,2
1668537654174873567,294481,1668537654257156609,gps,2,1,42.3002511333,-83.6985986034,270.860198975,8.1e-05,0.0,0.0,0.0,0.0001,0.0,0.0,0.0,0.002809,2
1668537654184838483,294482,1668537654267191170,gps,2,1,42.3002511904,-83.6985986073,270.86026001,8.1e-05,0.0,0.0,0.0,0.0001,0.0,0.0,0.0,0.002809,2
1668537654194904744,294483,1668537654277166229,gps,2,1,42.3002512491,-83.6985986088,270.859985352,8.1e-05,0.0,0.0,0.0,0.0001,0.0,0.0,0.0,0.002809,2
1668537654204999557,294484,1668537654287157764,gps,2,1,42.3002513074,-83.6985986127,270.860046387,8.1e-05,0.0,0.0,0.0,0.0001,0.0,0.0,0.0,0.002809,2
1668537654215110684,294485,1668537654297201344,gps,2,1,42.3002513652,-83.6985986166,270.860076904,8.1e-05,0.0,0.0,0.0,0.0001,0.0,0.0,0.0,0.002809,2
1668537654224831382,294486,1668537654307114695,gps,2,1,42.3002514245,-83.6985986182,270.859832764,8.1e-05,0.0,0.0,0.0,0.0001,0.0,0.0,0.0,0.002809,2
1668537654234754465,294487,1668537654317132544,gps,2,1,42.3002514834,-83.6985986222,270.859893799,8.1e-05,0.0,0.0,0.0,0.0001,0.0,0.0,0.0,0.002809,2
1668537654244796259,294488,1668537654327168611,gps,2,1,42.3002515418,-83.6985986261,270.859924316,8.1e-05,0.0,0.0,0.0,0.0001,0.0,0.0,0.0,0.002809,2
1668537654254731879,294489,1668537654337111149,gps,2,1,42.3002516017,-83.6985986278,270.859710693,8.1e-05,0.0,0.0,0.0,0.0001,0.0,0.0,0.0,0.002809,2
1668537654264802129,294490,1668537654347122160,gps,2,1,42.3002516612,-83.6985986319,270.859741211,8.1e-05,0.0,0.0,0.0,0.0001,0.0,0.0,0.0,0.002809,2
1668537654274998172,294491,1668537654357168071,gps,2,1,42.3002517203,-83.6985986358,270.859771729,8.1e-05,0.0,0.0,0.0,0.0001,0.0,0.0,0.0,0.002809,2
1668537654285056725,294492,1668537654367107231,gps,2,1,42.3002517808,-83.6985986377,270.859558105,8.1e-05,0.0,0.0,0.0,0.0001,0.0,0.0,0.0,0.002809,2
1668537654295239876,294493,1668537654377205887,gps,2,1,42.300251841,-83.6985986417,270.859588623,8.1e-05,0.0,0.0,0.0,0.0001,0.0,0.0,0.0,0.002809,2
1668537654305115802,294494,1668537654387184788,gps,2,1,42.3002519006,-83.6985986458,270.859619141,8.1e-05,0.0,0.0,0.0,0.0001,0.0,0.0,0.0,0.002809,2
1668537654314651196,294495,1668537654397130783,gps,2,1,42.3002519616,-83.698598648,270.859436035,8.1e-05,0.0,0.0,0.0,0.0001,0.0,0.0,0.0,0.002809,2
1668537654325052194,294496,1668537654407131470,gps,2,1,42.3002520224,-83.6985986521,270.859466553,8.1e-05,0.0,0.0,0.0,0.0001,0.0,0.0,0.0,0.002809,2
1668537654334969319,294497,1668537654417168970,gps,2,1,42.3002520826,-83.6985986562,270.85949707,8.1e-05,0.0,0.0,0.0,0.0001,0.0,0.0,0.0,0.002809,2
1668537654344865004,294498,1668537654427114128,gps,2,1,42.3002521442,-83.6985986585,270.859283447,8.1e-05,0.0,0.0,0.0,0.0001,0.0,0.0,0.0,0.002809,2
1668537654354966953,294499,1668537654437096255,gps,2,1,42.3002522056,-83.6985986628,270.859344482,8.1e-05,0.0,0.0,0.0,0.0001,0.0,0.0,0.0,0.002809,2
1668537654365156096,294500,1668537654447171586,gps,2,1,42.3002522665,-83.6985986669,270.859375,8.1e-05,0.0,0.0,0.0,0.0001,0.0,0.0,0.0,0.002809,2
1668537654374780542,294501,1668537654457154223,gps,2,1,42.3002523287,-83.6985986693,270.859161377,8.1e-05,0.0,0.0,0.0,0.0001,0.0,0.0,0.0,0.002809,2
1668537654384731925,294502,1668537654467125586,gps,2,1,42.3002523907,-83.6985986736,270.859191895,8.1e-05,0.0,0.0,0.0,0.0001,0.0,0.0,0.0,0.002809,2
1668537654394875484,294503,1668537654477252777,gps,2,1,42.3002524523,-83.6985986778,270.85925293,8.1e-05,0.0,0.0,0.0,0.0001,0.0,0.0,0.0,0.002809,2
1668537654404679092,294504,1668537654487095475,gps,2,1,42.3002525151,-83.6985986803,270.859039307,8.1e-05,0.0,0.0,0.0,0.0001,0.0,0.0,0.0,0.002809,2
1668537654414689152,294505,1668537654497151881,gps,2,1,42.3002525779,-83.6985986846,270.859100342,8.1e-05,0.0,0.0,0.0,0.0001,0.0,0.0,0.0,0.002809,2
1668537654425215044,294506,1668537654507214409,gps,2,1,42.30025264,-83.6985986889,270.859130859,8.1e-05,0.0,0.0,0.0,0.0001,0.0,0.0,0.0,0.002809,2
1668537654435019038,294507,1668537654517183013,gps,2,1,42.3002527035,-83.6985986915,270.858947754,8.1e-05,0.0,0.0,0.0,0.0001,0.0,0.0,0.0,0.002809,2
1668537654445104121,294508,1668537654527161810,gps,2,1,42.3002527669,-83.6985986958,270.859008789,8.1e-05,0.0,0.0,0.0,0.0001,0.0,0.0,0.0,0.002809,2
1668537654455098768,294509,1668537654537169382,gps,2,1,42.3002528298,-83.6985987001,270.859039307,8.1e-05,0.0,0.0,0.0,0.0001,0.0,0.0,0.0,0.002809,2
1668537654465057338,294510,1668537654547330311,gps,2,1,42.3002528942,-83.6985987034,270.858673096,8.1e-05,0.0,0.0,0.0,0.0001,0.0,0.0,0.0,0.002809,2
1668537654474951536,294511,1668537654557073230,gps,2,1,42.3002529584,-83.6985987078,270.858734131,8.1e-05,0.0,0.0,0.0,0.0001,0.0,0.0,0.0,0.002809,2
1668537654484881994,294512,1668537654567051427,gps,2,1,42.3002530219,-83.6985987121,270.858764648,8.1e-05,0.0,0.0,0.0,0.0001,0.0,0.0,0.0,0.002809,2
1668537654494919800,294513,1668537654577028921,gps,2,1,42.300253087,-83.6985987155,270.858459473,8.1e-05,0.0,0.0,0.0,0.0001,0.0,0.0,0.0,0.002809,2
1668537654504874892,294514,1668537654587133632,gps,2,1,42.3002531518,-83.69859872,270.85848999,8.1e-05,0.0,0.0,0.0,0.0001,0.0,0.0,0.0,0.002809,2
1668537654514890181,294515,1668537654597117611,gps,2,1,42.300253216,-83.6985987244,270.858520508,8.1e-05,0.0,0.0,0.0,0.0001,0.0,0.0,0.0,0.002809,2
1668537654524693302,294516,1668537654607164010,gps,2,1,42.3002532818,-83.6985987278,270.858215332,8.1e-05,0.0,0.0,0.0,0.0001,0.0,0.0,0.0,0.002809,2
1668537654534686298,294517,1668537654617104155,gps,2,1,42.3002533473,-83.6985987323,270.858276367,8.1e-05,0.0,0.0,0.0,0.0001,0.0,0.0,0.0,0.002809,2
1668537654544738415,294518,1668537654627186535,gps,2,1,42.3002534122,-83.6985987369,270.858337402,8.1e-05,0.0,0.0,0.0,0.0001,0.0,0.0,0.0,0.002809,2
1668537654554800503,294519,1668537654637092371,gps,2,1,42.3002534785,-83.6985987398,270.858062744,8.1e-05,0.0,0.0,0.0,0.0001,0.0,0.0,0.0,0.002809,2
1668537654564981763,294520,1668537654647152927,gps,2,1,42.3002535448,-83.6985987444,270.858093262,8.1e-05,0.0,0.0,0.0,0.0001,0.0,0.0,0.0,0.002809,2
1668537654575019701,294521,1668537654657122301,gps,2,1,42.3002536104,-83.6985987489,270.858154297,8.1e-05,0.0,0.0,0.0,0.0001,0.0,0.0,0.0,0.002809,2
1668537654584911231,294522,1668537654667088005,gps,2,1,42.3002536774,-83.6985987519,270.857910156,8.1e-05,0.0,0.0,0.0,0.0001,0.0,0.0,0.0,0.002809,2
1668537654595032623,294523,1668537654677153300,gps,2,1,42.3002537443,-83.6985987565,270.857940674,8.1e-05,0.0,0.0,0.0,0.0001,0.0,0.0,0.0,0.002809,2
1668537654604848470,294524,1668537654687087911,gps,2,1,42.3002538107,-83.698598761,270.858001709,8.1e-05,0.0,0.0,0.0,0.0001,0.0,0.0,0.0,0.002809,2
1668537654614887890,294525,1668537654697078664,gps,2,1,42.3002538784,-83.6985987641,270.857757568,8.1e-05,0.0,0.0,0.0,0.0001,0.0,0.0,0.0,0.002809,2
1668537654624931384,294526,1668537654707151166,gps,2,1,42.300253946,-83.6985987686,270.857788086,8.1e-05,0.0,0.0,0.0,0.0001,0.0,0.0,0.0,0.002809,2
1668537654634756992,294527,1668537654717089198,gps,2,1,42.3002540131,-83.6985987731,270.857849121,8.1e-05,0.0,0.0,0.0,0.0001,0.0,0.0,0.0,0.002809,2
1668537654644917752,294528,1668537654727169958,gps,2,1,42.3002540815,-83.6985987762,270.85760498,8.1e-05,0.0,0.0,0.0,0.0001,0.0,0.0,0.0,0.002809,2
1668537654654987511,294529,1668537654737137317,gps,2,1,42.3002541498,-83.6985987808,270.857666016,8.1e-05,0.0,0.0,0.0,0.0001,0.0,0.0,0.0,0.002809,2
1668537654664855096,294530,1668537654747084557,gps,2,1,42.3002542176,-83.6985987853,270.857696533,8.1e-05,0.0,0.0,0.0,0.0001,0.0,0.0,0.0,0.002809,2
1668537654674950538,294531,1668537654757096672,gps,2,1,42.3002542867,-83.6985987884,270.85748291,8.1e-05,0.0,0.0,0.0,0.0001,0.0,0.0,0.0,0.002809,2
1668537654684658219,294532,1668537654767081853,gps,2,1,42.3002543557,-83.698598793,270.857513428,8.1e-05,0.0,0.0,0.0,0.0001,0.0,0.0,0.0,0.002809,2
1668537654694887359,294533,1668537654777135258,gps,2,1,42.3002544241,-83.6985987975,270.857543945,8.1e-05,0.0,0.0,0.0,0.0001,0.0,0.0,0.0,0.002809,2
1668537654704627854,294534,1668537654787078895,gps,2,1,42.3002544939,-83.6985988007,270.857330322,8.1e-05,0.0,0.0,0.0,0.0001,0.0,0.0,0.0,0.002809,2
1668537654715102179,294535,1668537654797134851,gps,2,1,42.3002545636,-83.6985988053,270.857391357,8.1e-05,0.0,0.0,0.0,0.0001,0.0,0.0,0.0,0.002809,2
1668537654725006442,294536,1668537654807075743,gps,2,1,42.3002546327,-83.6985988098,270.857452393,8.1e-05,0.0,0.0,0.0,0.0001,0.0,0.0,0.0,0.002809,2
1668537654734900570,294537,1668537654817079430,gps,2,1,42.3002547031,-83.698598813,270.857269287,8.1e-05,0.0,0.0,0.0,0.0001,0.0,0.0,0.0,0.002809,2
1668537654744919470,294538,1668537654827131885,gps,2,1,42.3002547735,-83.6985988175,270.857299805,8.1e-05,0.0,0.0,0.0,0.0001,0.0,0.0,0.0,0.002809,2
1668537654754975125,294539,1668537654837088163,gps,2,1,42.3002548433,-83.6985988221,270.85736084,8.1e-05,0.0,0.0,0.0,0.0001,0.0,0.0,0.0,0.002809,2
1668537654764879225,294540,1668537654847094896,gps,2,1,42.3002549145,-83.6985988253,270.857177734,8.1e-05,0.0,0.0,0.0,0.0001,0.0,0.0,0.0,0.002809,2
1668537654774853563,294541,1668537654857161821,gps,2,1,42.3002549857,-83.6985988298,270.85723877,8.1e-05,0.0,0.0,0.0,0.0001,0.0,0.0,0.0,0.002809,2
1668537654784789035,294542,1668537654867090658,gps,2,1,42.3002550562,-83.6985988344,270.857299805,8.1e-05,0.0,0.0,0.0,0.0001,0.0,0.0,0.0,0.002809,2
1668537654794977730,294543,1668537654877066517,gps,2,1,42.3002551282,-83.698598837,270.857116699,8.1e-05,0.0,0.0,0.0,0.0001,0.0,0.0,0.0,0.002809,2
1668537654804844640,294544,1668537654887067406,gps,2,1,42.3002552004,-83.6985988415,270.857177734,8.1e-05,0.0,0.0,0.0,0.0001,0.0,0.0,0.0,0.002809,2
1668537654814885521,294545,1668537654897128098,gps,2,1,42.3002552717,-83.6985988461,270.85723877,8.1e-05,0.0,0.0,0.0,0.0001,0.0,0.0,0.0,0.002809,2
1668537654824740489,294546,1668537654907109049,gps,2,1,42.3002553447,-83.6985988487,270.857086182,8.1e-05,0.0,0.0,0.0,0.0001,0.0,0.0,0.0,0.002809,2
1668537654834635214,294547,1668537654917076001,gps,2,1,42.3002554179,-83.6985988534,270.857147217,8.1e-05,0.0,0.0,0.0,0.0001,0.0,0.0,0.0,0.002809,2
1668537654845071376,294548,1668537654927134996,gps,2,1,42.3002554902,-83.698598858,270.857208252,8.1e-05,0.0,0.0,0.0,0.0001,0.0,0.0,0.0,0.002809,2
1668537654854771332,294549,1668537654937069352,gps,2,1,42.3002555643,-83.6985988608,270.857055664,8.1e-05,0.0,0.0,0.0,0.0001,0.0,0.0,0.0,0.002809,2
1668537654865183009,294550,1668537654947130893,gps,2,1,42.3002556386,-83.6985988655,270.857116699,8.1e-05,0.0,0.0,0.0,0.0001,0.0,0.0,0.0,0.002809,2
1668537654874933703,294551,1668537654957077181,gps,2,1,42.3002557121,-83.6985988702,270.857177734,8.1e-05,0.0,0.0,0.0,0.0001,0.0,0.0,0.0,0.002809,2
1668537654884951057,294552,1668537654967076748,gps,2,1,42.3002557873,-83.6985988731,270.857025146,8.1e-05,0.0,0.0,0.0,0.0001,0.0,0.0,0.0,0.002809,2
1668537654895150522,294553,1668537654977213514,gps,2,1,42.300255863,-83.6985988779,270.857086182,8.1e-05,0.0,0.0,0.0,0.0001,0.0,0.0,0.0,0.002809,2
1668537654904850705,294554,1668537654987072669,gps,2,1,42.3002559376,-83.6985988827,270.857147217,8.1e-05,0.0,0.0,0.0,0.0001,0.0,0.0,0.0,0.002809,2
1668537654915130635,294555,1668537654997102374,gps,2,1,42.3002560142,-83.6985988857,270.856994629,8.1e-05,0.0,0.0,0.0,0.0001,0.0,0.0,0.0,0.002809,2
1668537654924951116,294556,1668537655007221885,gps,2,1,42.3002560913,-83.6985988906,270.857055664,8.1e-05,0.0,0.0,0.0,0.0001,0.0,0.0,0.0,0.002809,2
1668537654934946689,294557,1668537655017131932,gps,2,1,42.3002561673,-83.6985988955,270.857086182,8.1e-05,0.0,0.0,0.0,0.0001,0.0,0.0,0.0,0.002809,2
1668537654944838097,294558,1668537655027103188,gps,2,1,42.3002562446,-83.6985988923,270.857116699,8.1e-05,0.0,0.0,0.0,0.0001,0.0,0.0,0.0,0.002809,2
1668537654954789407,294559,1668537655037116954,gps,2,1,42.3002563234,-83.6985988972,270.857177734,8.1e-05,0.0,0.0,0.0,0.0001,0.0,0.0,0.0,0.002809,2
1668537654964775769,294560,1668537655047142131,gps,2,1,42.3002564007,-83.6985989022,270.857208252,8.1e-05,0.0,0.0,0.0,0.0001,0.0,0.0,0.0,0.002809,2
1668537654974702895,294561,1668537655057118868,gps,2,1,42.3002564797,-83.6985988992,270.857269287,8.1e-05,0.0,0.0,0.0,0.0001,0.0,0.0,0.0,0.002809,2
1668537654985128443,294562,1668537655067198343,gps,2,1,42.3002565602,-83.6985989042,270.857299805,8.1e-05,0.0,0.0,0.0,0.0001,0.0,0.0,0.0,0.002809,2
1668537654994752521,294563,1668537655077144198,gps,2,1,42.3002566393,-83.6985989091,270.85736084,8.1e-05,0.0,0.0,0.0,0.0001,0.0,0.0,0.0,0.002809,2
1668537655005133705,294564,1668537655087086871,gps,2,1,42.30025672,-83.6985989063,270.857391357,8.1e-05,0.0,0.0,0.0,0.0001,0.0,0.0,0.0,0.002809,2
1668537655015034682,294565,1668537655097062715,gps,2,1,42.3002568024,-83.6985989112,270.857452393,8.1e-05,0.0,0.0,0.0,0.0001,0.0,0.0,0.0,0.002809,2
1668537655024906323,294566,1668537655107112021,gps,2,1,42.3002568831,-83.6985989161,270.85748291,8.1e-05,0.0,0.0,0.0,0.0001,0.0,0.0,0.0,0.002809,2
1668537655034764272,294567,1668537655117057539,gps,2,1,42.3002569658,-83.6985989136,270.857543945,8.1e-05,0.0,0.0,0.0,0.0001,0.0,0.0,0.0,0.002809,2
1668537655045005722,294568,1668537655127051642,gps,2,1,42.3002570501,-83.6985989186,270.857574463,8.1e-05,0.0,0.0,0.0,0.0001,0.0,0.0,0.0,0.002809,2
1668537655054940200,294569,1668537655137144823,gps,2,1,42.3002571329,-83.6985989235,270.857635498,8.1e-05,0.0,0.0,0.0,0.0001,0.0,0.0,0.0,0.002809,2
1668537655064867404,294570,1668537655147069794,gps,2,1,42.3002572175,-83.6985989217,270.857666016,8.1e-05,0.0,0.0,0.0,0.0001,0.0,0.0,0.0,0.002809,2
1668537655074894413,294571,1668537655157099676,gps,2,1,42.300257304,-83.6985989267,270.857696533,8.1e-05,0.0,0.0,0.0,0.0001,0.0,0.0,0.0,0.002809,2
1668537655084886863,294572,1668537655167103332,gps,2,1,42.3002573886,-83.6985989317,270.857757568,8.1e-05,0.0,0.0,0.0,0.0001,0.0,0.0,0.0,0.002809,2
1668537655094804441,294573,1668537655177066907,gps,2,1,42.3002574754,-83.6985989301,270.857788086,8.1e-05,0.0,0.0,0.0,0.0001,0.0,0.0,0.0,0.002809,2
1668537655104744025,294574,1668537655187047915,gps,2,1,42.300257564,-83.6985989352,270.857849121,8.1e-05,0.0,0.0,0.0,0.0001,0.0,0.0,0.0,0.002809,2
1668537655114791586,294575,1668537655197125854,gps,2,1,42.3002576509,-83.6985989402,270.857879639,8.1e-05,0.0,0.0,0.0,0.0001,0.0,0.0,0.0,0.002809,2
1668537655124668726,294576,1668537655207056814,gps,2,1,42.3002577399,-83.6985989389,270.857910156,0.000144,0.0,0.0,0.0,0.000144,0.0,0.0,0.0,0.002809,2
1668537655134562951,294577,1668537655217055959,gps,2,1,42.3002578309,-83.6985989441,270.857971191,0.000144,0.0,0.0,0.0,0.000144,0.0,0.0,0.0,0.002809,2
1668537655145016434,294578,1668537655227194314,gps,2,1,42.3002579199,-83.6985989491,270.858001709,0.000144,0.0,0.0,0.0,0.000144,0.0,0.0,0.0,0.002809,2
1668537655155012237,294579,1668537655237047868,gps,2,1,42.3002580113,-83.6985989481,270.858062744,0.000144,0.0,0.0,0.0,0.000144,0.0,0.0,0.0,0.002809,2
1668537655164946174,294580,1668537655247041726,gps,2,1,42.3002581046,-83.6985989533,270.858093262,0.000144,0.0,0.0,0.0,0.000144,0.0,0.0,0.0,0.002809,2
1668537655174928743,294581,1668537655257127751,gps,2,1,42.300258196,-83.6985989585,270.858123779,0.000144,0.0,0.0,0.0,0.000144,0.0,0.0,0.0,0.002809,2
1668537655184781788,294582,1668537655267043424,gps,2,1,42.3002582898,-83.6985989577,270.858184814,0.000144,0.0,0.0,0.0,0.000144,0.0,0.0,0.0,0.002809,2
1668537655194881565,294583,1668537655277046056,gps,2,1,42.3002583857,-83.698598963,270.858215332,0.000144,0.0,0.0,0.0,0.000144,0.0,0.0,0.0,0.002809,2
1668537655204916182,294584,1668537655287117621,gps,2,1,42.3002584794,-83.6985989682,270.85824585,0.000144,0.0,0.0,0.0,0.000144,0.0,0.0,0.0,0.002809,2
1668537655214877049,294585,1668537655297044595,gps,2,1,42.3002585757,-83.6985989677,270.858276367,0.000144,0.0,0.0,0.0,0.000144,0.0,0.0,0.0,0.002809,2
1668537655224840857,294586,1668537655307034849,gps,2,1,42.3002586741,-83.698598973,270.858337402,0.000144,0.0,0.0,0.0,0.000144,0.0,0.0,0.0,0.002809,2
1668537655234746349,294587,1668537655317113988,gps,2,1,42.3002587704,-83.6985989783,270.85836792,0.000144,0.0,0.0,0.0,0.000144,0.0,0.0,0.0,0.002809,2
1668537655244786694,294588,1668537655327035208,gps,2,1,42.3002588693,-83.698598978,270.858398438,0.000144,0.0,0.0,0.0,0.000144,0.0,0.0,0.0,0.002809,2
1668537655254724336,294589,1668537655337039061,gps,2,1,42.3002589704,-83.6985989833,270.858428955,0.000144,0.0,0.0,0.0,0.000144,0.0,0.0,0.0,0.002809,2
1668537655264681840,294590,1668537655347100920,gps,2,1,42.3002590692,-83.6985989888,270.85848999,0.000144,0.0,0.0,0.0,0.000144,0.0,0.0,0.0,0.002809,2
1668537655274584904,294591,1668537655357043596,gps,2,1,42.3002591708,-83.6985989887,270.85848999,0.000144,0.0,0.0,0.0,0.000144,0.0,0.0,0.0,0.002809,2
1668537655284949855,294592,1668537655367034748,gps,2,1,42.3002592745,-83.6985989942,270.858551025,0.000144,0.0,0.0,0.0,0.000144,0.0,0.0,0.0,0.002809,2
1668537655295176616,294593,1668537655377189062,gps,2,1,42.3002593759,-83.6985989997,270.858581543,0.000144,0.0,0.0,0.0,0.000144,0.0,0.0,0.0,0.002809,2
1668537655305174370,294594,1668537655387052658,gps,2,1,42.3002594804,-83.6985989998,270.858612061,0.000144,0.0,0.0,0.0,0.000144,0.0,0.0,0.0,0.002809,2
1668537655314900784,294595,1668537655397066995,gps,2,1,42.3002595868,-83.6985990054,270.858673096,0.000144,0.0,0.0,0.0,0.000144,0.0,0.0,0.0,0.002809,2
1668537655325012849,294596,1668537655407172689,gps,2,1,42.300259691,-83.698599011,270.858703613,0.000144,0.0,0.0,0.0,0.000144,0.0,0.0,0.0,0.002809,2
1668537655334882388,294597,1668537655417044982,gps,2,1,42.3002597982,-83.6985990113,270.858764648,0.000144,0.0,0.0,0.0,0.000144,0.0,0.0,0.0,0.002809,2
1668537655344950906,294598,1668537655427033003,gps,2,1,42.3002599074,-83.6985990169,270.858795166,0.000144,0.0,0.0,0.0,0.000144,0.0,0.0,0.0,0.002809,2
1668537655354886485,294599,1668537655437090194,gps,2,1,42.3002600143,-83.6985990226,270.858856201,0.000144,0.0,0.0,0.0,0.000144,0.0,0.0,0.0,0.002809,2
1668537655364826555,294600,1668537655447010257,gps,2,1,42.3002601244,-83.6985990231,270.858886719,0.000144,0.0,0.0,0.0,0.000144,0.0,0.0,0.0,0.002809,2
1668537655374823985,294601,1668537655457031797,gps,2,1,42.3002602365,-83.6985990287,270.858947754,0.000144,0.0,0.0,0.0,0.000144,0.0,0.0,0.0,0.002809,2
1668537655385218043,294602,1668537655467088301,gps,2,1,42.3002603462,-83.6985990345,270.859008789,0.000144,0.0,0.0,0.0,0.000144,0.0,0.0,0.0,0.002809,2
1668537655394997873,294603,1668537655477126844,gps,2,1,42.3002604591,-83.6985990352,270.859039307,0.000144,0.0,0.0,0.0,0.000144,0.0,0.0,0.0,0.002809,2
1668537655404691730,294604,1668537655487060011,gps,2,1,42.3002605741,-83.6985990409,270.859100342,0.000144,0.0,0.0,0.0,0.000144,0.0,0.0,0.0,0.002809,2
1668537655415162300,294605,1668537655497135218,gps,2,1,42.3002606867,-83.6985990467,270.859161377,0.000144,0.0,0.0,0.0,0.000144,0.0,0.0,0.0,0.002809,2
1668537655425164187,294606,1668537655507089178,gps,2,1,42.300260802,-83.6985990486,270.859100342,0.000144,0.0,0.0,0.0,0.000144,0.0,0.0,0.0,0.002809,2
1668537655435047637,294607,1668537655517097207,gps,2,1,42.3002609199,-83.6985990543,270.859130859,0.000144,0.0,0.0,0.0,0.000144,0.0,0.0,0.0,0.002809,2
1668537655445129632,294608,1668537655527162876,gps,2,1,42.3002610354,-83.6985990601,270.859222412,0.000144,0.0,0.0,0.0,0.000144,0.0,0.0,0.0,0.002809,2
1668537655454986872,294609,1668537655537035941,gps,2,1,42.3002611537,-83.6985990621,270.859130859,0.000144,0.0,0.0,0.0,0.000144,0.0,0.0,0.0,0.002809,2
1668537655464971601,294610,1668537655547117963,gps,2,1,42.3002612745,-83.6985990678,270.859222412,0.000144,0.0,0.0,0.0,0.000144,0.0,0.0,0.0,0.002809,2
1668537655474861365,294611,1668537655557110355,gps,2,1,42.3002613929,-83.6985990735,270.85925293,0.000144,0.0,0.0,0.0,0.000144,0.0,0.0,0.0,0.002809,2
1668537655484783674,294612,1668537655567017552,gps,2,1,42.300261514,-83.6985990756,270.859222412,0.000144,0.0,0.0,0.0,0.000144,0.0,0.0,0.0,0.002809,2
1668537655494873262,294613,1668537655577039360,gps,2,1,42.3002616378,-83.6985990815,270.85925293,0.000144,0.0,0.0,0.0,0.000144,0.0,0.0,0.0,0.002809,2
1668537655504877697,294614,1668537655587069412,gps,2,1,42.3002617591,-83.6985990871,270.859344482,0.000144,0.0,0.0,0.0,0.000144,0.0,0.0,0.0,0.002809,2
1668537655514861295,294615,1668537655597012007,gps,2,1,42.3002618832,-83.6985990895,270.859283447,0.000144,0.0,0.0,0.0,0.000144,0.0,0.0,0.0,0.002809,2
1668537655524786025,294616,1668537655607080843,gps,2,1,42.30026201,-83.6985990954,270.859344482,0.000144,0.0,0.0,0.0,0.000144,0.0,0.0,0.0,0.002809,2
1668537655534668228,294617,1668537655617106145,gps,2,1,42.3002621343,-83.6985991012,270.859405518,0.000144,0.0,0.0,0.0,0.000144,0.0,0.0,0.0,0.002809,2
1668537655544728750,294618,1668537655627013704,gps,2,1,42.3002622611,-83.698599104,270.859375,0.000144,0.0,0.0,0.0,0.000144,0.0,0.0,0.0,0.002809,2
1668537655555167075,294619,1668537655637045827,gps,2,1,42.3002623908,-83.69859911,270.859436035,0.000144,0.0,0.0,0.0,0.000144,0.0,0.0,0.0,0.002809,2
1668537655565145437,294620,1668537655647084134,gps,2,1,42.300262518,-83.6985991161,270.85949707,0.000144,0.0,0.0,0.0,0.000144,0.0,0.0,0.0,0.002809,2
1668537655574976051,294621,1668537655657095488,gps,2,1,42.3002626478,-83.6985991191,270.85949707,0.000144,0.0,0.0,0.0,0.000144,0.0,0.0,0.0,0.002809,2
1668537655584910550,294622,1668537655667027859,gps,2,1,42.3002627804,-83.6985991253,270.859558105,0.000144,0.0,0.0,0.0,0.000144,0.0,0.0,0.0,0.002809,2
1668537655594919328,294623,1668537655677082509,gps,2,1,42.3002629106,-83.6985991317,270.859649658,0.000144,0.0,0.0,0.0,0.000144,0.0,0.0,0.0,0.002809,2
1668537655604850556,294624,1668537655687015378,gps,2,1,42.3002630433,-83.6985991349,270.859649658,0.000144,0.0,0.0,0.0,0.000144,0.0,0.0,0.0,0.002809,2
1668537655614782653,294625,1668537655697027204,gps,2,1,42.3002631788,-83.6985991415,270.859741211,0.000144,0.0,0.0,0.0,0.000144,0.0,0.0,0.0,0.002809,2
1668537655625047766,294626,1668537655707076310,gps,2,1,42.3002633119,-83.6985991478,270.859802246,0.000144,0.0,0.0,0.0,0.000144,0.0,0.0,0.0,0.002809,2
1668537655634760756,294627,1668537655717003747,gps,2,1,42.3002634476,-83.6985991512,270.859832764,0.000144,0.0,0.0,0.0,0.000144,0.0,0.0,0.0,0.002809,2
1668537655644904175,294628,1668537655727095507,gps,2,1,42.300263586,-83.6985991578,270.859954834,0.000144,0.0,0.0,0.0,0.000144,0.0,0.0,0.0,0.002809,2
1668537655654985983,294629,1668537655737069772,gps,2,1,42.300263722,-83.6985991641,270.860046387,0.000144,0.0,0.0,0.0,0.000144,0.0,0.0,0.0,0.002809,2
1668537655664853865,294630,1668537655747004430,gps,2,1,42.3002638605,-83.6985991677,270.860107422,0.000144,0.0,0.0,0.0,0.000144,0.0,0.0,0.0,0.002809,2
1668537655674848470,294631,1668537655757024281,gps,2,1,42.3002640018,-83.6985991742,270.860229492,0.000144,0.0,0.0,0.0,0.000144,0.0,0.0,0.0,0.002809,2
1668537655684668213,294632,1668537655767077351,gps,2,1,42.3002641407,-83.6985991807,270.860351562,0.000144,0.0,0.0,0.0,0.000144,0.0,0.0,0.0,0.002809,2
1668537655694676247,294633,1668537655777011191,gps,2,1,42.3002642822,-83.6985991845,270.860412598,0.000144,0.0,0.0,0.0,0.000144,0.0,0.0,0.0,0.002809,2
1668537655704610653,294634,1668537655787012276,gps,2,1,42.3002644266,-83.6985991912,270.860565186,0.000144,0.0,0.0,0.0,0.000144,0.0,0.0,0.0,0.002809,2
1668537655715083493,294635,1668537655797076441,gps,2,1,42.3002645684,-83.6985991979,270.860717773,0.000144,0.0,0.0,0.0,0.000144,0.0,0.0,0.0,0.002809,2
1668537655725199530,294636,1668537655807015565,gps,2,1,42.300264713,-83.6985992018,270.860778809,0.000144,0.0,0.0,0.0,0.000144,0.0,0.0,0.0,0.002809,2
1668537655735126323,294637,1668537655817019671,gps,2,1,42.3002648603,-83.6985992088,270.860931396,0.000144,0.0,0.0,0.0,0.000144,0.0,0.0,0.0,0.002809,2
1668537655744913443,294638,1668537655827067392,gps,2,1,42.3002650051,-83.6985992155,270.861083984,0.000144,0.0,0.0,0.0,0.000144,0.0,0.0,0.0,0.002809,2
1668537655754854364,294639,1668537655837008078,gps,2,1,42.3002651528,-83.6985992197,270.86114502,0.000144,0.0,0.0,0.0,0.000144,0.0,0.0,0.0,0.002809,2
1668537655764846693,294640,1668537655846998252,gps,2,1,42.3002653031,-83.6985992269,270.86126709,0.000144,0.0,0.0,0.0,0.000144,0.0,0.0,0.0,0.002809,2
1668537655774964901,294641,1668537655857075591,gps,2,1,42.300265451,-83.6985992338,270.86138916,0.000144,0.0,0.0,0.0,0.000144,0.0,0.0,0.0,0.002809,2
1668537655784850576,294642,1668537655866988438,gps,2,1,42.3002656017,-83.6985992383,270.861450195,0.000144,0.0,0.0,0.0,0.000144,0.0,0.0,0.0,0.002809,2
1668537655795003824,294643,1668537655877075575,gps,2,1,42.3002657551,-83.6985992456,270.86151123,0.000144,0.0,0.0,0.0,0.000144,0.0,0.0,0.0,0.002809,2
1668537655804826148,294644,1668537655886989387,gps,2,1,42.3002659059,-83.6985992528,270.861633301,0.000144,0.0,0.0,0.0,0.000144,0.0,0.0,0.0,0.002809,2
1668537655814762765,294645,1668537655896989595,gps,2,1,42.3002660601,-83.6985992579,270.861633301,0.000144,0.0,0.0,0.0,0.000144,0.0,0.0,0.0,0.002809,2
1668537655825210738,294646,1668537655907140134,gps,2,1,42.3002662167,-83.6985992653,270.861663818,0.000144,0.0,0.0,0.0,0.000144,0.0,0.0,0.0,0.002809,2
1668537655834774991,294647,1668537655917007981,gps,2,1,42.3002663708,-83.6985992726,270.861724854,0.000144,0.0,0.0,0.0,0.000144,0.0,0.0,0.0,0.002809,2
1668537655844657099,294648,1668537655927001552,gps,2,1,42.3002665282,-83.6985992778,270.861694336,0.000144,0.0,0.0,0.0,0.000144,0.0,0.0,0.0,0.002809,2
1668537655854964508,294649,1668537655937001075,gps,2,1,42.3002666879,-83.6985992851,270.861694336,0.000144,0.0,0.0,0.0,0.000144,0.0,0.0,0.0,0.002809,2
1668537655865139064,294650,1668537655947070830,gps,2,1,42.3002668451,-83.6985992925,270.861724854,0.000144,0.0,0.0,0.0,0.000144,0.0,0.0,0.0,0.002809,2
1668537655874996720,294651,1668537655956995316,gps,2,1,42.3002670057,-83.6985992976,270.861663818,0.000144,0.0,0.0,0.0,0.000144,0.0,0.0,0.0,0.002809,2
1668537655884887554,294652,1668537655967014224,gps,2,1,42.3002671687,-83.6985993049,270.861633301,0.000144,0.0,0.0,0.0,0.000144,0.0,0.0,0.0,0.002809,2
1668537655895045265,294653,1668537655977150346,gps,2,1,42.3002673292,-83.6985993123,270.861663818,0.000144,0.0,0.0,0.0,0.000144,0.0,0.0,0.0,0.002809,2
1668537655904837002,294654,1668537655987005720,gps,2,1,42.300267493,-83.6985993175,270.861572266,0.000144,0.0,0.0,0.0,0.000144,0.0,0.0,0.0,0.002809,2
1668537655914884389,294655,1668537655996986934,gps,2,1,42.3002676593,-83.6985993248,270.861572266,0.000144,0.0,0.0,0.0,0.000144,0.0,0.0,0.0,0.002809,2
1668537655924935872,294656,1668537656007115492,gps,2,1,42.3002678229,-83.6985993321,270.861541748,0.000144,0.0,0.0,0.0,0.000144,0.0,0.0,0.0,0.002809,2
1668537655934992000,294657,1668537656017093016,gps,2,1,42.30026799,-83.6985993375,270.861480713,0.000144,0.0,0.0,0.0,0.000144,0.0,0.0,0.0,0.002809,2
1668537655944842728,294658,1668537656027068643,gps,2,1,42.3002681596,-83.6985993448,270.861480713,0.000144,0.0,0.0,0.0,0.000144,0.0,0.0,0.0,0.002809,2
1668537655954783384,294659,1668537656037037699,gps,2,1,42.3002683264,-83.6985993523,270.861480713,0.000144,0.0,0.0,0.0,0.000144,0.0,0.0,0.0,0.002809,2
1668537655964780770,294660,1668537656047029940,gps,2,1,42.3002684964,-83.6985993611,270.861419678,0.000144,0.0,0.0,0.0,0.000144,0.0,0.0,0.0,0.002809,2
1668537655975122752,294661,1668537656057067601,gps,2,1,42.3002686692,-83.6985993687,270.861419678,0.000144,0.0,0.0,0.0,0.000144,0.0,0.0,0.0,0.002809,2
1668537655985163964,294662,1668537656067089799,gps,2,1,42.3002688393,-83.6985993762,270.861450195,0.000144,0.0,0.0,0.0,0.000144,0.0,0.0,0.0,0.002809,2
1668537655995247087,294663,1668537656077084169,gps,2,1,42.3002690125,-83.6985993851,270.861358643,0.000144,0.0,0.0,0.0,0.000144,0.0,0.0,0.0,0.002809,2
1668537656004947826,294664,1668537656087082737,gps,2,1,42.3002691886,-83.698599393,270.86138916,0.000144,0.0,0.0,0.0,0.000144,0.0,0.0,0.0,0.002809,2
1668537656015070387,294665,1668537656096995719,gps,2,1,42.3002693618,-83.6985994007,270.861419678,0.000144,0.0,0.0,0.0,0.000144,0.0,0.0,0.0,0.002809,2
1668537656024883443,294666,1668537656107002332,gps,2,1,42.3002695383,-83.6985994097,270.861358643,0.000144,0.0,0.0,0.0,0.000144,0.0,0.0,0.0,0.002809,2
1668537656034928725,294667,1668537656117063671,gps,2,1,42.3002697175,-83.6985994177,270.86138916,0.000144,0.0,0.0,0.0,0.000144,0.0,0.0,0.0,0.002809,2
1668537656044866882,294668,1668537656126994466,gps,2,1,42.3002698942,-83.6985994255,270.861419678,0.000144,0.0,0.0,0.0,0.000144,0.0,0.0,0.0,0.002809,2
1668537656054887145,294669,1668537656136980402,gps,2,1,42.3002700737,-83.6985994342,270.861358643,0.000144,0.0,0.0,0.0,0.000144,0.0,0.0,0.0,0.002809,2
1668537656065067505,294670,1668537656147032214,gps,2,1,42.300270256,-83.6985994422,270.86138916,0.000144,0.0,0.0,0.0,0.000144,0.0,0.0,0.0,0.002809,2
1668537656074769351,294671,1668537656157065498,gps,2,1,42.3002704358,-83.69859945,270.861419678,0.000144,0.0,0.0,0.0,0.000144,0.0,0.0,0.0,0.002809,2
1668537656084831916,294672,1668537656166980723,gps,2,1,42.3002706185,-83.6985994587,270.861358643,0.000144,0.0,0.0,0.0,0.000144,0.0,0.0,0.0,0.002809,2
1668537656094793361,294673,1668537656177020454,gps,2,1,42.300270804,-83.6985994667,270.86138916,0.000144,0.0,0.0,0.0,0.000144,0.0,0.0,0.0,0.002809,2
1668537656104720270,294674,1668537656186995392,gps,2,1,42.3002709868,-83.6985994746,270.86138916,0.000144,0.0,0.0,0.0,0.000144,0.0,0.0,0.0,0.002809,2
1668537656114707718,294675,1668537656196982196,gps,2,1,42.3002711727,-83.6985994833,270.861358643,0.000144,0.0,0.0,0.0,0.000144,0.0,0.0,0.0,0.002809,2
1668537656125073347,294676,1668537656207043635,gps,2,1,42.3002713612,-83.6985994912,270.861358643,0.000144,0.0,0.0,0.0,0.000144,0.0,0.0,0.0,0.002809,2
1668537656134770801,294677,1668537656216982519,gps,2,1,42.3002715472,-83.6985994994,270.86138916,0.000144,0.0,0.0,0.0,0.000144,0.0,0.0,0.0,0.002809,2
1668537656145110239,294678,1668537656227063967,gps,2,1,42.3002717363,-83.698599508,270.861358643,0.000144,0.0,0.0,0.0,0.000144,0.0,0.0,0.0,0.002809,2
1668537656154902139,294679,1668537656237039118,gps,2,1,42.3002719279,-83.6985995161,270.86138916,0.000144,0.0,0.0,0.0,0.000144,0.0,0.0,0.0,0.002809,2
1668537656164930384,294680,1668537656247022381,gps,2,1,42.3002721169,-83.6985995242,270.861419678,0.000144,0.0,0.0,0.0,0.000144,0.0,0.0,0.0,0.002809,2
1668537656174873562,294681,1668537656257000068,gps,2,1,42.3002723091,-83.6985995328,270.861419678,0.000144,0.0,0.0,0.0,0.000144,0.0,0.0,0.0,0.002809,2
1668537656184954794,294682,1668537656267037665,gps,2,1,42.3002725039,-83.6985995411,270.86151123,0.000144,0.0,0.0,0.0,0.000144,0.0,0.0,0.0,0.002809,2
1668537656194877461,294683,1668537656276979952,gps,2,1,42.3002726961,-83.698599549,270.861572266,0.000144,0.0,0.0,0.0,0.000144,0.0,0.0,0.0,0.002809,2
1668537656204927965,294684,1668537656287030934,gps,2,1,42.3002728913,-83.6985995576,270.861633301,0.000144,0.0,0.0,0.0,0.000144,0.0,0.0,0.0,0.002809,2
1668537656214996123,294685,1668537656297040421,gps,2,1,42.3002730891,-83.6985995657,270.861755371,0.000144,0.0,0.0,0.0,0.000144,0.0,0.0,0.0,0.002809,2
1668537656224841597,294686,1668537656306987636,gps,2,1,42.3002732844,-83.6985995737,270.861846924,0.000144,0.0,0.0,0.0,0.000144,0.0,0.0,0.0,0.002809,2
1668537656234812125,294687,1668537656316966540,gps,2,1,42.3002734827,-83.6985995823,270.861907959,0.000144,0.0,0.0,0.0,0.000144,0.0,0.0,0.0,0.002809,2
1668537656244784440,294688,1668537656327033805,gps,2,1,42.3002736834,-83.6985995904,270.862030029,0.000144,0.0,0.0,0.0,0.000144,0.0,0.0,0.0,0.002809,2
1668537656254701548,294689,1668537656336975028,gps,2,1,42.3002738817,-83.6985995984,270.8621521,0.000144,0.0,0.0,0.0,0.000144,0.0,0.0,0.0,0.002809,2
1668537656264662366,294690,1668537656346965354,gps,2,1,42.300274083,-83.698599607,270.862213135,0.000144,0.0,0.0,0.0,0.000144,0.0,0.0,0.0,0.002809,2
1668537656275253640,294691,1668537656357047494,gps,2,1,42.3002742866,-83.6985996151,270.862335205,0.000144,0.0,0.0,0.0,0.000144,0.0,0.0,0.0,0.002809,2
1668537656285049984,294692,1668537656366982520,gps,2,1,42.3002744878,-83.6985996233,270.862487793,0.000144,0.0,0.0,0.0,0.000144,0.0,0.0,0.0,0.002809,2
1668537656295142700,294693,1668537656376971463,gps,2,1,42.300274692,-83.698599632,270.862548828,0.000144,0.0,0.0,0.0,0.000144,0.0,0.0,0.0,0.002809,2
1668537656304993811,294694,1668537656387031678,gps,2,1,42.3002748986,-83.6985996402,270.862670898,0.000144,0.0,0.0,0.0,0.000144,0.0,0.0,0.0,0.002809,2
1668537656314990716,294695,1668537656397030758,gps,2,1,42.3002751028,-83.6985996485,270.862823486,0.000144,0.0,0.0,0.0,0.000144,0.0,0.0,0.0,0.002809,2
1668537656325139016,294696,1668537656407073691,gps,2,1,42.30027531,-83.6985996573,270.862854004,0.000144,0.0,0.0,0.0,0.000144,0.0,0.0,0.0,0.002809,2
1668537656335058772,294697,1668537656417022311,gps,2,1,42.3002755196,-83.6985996656,270.862976074,0.000144,0.0,0.0,0.0,0.000144,0.0,0.0,0.0,0.002809,2
1668537656345037573,294698,1668537656426959376,gps,2,1,42.3002757265,-83.6985996739,270.863098145,0.000144,0.0,0.0,0.0,0.000144,0.0,0.0,0.0,0.002809,2
1668537656354850969,294699,1668537656436952063,gps,2,1,42.3002759368,-83.6985996827,270.863128662,0.000144,0.0,0.0,0.0,0.000144,0.0,0.0,0.0,0.002809,2
1668537656365075795,294700,1668537656447014927,gps,2,1,42.3002761494,-83.6985996907,270.863220215,0.000144,0.0,0.0,0.0,0.000144,0.0,0.0,0.0,0.002809,2
1668537656374897037,294701,1668537656456953878,gps,2,1,42.3002763596,-83.6985996991,270.863342285,0.000144,0.0,0.0,0.0,0.000144,0.0,0.0,0.0,0.002809,2
1668537656384762980,294702,1668537656467043450,gps,2,1,42.300276573,-83.6985997077,270.863372803,0.000144,0.0,0.0,0.0,0.000144,0.0,0.0,0.0,0.002809,2
1668537656395363486,294703,1668537656477145561,gps,2,1,42.300276789,-83.6985997158,270.863433838,0.000144,0.0,0.0,0.0,0.000144,0.0,0.0,0.0,0.002809,2
1668537656404739639,294704,1668537656486965330,gps,2,1,42.3002770022,-83.6985997239,270.863525391,0.000144,0.0,0.0,0.0,0.000144,0.0,0.0,0.0,0.002809,2
1668537656415293980,294705,1668537656497003333,gps,2,1,42.3002772189,-83.6985997323,270.863555908,0.000144,0.0,0.0,0.0,0.000144,0.0,0.0,0.0,0.002809,2
1668537656425248643,294706,1668537656507074084,gps,2,1,42.3002774383,-83.6985997402,270.863647461,0.000144,0.0,0.0,0.0,0.000144,0.0,0.0,0.0,0.002809,2
1668537656435091976,294707,1668537656517066325,gps,2,1,42.300277655,-83.6985997482,270.863739014,0.000144,0.0,0.0,0.0,0.000144,0.0,0.0,0.0,0.002809,2
1668537656445211260,294708,1668537656526983424,gps,2,1,42.3002778751,-83.6985997565,270.863739014,0.000144,0.0,0.0,0.0,0.000144,0.0,0.0,0.0,0.002809,2
1668537656454974165,294709,1668537656537014728,gps,2,1,42.300278098,-83.6985997641,270.863830566,0.000144,0.0,0.0,0.0,0.000144,0.0,0.0,0.0,0.002809,2
1668537656465069086,294710,1668537656547107208,gps,2,1,42.3002783179,-83.698599772,270.863891602,0.000144,0.0,0.0,0.0,0.000144,0.0,0.0,0.0,0.002809,2
1668537656474967112,294711,1668537656556987247,gps,2,1,42.3002785409,-83.6985997774,270.864318848,0.000144,0.0,0.0,0.0,0.000144,0.0,0.0,0.0,0.002809,2
1668537656484968461,294712,1668537656566959850,gps,2,1,42.3002787673,-83.698599785,270.864379883,0.000144,0.0,0.0,0.0,0.000144,0.0,0.0,0.0,0.002809,2
1668537656495009765,294713,1668537656576996764,gps,2,1,42.3002789907,-83.6985997928,270.864440918,0.000144,0.0,0.0,0.0,0.000144,0.0,0.0,0.0,0.002809,2
1668537656504953545,294714,1668537656586949374,gps,2,1,42.3002792174,-83.6985997981,270.864807129,0.000144,0.0,0.0,0.0,0.000144,0.0,0.0,0.0,0.002809,2
1668537656515002407,294715,1668537656596996113,gps,2,1,42.3002794475,-83.6985998058,270.864837646,0.000144,0.0,0.0,0.0,0.000144,0.0,0.0,0.0,0.002809,2
1668537656524781039,294716,1668537656607025740,gps,2,1,42.3002796744,-83.6985998136,270.864898682,0.000144,0.0,0.0,0.0,0.000144,0.0,0.0,0.0,0.002809,2
1668537656534723983,294717,1668537656616925825,gps,2,1,42.3002799047,-83.698599819,270.865234375,0.000144,0.0,0.0,0.0,0.000144,0.0,0.0,0.0,0.002809,2
1668537656544995763,294718,1668537656627028723,gps,2,1,42.3002801384,-83.6985998267,270.865264893,0.000144,0.0,0.0,0.0,0.000144,0.0,0.0,0.0,0.002809,2
1668537656554703728,294719,1668537656636955406,gps,2,1,42.3002803691,-83.6985998344,270.86529541,0.000144,0.0,0.0,0.0,0.000144,0.0,0.0,0.0,0.002809,2
1668537656565326459,294720,1668537656646931303,gps,2,1,42.3002806033,-83.6985998405,270.865600586,0.000144,0.0,0.0,0.0,0.000144,0.0,0.0,0.0,0.002809,2
1668537656575038376,294721,1668537656657054423,gps,2,1,42.3002808408,-83.6985998483,270.865631104,0.000144,0.0,0.0,0.0,0.000144,0.0,0.0,0.0,0.002809,2
1668537656584891321,294722,1668537656666999730,gps,2,1,42.3002810751,-83.698599856,270.865631104,0.000144,0.0,0.0,0.0,0.000144,0.0,0.0,0.0,0.002809,2
1668537656594974516,294723,1668537656676943324,gps,2,1,42.300281313,-83.6985998621,270.865936279,0.000144,0.0,0.0,0.0,0.000144,0.0,0.0,0.0,0.002809,2
1668537656604912733,294724,1668537656686949108,gps,2,1,42.3002815542,-83.6985998698,270.865997314,0.000144,0.0,0.0,0.0,0.000144,0.0,0.0,0.0,0.002809,2
1668537656614987231,294725,1668537656697013486,gps,2,1,42.3002817923,-83.6985998774,270.866027832,0.000144,0.0,0.0,0.0,0.000144,0.0,0.0,0.0,0.002809,2
1668537656624922063,294726,1668537656706937600,gps,2,1,42.3002820339,-83.6985998835,270.866363525,0.000144,0.0,0.0,0.0,0.000144,0.0,0.0,0.0,0.002809,2
1668537656634856193,294727,1668537656716928302,gps,2,1,42.3002822788,-83.6985998909,270.866455078,0.000144,0.0,0.0,0.0,0.000144,0.0,0.0,0.0,0.002809,2
1668537656644982813,294728,1668537656727085735,gps,2,1,42.3002825206,-83.6985998985,270.866516113,0.000144,0.0,0.0,0.0,0.000144,0.0,0.0,0.0,0.002809,2
1668537656654884079,294729,1668537656736931451,gps,2,1,42.300282766,-83.6985999046,270.866882324,0.000144,0.0,0.0,0.0,0.000144,0.0,0.0,0.0,0.002809,2
1668537656664968000,294730,1668537656746980116,gps,2,1,42.3002830147,-83.6985999121,270.86706543,0.000144,0.0,0.0,0.0,0.000144,0.0,0.0,0.0,0.002809,2
1668537656674741232,294731,1668537656757013412,gps,2,1,42.3002832601,-83.6985999197,270.8671875,0.000144,0.0,0.0,0.0,0.000144,0.0,0.0,0.0,0.002809,2
1668537656684681622,294732,1668537656766940793,gps,2,1,42.3002835093,-83.698599926,270.867614746,0.000144,0.0,0.0,0.0,0.000144,0.0,0.0,0.0,0.002809,2
1668537656694789924,294733,1668537656776943331,gps,2,1,42.3002837619,-83.6985999338,270.867797852,0.000144,0.0,0.0,0.0,0.000144,0.0,0.0,0.0,0.002809,2
1668537656705194624,294734,1668537656787008722,gps,2,1,42.300284011,-83.6985999413,270.868011475,0.000144,0.0,0.0,0.0,0.000144,0.0,0.0,0.0,0.002809,2
1668537656715076781,294735,1668537656796932077,gps,2,1,42.3002842641,-83.6985999479,270.868438721,0.000144,0.0,0.0,0.0,0.000144,0.0,0.0,0.0,0.002809,2
1668537656725204732,294736,1668537656806941439,gps,2,1,42.3002845203,-83.6985999558,270.868682861,0.000144,0.0,0.0,0.0,0.000144,0.0,0.0,0.0,0.002809,2
1668537656734922728,294737,1668537656816989568,gps,2,1,42.3002847735,-83.6985999638,270.868865967,0.000144,0.0,0.0,0.0,0.000144,0.0,0.0,0.0,0.002809,2
1668537656745137714,294738,1668537656826929571,gps,2,1,42.3002850304,-83.6985999705,270.869293213,0.000144,0.0,0.0,0.0,0.000144,0.0,0.0,0.0,0.002809,2
1668537656755063862,294739,1668537656836941708,gps,2,1,42.3002852907,-83.6985999786,270.869476318,0.000144,0.0,0.0,0.0,0.000144,0.0,0.0,0.0,0.002809,2
1668537656764791617,294740,1668537656846989508,gps,2,1,42.3002855476,-83.6985999868,270.869720459,0.000144,0.0,0.0,0.0,0.000144,0.0,0.0,0.0,0.002809,2
1668537656774853168,294741,1668537656856918013,gps,2,1,42.3002858086,-83.6985999936,270.87008667,0.000144,0.0,0.0,0.0,0.000144,0.0,0.0,0.0,0.002809,2
1668537656784851215,294742,1668537656866938390,gps,2,1,42.3002860729,-83.6986000016,270.870239258,0.000144,0.0,0.0,0.0,0.000144,0.0,0.0,0.0,0.002809,2
1668537656794843088,294743,1668537656876996297,gps,2,1,42.3002863339,-83.6986000094,270.870422363,0.000144,0.0,0.0,0.0,0.000144,0.0,0.0,0.0,0.002809,2
1668537656804845453,294744,1668537656886928244,gps,2,1,42.300286599,-83.6986000168,270.870758057,0.000144,0.0,0.0,0.0,0.000144,0.0,0.0,0.0,0.002809,2
1668537656814931807,294745,1668537656896921216,gps,2,1,42.3002868672,-83.6986000243,270.870849609,0.000144,0.0,0.0,0.0,0.000144,0.0,0.0,0.0,0.002809,2
1668537656825170289,294746,1668537656907086382,gps,2,1,42.3002871323,-83.6986000319,270.871002197,0.000144,0.0,0.0,0.0,0.000144,0.0,0.0,0.0,0.002809,2
1668537656834643599,294747,1668537656916922234,gps,2,1,42.3002874014,-83.698600039,270.871276855,0.000144,0.0,0.0,0.0,0.000144,0.0,0.0,0.0,0.002809,2
1668537656844880127,294748,1668537656926929719,gps,2,1,42.3002876736,-83.6986000463,270.871368408,0.000144,0.0,0.0,0.0,0.000144,0.0,0.0,0.0,0.002809,2
1668537656854996981,294749,1668537656936972002,gps,2,1,42.3002879427,-83.6986000538,270.871490479,0.000144,0.0,0.0,0.0,0.000144,0.0,0.0,0.0,0.002809,2
1668537656865027954,294750,1668537656946922941,gps,2,1,42.3002882159,-83.6986000609,270.871765137,0.000144,0.0,0.0,0.0,0.000144,0.0,0.0,0.0,0.002809,2
1668537656874640590,294751,1668537656956922920,gps,2,1,42.3002884922,-83.6986000681,270.871856689,0.000144,0.0,0.0,0.0,0.000144,0.0,0.0,0.0,0.002809,2
1668537656884924849,294752,1668537656967002362,gps,2,1,42.3002887653,-83.6986000756,270.871917725,0.000144,0.0,0.0,0.0,0.000144,0.0,0.0,0.0,0.002809,2
1668537656895082546,294753,1668537656977013732,gps,2,1,42.3002890424,-83.6986000826,270.8722229,0.000144,0.0,0.0,0.0,0.000144,0.0,0.0,0.0,0.002809,2
1668537656904932845,294754,1668537656986935619,gps,2,1,42.3002893229,-83.6986000902,270.872314453,0.000144,0.0,0.0,0.0,0.000144,0.0,0.0,0.0,0.002809,2
1668537656914924609,294755,1668537656997054116,gps,2,1,42.3002895999,-83.6986000977,270.872406006,0.000144,0.0,0.0,0.0,0.000144,0.0,0.0,0.0,0.002809,2
1668537656924839579,294756,1668537657007010561,gps,2,1,42.3002898813,-83.6986001093,270.872833252,0.000144,0.0,0.0,0.0,0.000144,0.0,0.0,0.0,0.002809,2
1668537656934927664,294757,1668537657016932031,gps,2,1,42.3002901657,-83.6986001175,270.872955322,0.000144,0.0,0.0,0.0,0.000144,0.0,0.0,0.0,0.002809,2
1668537656944945975,294758,1668537657027051956,gps,2,1,42.3002904466,-83.6986001248,270.873046875,0.000144,0.0,0.0,0.0,0.000144,0.0,0.0,0.0,0.002809,2
1668537656954817402,294759,1668537657037004562,gps,2,1,42.3002907321,-83.6986001369,270.873504639,0.000144,0.0,0.0,0.0,0.000144,0.0,0.0,0.0,0.002809,2
1668537656964710114,294760,1668537657046925663,gps,2,1,42.3002910205,-83.6986001455,270.873657227,0.000144,0.0,0.0,0.0,0.000144,0.0,0.0,0.0,0.002809,2
1668537656975109917,294761,1668537657057021400,gps,2,1,42.3002913056,-83.6986001538,270.873779297,0.000144,0.0,0.0,0.0,0.000144,0.0,0.0,0.0,0.002809,2
1668537656985110576,294762,1668537657067008135,gps,2,1,42.3002915951,-83.6986001666,270.874298096,0.000144,0.0,0.0,0.0,0.000144,0.0,0.0,0.0,0.002809,2
1668537656995210976,294763,1668537657076915935,gps,2,1,42.3002918877,-83.698600176,270.874481201,0.000144,0.0,0.0,0.0,0.000144,0.0,0.0,0.0,0.002809,2
