%time,field.header.seq,field.header.stamp,field.header.frame_id,field.twist.twist.linear.x,field.twist.twist.linear.y,field.twist.twist.linear.z,field.twist.twist.angular.x,field.twist.twist.angular.y,field.twist.twist.angular.z,field.twist.covariance0,field.twist.covariance1,field.twist.covariance2,field.twist.covariance3,field.twist.covariance4,field.twist.covariance5,field.twist.covariance6,field.twist.covariance7,field.twist.covariance8,field.twist.covariance9,field.twist.covariance10,field.twist.covariance11,field.twist.covariance12,field.twist.covariance13,field.twist.covariance14,field.twist.covariance15,field.twist.covariance16,field.twist.covariance17,field.twist.covariance18,field.twist.covariance19,field.twist.covariance20,field.twist.covariance21,field.twist.covariance22,field.twist.covariance23,field.twist.covariance24,field.twist.covariance25,field.twist.covariance26,field.twist.covariance27,field.twist.covariance28,field.twist.covariance29,field.twist.covariance30,field.twist.covariance31,field.twist.covariance32,field.twist.covariance33,field.twist.covariance34,field.twist.covariance35
1668536787614675498,207825,1668536787764557202,enu,0.0033,0.0048,-0.0,0.0,0.0,0.0,4.9e-05,0.0,0.0,0.0,0.0,0.0,0.0,6.4e-05,0.0,0.0,0.0,0.0,0.0,0.0,4.9e-05,0.0,0.0,0.0,0.0,0.0,0.0,0.0,0.0,0.0,0.0,0.0,0.0,0.0,0.0,0.0,0.0,0.0,0.0,0.0,0.0,0.0
1668536787624970957,207826,1668536787774672441,enu,0.0029,0.0061,-0.0013,0.0,0.0,0.0,4.9e-05,0.0,0.0,0.0,0.0,0.0,0.0,6.4e-05,0.0,0.0,0.0,0.0,0.0,0.0,4.9e-05,0.0,0.0,0.0,0.0,0.0,0.0,0.0,0.0,0.0,0.0,0.0,0.0,0.0,0.0,0.0,0.0,0.0,0.0,0.0,0.0,0.0
1668536787635053345,207827,1668536787784589293,enu,0.0023,0.0057,-0.0008,0.0,0.0,0.0,4.9e-05,0.0,0.0,0.0,0.0,0.0,0.0,6.4e-05,0.0,0.0,0.0,0.0,0.0,0.0,4.9e-05,0.0,0.0,0.0,0.0,0.0,0.0,0.0,0.0,0.0,0.0,0.0,0.0,0.0,0.0,0.0,0.0,0.0,0.0,0.0,0.0,0.0
1668536787644761982,207828,1668536787794537954,enu,0.0011,0.0053,-0.0011,0.0,0.0,0.0,4.9e-05,0.0,0.0,0.0,0.0,0.0,0.0,6.4e-05,0.0,0.0,0.0,0.0,0.0,0.0,4.9e-05,0.0,0.0,0.0,0.0,0.0,0.0,0.0,0.0,0.0,0.0,0.0,0.0,0.0,0.0,0.0,0.0,0.0,0.0,0.0,0.0,0.0
1668536787654746690,207829,1668536787804613386,enu,0.0013,0.0062,-0.0014,0.0,0.0,0.0,4.9e-05,0.0,0.0,0.0,0.0,0.0,0.0,6.4e-05,0.0,0.0,0.0,0.0,0.0,0.0,4.9e-05,0.0,0.0,0.0,0.0,0.0,0.0,0.0,0.0,0.0,0.0,0.0,0.0,0.0,0.0,0.0,0.0,0.0,0.0,0.0,0.0,0.0
1668536787664758803,207830,1668536787814558803,enu,0.0014,0.0046,-0.0006,0.0,0.0,0.0,4.9e-05,0.0,0.0,0.0,0.0,0.0,0.0,6.4e-05,0.0,0.0,0.0,0.0,0.0,0.0,4.9e-05,0.0,0.0,0.0,0.0,0.0,0.0,0.0,0.0,0.0,0.0,0.0,0.0,0.0,0.0,0.0,0.0,0.0,0.0,0.0,0.0,0.0
1668536787674897103,207831,1668536787824562715,enu,0.001,0.0054,-0.002,0.0,0.0,0.0,4.9e-05,0.0,0.0,0.0,0.0,0.0,0.0,6.4e-05,0.0,0.0,0.0,0.0,0.0,0.0,4.9e-05,0.0,0.0,0.0,0.0,0.0,0.0,0.0,0.0,0.0,0.0,0.0,0.0,0.0,0.0,0.0,0.0,0.0,0.0,0.0,0.0,0.0
1668536787684624913,207832,1668536787834623116,enu,0.0024,0.0048,-0.0015,0.0,0.0,0.0,4.9e-05,0.0,0.0,0.0,0.0,0.0,0.0,6.4e-05,0.0,0.0,0.0,0.0,0.0,0.0,4.9e-05,0.0,0.0,0.0,0.0,0.0,0.0,0.0,0.0,0.0,0.0,0.0,0.0,0.0,0.0,0.0,0.0,0.0,0.0,0.0,0.0,0.0
1668536787694856990,207833,1668536787844568979,enu,0.0019,0.0041,-0.0007,0.0,0.0,0.0,4.9e-05,0.0,0.0,0.0,0.0,0.0,0.0,6.4e-05,0.0,0.0,0.0,0.0,0.0,0.0,4.9e-05,0.0,0.0,0.0,0.0,0.0,0.0,0.0,0.0,0.0,0.0,0.0,0.0,0.0,0.0,0.0,0.0,0.0,0.0,0.0,0.0,0.0
1668536787704733385,207834,1668536787854569522,enu,0.0032,0.0048,-0.0012,0.0,0.0,0.0,4.9e-05,0.0,0.0,0.0,0.0,0.0,0.0,6.4e-05,0.0,0.0,0.0,0.0,0.0,0.0,4.9e-05,0.0,0.0,0.0,0.0,0.0,0.0,0.0,0.0,0.0,0.0,0.0,0.0,0.0,0.0,0.0,0.0,0.0,0.0,0.0,0.0,0.0
1668536787714648671,207835,1668536787864574368,enu,0.0034,0.0045,0.0002,0.0,0.0,0.0,4.9e-05,0.0,0.0,0.0,0.0,0.0,0.0,6.4e-05,0.0,0.0,0.0,0.0,0.0,0.0,4.9e-05,0.0,0.0,0.0,0.0,0.0,0.0,0.0,0.0,0.0,0.0,0.0,0.0,0.0,0.0,0.0,0.0,0.0,0.0,0.0,0.0,0.0
1668536787724838572,207836,1668536787874645930,enu,0.0025,0.0045,-0.0004,0.0,0.0,0.0,4.9e-05,0.0,0.0,0.0,0.0,0.0,0.0,6.4e-05,0.0,0.0,0.0,0.0,0.0,0.0,4.9e-05,0.0,0.0,0.0,0.0,0.0,0.0,0.0,0.0,0.0,0.0,0.0,0.0,0.0,0.0,0.0,0.0,0.0,0.0,0.0,0.0,0.0
1668536787735034818,207837,1668536787884624020,enu,0.0038,0.0047,-0.0003,0.0,0.0,0.0,4.9e-05,0.0,0.0,0.0,0.0,0.0,0.0,6.4e-05,0.0,0.0,0.0,0.0,0.0,0.0,4.9e-05,0.0,0.0,0.0,0.0,0.0,0.0,0.0,0.0,0.0,0.0,0.0,0.0,0.0,0.0,0.0,0.0,0.0,0.0,0.0,0.0,0.0
1668536787744950352,207838,1668536787894641416,enu,0.0027,0.0044,-0.0,0.0,0.0,0.0,4.9e-05,0.0,0.0,0.0,0.0,0.0,0.0,6.4e-05,0.0,0.0,0.0,0.0,0.0,0.0,4.9e-05,0.0,0.0,0.0,0.0,0.0,0.0,0.0,0.0,0.0,0.0,0.0,0.0,0.0,0.0,0.0,0.0,0.0,0.0,0.0,0.0,0.0
1668536787754831858,207839,1668536787904649529,enu,0.0036,0.0048,-0.0012,0.0,0.0,0.0,4.9e-05,0.0,0.0,0.0,0.0,0.0,0.0,6.4e-05,0.0,0.0,0.0,0.0,0.0,0.0,4.9e-05,0.0,0.0,0.0,0.0,0.0,0.0,0.0,0.0,0.0,0.0,0.0,0.0,0.0,0.0,0.0,0.0,0.0,0.0,0.0,0.0,0.0
1668536787765095116,207840,1668536787914571413,enu,0.004,0.0044,-0.0006,0.0,0.0,0.0,4.9e-05,0.0,0.0,0.0,0.0,0.0,0.0,6.4e-05,0.0,0.0,0.0,0.0,0.0,0.0,4.9e-05,0.0,0.0,0.0,0.0,0.0,0.0,0.0,0.0,0.0,0.0,0.0,0.0,0.0,0.0,0.0,0.0,0.0,0.0,0.0,0.0,0.0
1668536787774779045,207841,1668536787924651616,enu,0.004,0.0045,-0.0012,0.0,0.0,0.0,4.9e-05,0.0,0.0,0.0,0.0,0.0,0.0,6.4e-05,0.0,0.0,0.0,0.0,0.0,0.0,4.9e-05,0.0,0.0,0.0,0.0,0.0,0.0,0.0,0.0,0.0,0.0,0.0,0.0,0.0,0.0,0.0,0.0,0.0,0.0,0.0,0.0,0.0
1668536787784864651,207842,1668536787934574269,enu,0.0057,0.0053,-0.0012,0.0,0.0,0.0,4.9e-05,0.0,0.0,0.0,0.0,0.0,0.0,6.4e-05,0.0,0.0,0.0,0.0,0.0,0.0,4.9e-05,0.0,0.0,0.0,0.0,0.0,0.0,0.0,0.0,0.0,0.0,0.0,0.0,0.0,0.0,0.0,0.0,0.0,0.0,0.0,0.0,0.0
1668536787795041979,207843,1668536787944562712,enu,0.0056,0.0047,-0.0002,0.0,0.0,0.0,4.9e-05,0.0,0.0,0.0,0.0,0.0,0.0,6.4e-05,0.0,0.0,0.0,0.0,0.0,0.0,4.9e-05,0.0,0.0,0.0,0.0,0.0,0.0,0.0,0.0,0.0,0.0,0.0,0.0,0.0,0.0,0.0,0.0,0.0,0.0,0.0,0.0,0.0
1668536787804710347,207844,1668536787954629560,enu,0.0063,0.0054,-0.0012,0.0,0.0,0.0,4.9e-05,0.0,0.0,0.0,0.0,0.0,0.0,6.4e-05,0.0,0.0,0.0,0.0,0.0,0.0,4.9e-05,0.0,0.0,0.0,0.0,0.0,0.0,0.0,0.0,0.0,0.0,0.0,0.0,0.0,0.0,0.0,0.0,0.0,0.0,0.0,0.0,0.0
1668536787814625515,207845,1668536787964563208,enu,0.0065,0.0054,-0.001,0.0,0.0,0.0,4.9e-05,0.0,0.0,0.0,0.0,0.0,0.0,6.4e-05,0.0,0.0,0.0,0.0,0.0,0.0,4.9e-05,0.0,0.0,0.0,0.0,0.0,0.0,0.0,0.0,0.0,0.0,0.0,0.0,0.0,0.0,0.0,0.0,0.0,0.0,0.0,0.0,0.0
1668536787824719598,207846,1668536787974695188,enu,0.0049,0.0053,-0.0016,0.0,0.0,0.0,4.9e-05,0.0,0.0,0.0,0.0,0.0,0.0,6.4e-05,0.0,0.0,0.0,0.0,0.0,0.0,4.9e-05,0.0,0.0,0.0,0.0,0.0,0.0,0.0,0.0,0.0,0.0,0.0,0.0,0.0,0.0,0.0,0.0,0.0,0.0,0.0,0.0,0.0
1668536787834723057,207847,1668536787984691520,enu,0.005,0.0059,-0.0025,0.0,0.0,0.0,4.9e-05,0.0,0.0,0.0,0.0,0.0,0.0,6.4e-05,0.0,0.0,0.0,0.0,0.0,0.0,4.9e-05,0.0,0.0,0.0,0.0,0.0,0.0,0.0,0.0,0.0,0.0,0.0,0.0,0.0,0.0,0.0,0.0,0.0,0.0,0.0,0.0,0.0
1668536787845347622,207848,1668536787994590605,enu,0.0034,0.0057,-0.002,0.0,0.0,0.0,4.9e-05,0.0,0.0,0.0,0.0,0.0,0.0,6.4e-05,0.0,0.0,0.0,0.0,0.0,0.0,4.9e-05,0.0,0.0,0.0,0.0,0.0,0.0,0.0,0.0,0.0,0.0,0.0,0.0,0.0,0.0,0.0,0.0,0.0,0.0,0.0,0.0,0.0
1668536787854628823,207849,1668536788004576710,enu,0.0032,0.0063,-0.0025,0.0,0.0,0.0,4.9e-05,0.0,0.0,0.0,0.0,0.0,0.0,6.4e-05,0.0,0.0,0.0,0.0,0.0,0.0,4.9e-05,0.0,0.0,0.0,0.0,0.0,0.0,0.0,0.0,0.0,0.0,0.0,0.0,0.0,0.0,0.0,0.0,0.0,0.0,0.0,0.0,0.0
1668536787864945755,207850,1668536788014653158,enu,0.0036,0.006,-0.0018,0.0,0.0,0.0,4.9e-05,0.0,0.0,0.0,0.0,0.0,0.0,6.4e-05,0.0,0.0,0.0,0.0,0.0,0.0,4.9e-05,0.0,0.0,0.0,0.0,0.0,0.0,0.0,0.0,0.0,0.0,0.0,0.0,0.0,0.0,0.0,0.0,0.0,0.0,0.0,0.0,0.0
1668536787874863676,207851,1668536788024567100,enu,0.003,0.0058,-0.0012,0.0,0.0,0.0,4.9e-05,0.0,0.0,0.0,0.0,0.0,0.0,6.4e-05,0.0,0.0,0.0,0.0,0.0,0.0,4.9e-05,0.0,0.0,0.0,0.0,0.0,0.0,0.0,0.0,0.0,0.0,0.0,0.0,0.0,0.0,0.0,0.0,0.0,0.0,0.0,0.0,0.0
1668536787884779647,207852,1668536788034585358,enu,0.0043,0.0062,-0.0018,0.0,0.0,0.0,4.9e-05,0.0,0.0,0.0,0.0,0.0,0.0,6.4e-05,0.0,0.0,0.0,0.0,0.0,0.0,4.9e-05,0.0,0.0,0.0,0.0,0.0,0.0,0.0,0.0,0.0,0.0,0.0,0.0,0.0,0.0,0.0,0.0,0.0,0.0,0.0,0.0,0.0
1668536787895182429,207853,1668536788044648158,enu,0.0044,0.0054,-0.0007,0.0,0.0,0.0,4.9e-05,0.0,0.0,0.0,0.0,0.0,0.0,6.4e-05,0.0,0.0,0.0,0.0,0.0,0.0,4.9e-05,0.0,0.0,0.0,0.0,0.0,0.0,0.0,0.0,0.0,0.0,0.0,0.0,0.0,0.0,0.0,0.0,0.0,0.0,0.0,0.0,0.0
1668536787905376673,207854,1668536788054572887,enu,0.0043,0.0057,-0.0012,0.0,0.0,0.0,4.9e-05,0.0,0.0,0.0,0.0,0.0,0.0,6.4e-05,0.0,0.0,0.0,0.0,0.0,0.0,4.9e-05,0.0,0.0,0.0,0.0,0.0,0.0,0.0,0.0,0.0,0.0,0.0,0.0,0.0,0.0,0.0,0.0,0.0,0.0,0.0,0.0,0.0
1668536787914779672,207855,1668536788064615510,enu,0.0049,0.0059,-0.001,0.0,0.0,0.0,4.9e-05,0.0,0.0,0.0,0.0,0.0,0.0,6.4e-05,0.0,0.0,0.0,0.0,0.0,0.0,4.9e-05,0.0,0.0,0.0,0.0,0.0,0.0,0.0,0.0,0.0,0.0,0.0,0.0,0.0,0.0,0.0,0.0,0.0,0.0,0.0,0.0,0.0
1668536787924799673,207856,1668536788074713472,enu,0.0038,0.0054,-0.0002,0.0,0.0,0.0,4.9e-05,0.0,0.0,0.0,0.0,0.0,0.0,6.4e-05,0.0,0.0,0.0,0.0,0.0,0.0,4.9e-05,0.0,0.0,0.0,0.0,0.0,0.0,0.0,0.0,0.0,0.0,0.0,0.0,0.0,0.0,0.0,0.0,0.0,0.0,0.0,0.0,0.0
1668536787934991655,207857,1668536788084642905,enu,0.0038,0.0057,-0.001,0.0,0.0,0.0,4.9e-05,0.0,0.0,0.0,0.0,0.0,0.0,6.4e-05,0.0,0.0,0.0,0.0,0.0,0.0,4.9e-05,0.0,0.0,0.0,0.0,0.0,0.0,0.0,0.0,0.0,0.0,0.0,0.0,0.0,0.0,0.0,0.0,0.0,0.0,0.0,0.0,0.0
1668536787944807047,207858,1668536788094572163,enu,0.0036,0.0051,-0.0004,0.0,0.0,0.0,4.9e-05,0.0,0.0,0.0,0.0,0.0,0.0,6.4e-05,0.0,0.0,0.0,0.0,0.0,0.0,4.9e-05,0.0,0.0,0.0,0.0,0.0,0.0,0.0,0.0,0.0,0.0,0.0,0.0,0.0,0.0,0.0,0.0,0.0,0.0,0.0,0.0,0.0
1668536787954678311,207859,1668536788104615120,enu,0.003,0.0053,-0.0004,0.0,0.0,0.0,4.9e-05,0.0,0.0,0.0,0.0,0.0,0.0,6.4e-05,0.0,0.0,0.0,0.0,0.0,0.0,4.9e-05,0.0,0.0,0.0,0.0,0.0,0.0,0.0,0.0,0.0,0.0,0.0,0.0,0.0,0.0,0.0,0.0,0.0,0.0,0.0,0.0,0.0
1668536787964786129,207860,1668536788114701014,enu,0.0039,0.005,-0.0007,0.0,0.0,0.0,4.9e-05,0.0,0.0,0.0,0.0,0.0,0.0,6.4e-05,0.0,0.0,0.0,0.0,0.0,0.0,4.9e-05,0.0,0.0,0.0,0.0,0.0,0.0,0.0,0.0,0.0,0.0,0.0,0.0,0.0,0.0,0.0,0.0,0.0,0.0,0.0,0.0,0.0
1668536787974705669,207861,1668536788124564832,enu,0.0034,0.0045,-0.0002,0.0,0.0,0.0,4.9e-05,0.0,0.0,0.0,0.0,0.0,0.0,6.4e-05,0.0,0.0,0.0,0.0,0.0,0.0,4.9e-05,0.0,0.0,0.0,0.0,0.0,0.0,0.0,0.0,0.0,0.0,0.0,0.0,0.0,0.0,0.0,0.0,0.0,0.0,0.0,0.0,0.0
1668536787984670308,207862,1668536788134657079,enu,0.0038,0.0051,-0.0013,0.0,0.0,0.0,4.9e-05,0.0,0.0,0.0,0.0,0.0,0.0,6.4e-05,0.0,0.0,0.0,0.0,0.0,0.0,4.9e-05,0.0,0.0,0.0,0.0,0.0,0.0,0.0,0.0,0.0,0.0,0.0,0.0,0.0,0.0,0.0,0.0,0.0,0.0,0.0,0.0,0.0
1668536787995203907,207863,1668536788144707734,enu,0.0047,0.0049,-0.0011,0.0,0.0,0.0,4.9e-05,0.0,0.0,0.0,0.0,0.0,0.0,6.4e-05,0.0,0.0,0.0,0.0,0.0,0.0,4.9e-05,0.0,0.0,0.0,0.0,0.0,0.0,0.0,0.0,0.0,0.0,0.0,0.0,0.0,0.0,0.0,0.0,0.0,0.0,0.0,0.0,0.0
1668536788005059465,207864,1668536788154743733,enu,0.004,0.0047,-0.0008,0.0,0.0,0.0,4.9e-05,0.0,0.0,0.0,0.0,0.0,0.0,6.4e-05,0.0,0.0,0.0,0.0,0.0,0.0,4.9e-05,0.0,0.0,0.0,0.0,0.0,0.0,0.0,0.0,0.0,0.0,0.0,0.0,0.0,0.0,0.0,0.0,0.0,0.0,0.0,0.0,0.0
1668536788014915970,207865,1668536788164665849,enu,0.0047,0.0053,-0.0018,0.0,0.0,0.0,4.9e-05,0.0,0.0,0.0,0.0,0.0,0.0,6.4e-05,0.0,0.0,0.0,0.0,0.0,0.0,4.9e-05,0.0,0.0,0.0,0.0,0.0,0.0,0.0,0.0,0.0,0.0,0.0,0.0,0.0,0.0,0.0,0.0,0.0,0.0,0.0,0.0,0.0
1668536788024965479,207866,1668536788174588330,enu,0.0042,0.0049,-0.0012,0.0,0.0,0.0,4.9e-05,0.0,0.0,0.0,0.0,0.0,0.0,6.4e-05,0.0,0.0,0.0,0.0,0.0,0.0,4.9e-05,0.0,0.0,0.0,0.0,0.0,0.0,0.0,0.0,0.0,0.0,0.0,0.0,0.0,0.0,0.0,0.0,0.0,0.0,0.0,0.0,0.0
1668536788034840856,207867,1668536788184574655,enu,0.0035,0.0052,-0.002,0.0,0.0,0.0,4.9e-05,0.0,0.0,0.0,0.0,0.0,0.0,6.4e-05,0.0,0.0,0.0,0.0,0.0,0.0,4.9e-05,0.0,0.0,0.0,0.0,0.0,0.0,0.0,0.0,0.0,0.0,0.0,0.0,0.0,0.0,0.0,0.0,0.0,0.0,0.0,0.0,0.0
1668536788044917981,207868,1668536788194667870,enu,0.004,0.0052,-0.002,0.0,0.0,0.0,4.9e-05,0.0,0.0,0.0,0.0,0.0,0.0,6.4e-05,0.0,0.0,0.0,0.0,0.0,0.0,4.9e-05,0.0,0.0,0.0,0.0,0.0,0.0,0.0,0.0,0.0,0.0,0.0,0.0,0.0,0.0,0.0,0.0,0.0,0.0,0.0,0.0,0.0
1668536788055039997,207869,1668536788204608501,enu,0.0031,0.0053,-0.0015,0.0,0.0,0.0,4.9e-05,0.0,0.0,0.0,0.0,0.0,0.0,6.4e-05,0.0,0.0,0.0,0.0,0.0,0.0,4.9e-05,0.0,0.0,0.0,0.0,0.0,0.0,0.0,0.0,0.0,0.0,0.0,0.0,0.0,0.0,0.0,0.0,0.0,0.0,0.0,0.0,0.0
1668536788064706923,207870,1668536788214590981,enu,0.0037,0.0058,-0.0022,0.0,0.0,0.0,4.9e-05,0.0,0.0,0.0,0.0,0.0,0.0,6.4e-05,0.0,0.0,0.0,0.0,0.0,0.0,4.9e-05,0.0,0.0,0.0,0.0,0.0,0.0,0.0,0.0,0.0,0.0,0.0,0.0,0.0,0.0,0.0,0.0,0.0,0.0,0.0,0.0,0.0
1668536788074764152,207871,1668536788224743783,enu,0.004,0.0056,-0.0015,0.0,0.0,0.0,4.9e-05,0.0,0.0,0.0,0.0,0.0,0.0,6.4e-05,0.0,0.0,0.0,0.0,0.0,0.0,4.9e-05,0.0,0.0,0.0,0.0,0.0,0.0,0.0,0.0,0.0,0.0,0.0,0.0,0.0,0.0,0.0,0.0,0.0,0.0,0.0,0.0,0.0
1668536788084612907,207872,1668536788234593485,enu,0.0037,0.0058,-0.0018,0.0,0.0,0.0,4.9e-05,0.0,0.0,0.0,0.0,0.0,0.0,6.4e-05,0.0,0.0,0.0,0.0,0.0,0.0,4.9e-05,0.0,0.0,0.0,0.0,0.0,0.0,0.0,0.0,0.0,0.0,0.0,0.0,0.0,0.0,0.0,0.0,0.0,0.0,0.0,0.0,0.0
1668536788094814796,207873,1668536788244572147,enu,0.005,0.0062,-0.0019,0.0,0.0,0.0,4.9e-05,0.0,0.0,0.0,0.0,0.0,0.0,6.4e-05,0.0,0.0,0.0,0.0,0.0,0.0,4.9e-05,0.0,0.0,0.0,0.0,0.0,0.0,0.0,0.0,0.0,0.0,0.0,0.0,0.0,0.0,0.0,0.0,0.0,0.0,0.0,0.0,0.0
1668536788104923973,207874,1668536788254591731,enu,0.0048,0.0056,-0.001,0.0,0.0,0.0,4.9e-05,0.0,0.0,0.0,0.0,0.0,0.0,6.4e-05,0.0,0.0,0.0,0.0,0.0,0.0,4.9e-05,0.0,0.0,0.0,0.0,0.0,0.0,0.0,0.0,0.0,0.0,0.0,0.0,0.0,0.0,0.0,0.0,0.0,0.0,0.0,0.0,0.0
1668536788114952439,207875,1668536788264640908,enu,0.005,0.0063,-0.0019,0.0,0.0,0.0,4.9e-05,0.0,0.0,0.0,0.0,0.0,0.0,6.4e-05,0.0,0.0,0.0,0.0,0.0,0.0,4.9e-05,0.0,0.0,0.0,0.0,0.0,0.0,0.0,0.0,0.0,0.0,0.0,0.0,0.0,0.0,0.0,0.0,0.0,0.0,0.0,0.0,0.0
1668536788124572234,207876,1668536788274601980,enu,0.0055,0.0062,-0.0012,0.0,0.0,0.0,4.9e-05,0.0,0.0,0.0,0.0,0.0,0.0,6.4e-05,0.0,0.0,0.0,0.0,0.0,0.0,4.9e-05,0.0,0.0,0.0,0.0,0.0,0.0,0.0,0.0,0.0,0.0,0.0,0.0,0.0,0.0,0.0,0.0,0.0,0.0,0.0,0.0,0.0
1668536788134657590,207877,1668536788284597256,enu,0.0045,0.0059,-0.0008,0.0,0.0,0.0,8.1e-05,0.0,0.0,0.0,0.0,0.0,0.0,8.1e-05,0.0,0.0,0.0,0.0,0.0,0.0,4.9e-05,0.0,0.0,0.0,0.0,0.0,0.0,0.0,0.0,0.0,0.0,0.0,0.0,0.0,0.0,0.0,0.0,0.0,0.0,0.0,0.0,0.0
1668536788144775826,207878,1668536788294653517,enu,0.0053,0.0063,-0.0014,0.0,0.0,0.0,8.1e-05,0.0,0.0,0.0,0.0,0.0,0.0,8.1e-05,0.0,0.0,0.0,0.0,0.0,0.0,4.9e-05,0.0,0.0,0.0,0.0,0.0,0.0,0.0,0.0,0.0,0.0,0.0,0.0,0.0,0.0,0.0,0.0,0.0,0.0,0.0,0.0,0.0
1668536788154579130,207879,1668536788304589467,enu,0.0045,0.0059,-0.0005,0.0,0.0,0.0,8.1e-05,0.0,0.0,0.0,0.0,0.0,0.0,8.1e-05,0.0,0.0,0.0,0.0,0.0,0.0,4.9e-05,0.0,0.0,0.0,0.0,0.0,0.0,0.0,0.0,0.0,0.0,0.0,0.0,0.0,0.0,0.0,0.0,0.0,0.0,0.0,0.0,0.0
1668536788164978590,207880,1668536788314641241,enu,0.0042,0.0063,-0.001,0.0,0.0,0.0,8.1e-05,0.0,0.0,0.0,0.0,0.0,0.0,8.1e-05,0.0,0.0,0.0,0.0,0.0,0.0,4.9e-05,0.0,0.0,0.0,0.0,0.0,0.0,0.0,0.0,0.0,0.0,0.0,0.0,0.0,0.0,0.0,0.0,0.0,0.0,0.0,0.0,0.0
1668536788174908070,207881,1668536788324650608,enu,0.005,0.006,-0.0006,0.0,0.0,0.0,8.1e-05,0.0,0.0,0.0,0.0,0.0,0.0,8.1e-05,0.0,0.0,0.0,0.0,0.0,0.0,4.9e-05,0.0,0.0,0.0,0.0,0.0,0.0,0.0,0.0,0.0,0.0,0.0,0.0,0.0,0.0,0.0,0.0,0.0,0.0,0.0,0.0,0.0
1668536788184558438,207882,1668536788334598208,enu,0.0039,0.0055,-0.0,0.0,0.0,0.0,8.1e-05,0.0,0.0,0.0,0.0,0.0,0.0,8.1e-05,0.0,0.0,0.0,0.0,0.0,0.0,4.9e-05,0.0,0.0,0.0,0.0,0.0,0.0,0.0,0.0,0.0,0.0,0.0,0.0,0.0,0.0,0.0,0.0,0.0,0.0,0.0,0.0,0.0
1668536788195013051,207883,1668536788344652823,enu,0.0047,0.0062,-0.0011,0.0,0.0,0.0,8.1e-05,0.0,0.0,0.0,0.0,0.0,0.0,8.1e-05,0.0,0.0,0.0,0.0,0.0,0.0,4.9e-05,0.0,0.0,0.0,0.0,0.0,0.0,0.0,0.0,0.0,0.0,0.0,0.0,0.0,0.0,0.0,0.0,0.0,0.0,0.0,0.0,0.0
1668536788204756525,207884,1668536788354585085,enu,0.0046,0.0055,-0.0003,0.0,0.0,0.0,8.1e-05,0.0,0.0,0.0,0.0,0.0,0.0,8.1e-05,0.0,0.0,0.0,0.0,0.0,0.0,4.9e-05,0.0,0.0,0.0,0.0,0.0,0.0,0.0,0.0,0.0,0.0,0.0,0.0,0.0,0.0,0.0,0.0,0.0,0.0,0.0,0.0,0.0
1668536788214779685,207885,1668536788364599529,enu,0.0038,0.0056,-0.0007,0.0,0.0,0.0,8.1e-05,0.0,0.0,0.0,0.0,0.0,0.0,8.1e-05,0.0,0.0,0.0,0.0,0.0,0.0,4.9e-05,0.0,0.0,0.0,0.0,0.0,0.0,0.0,0.0,0.0,0.0,0.0,0.0,0.0,0.0,0.0,0.0,0.0,0.0,0.0,0.0,0.0
1668536788224936453,207886,1668536788374654942,enu,0.0043,0.0061,-0.0012,0.0,0.0,0.0,8.1e-05,0.0,0.0,0.0,0.0,0.0,0.0,8.1e-05,0.0,0.0,0.0,0.0,0.0,0.0,4.9e-05,0.0,0.0,0.0,0.0,0.0,0.0,0.0,0.0,0.0,0.0,0.0,0.0,0.0,0.0,0.0,0.0,0.0,0.0,0.0,0.0,0.0
1668536788235012363,207887,1668536788384580765,enu,0.0033,0.0056,-0.0004,0.0,0.0,0.0,8.1e-05,0.0,0.0,0.0,0.0,0.0,0.0,8.1e-05,0.0,0.0,0.0,0.0,0.0,0.0,4.9e-05,0.0,0.0,0.0,0.0,0.0,0.0,0.0,0.0,0.0,0.0,0.0,0.0,0.0,0.0,0.0,0.0,0.0,0.0,0.0,0.0,0.0
1668536788244785238,207888,1668536788394639690,enu,0.0032,0.0061,-0.0016,0.0,0.0,0.0,8.1e-05,0.0,0.0,0.0,0.0,0.0,0.0,8.1e-05,0.0,0.0,0.0,0.0,0.0,0.0,4.9e-05,0.0,0.0,0.0,0.0,0.0,0.0,0.0,0.0,0.0,0.0,0.0,0.0,0.0,0.0,0.0,0.0,0.0,0.0,0.0,0.0,0.0
1668536788254800799,207889,1668536788404673004,enu,0.0034,0.0058,-0.0014,0.0,0.0,0.0,8.1e-05,0.0,0.0,0.0,0.0,0.0,0.0,8.1e-05,0.0,0.0,0.0,0.0,0.0,0.0,4.9e-05,0.0,0.0,0.0,0.0,0.0,0.0,0.0,0.0,0.0,0.0,0.0,0.0,0.0,0.0,0.0,0.0,0.0,0.0,0.0,0.0,0.0
1668536788264608187,207890,1668536788414644410,enu,0.0026,0.006,-0.0013,0.0,0.0,0.0,8.1e-05,0.0,0.0,0.0,0.0,0.0,0.0,8.1e-05,0.0,0.0,0.0,0.0,0.0,0.0,4.9e-05,0.0,0.0,0.0,0.0,0.0,0.0,0.0,0.0,0.0,0.0,0.0,0.0,0.0,0.0,0.0,0.0,0.0,0.0,0.0,0.0,0.0
1668536788275033783,207891,1668536788424576886,enu,0.0035,0.0062,-0.0019,0.0,0.0,0.0,8.1e-05,0.0,0.0,0.0,0.0,0.0,0.0,8.1e-05,0.0,0.0,0.0,0.0,0.0,0.0,4.9e-05,0.0,0.0,0.0,0.0,0.0,0.0,0.0,0.0,0.0,0.0,0.0,0.0,0.0,0.0,0.0,0.0,0.0,0.0,0.0,0.0,0.0
1668536788285003839,207892,1668536788434584588,enu,0.0031,0.0057,-0.001,0.0,0.0,0.0,8.1e-05,0.0,0.0,0.0,0.0,0.0,0.0,8.1e-05,0.0,0.0,0.0,0.0,0.0,0.0,4.9e-05,0.0,0.0,0.0,0.0,0.0,0.0,0.0,0.0,0.0,0.0,0.0,0.0,0.0,0.0,0.0,0.0,0.0,0.0,0.0,0.0,0.0
1668536788294645424,207893,1668536788444660178,enu,0.0033,0.0062,-0.002,0.0,0.0,0.0,8.1e-05,0.0,0.0,0.0,0.0,0.0,0.0,8.1e-05,0.0,0.0,0.0,0.0,0.0,0.0,4.9e-05,0.0,0.0,0.0,0.0,0.0,0.0,0.0,0.0,0.0,0.0,0.0,0.0,0.0,0.0,0.0,0.0,0.0,0.0,0.0,0.0,0.0
1668536788304569937,207894,1668536788454590890,enu,0.0042,0.0062,-0.0018,0.0,0.0,0.0,8.1e-05,0.0,0.0,0.0,0.0,0.0,0.0,8.1e-05,0.0,0.0,0.0,0.0,0.0,0.0,4.9e-05,0.0,0.0,0.0,0.0,0.0,0.0,0.0,0.0,0.0,0.0,0.0,0.0,0.0,0.0,0.0,0.0,0.0,0.0,0.0,0.0,0.0
1668536788315046224,207895,1668536788464587054,enu,0.0036,0.0058,-0.0011,0.0,0.0,0.0,8.1e-05,0.0,0.0,0.0,0.0,0.0,0.0,8.1e-05,0.0,0.0,0.0,0.0,0.0,0.0,4.9e-05,0.0,0.0,0.0,0.0,0.0,0.0,0.0,0.0,0.0,0.0,0.0,0.0,0.0,0.0,0.0,0.0,0.0,0.0,0.0,0.0,0.0
1668536788325162255,207896,1668536788474724747,enu,0.0044,0.0061,-0.002,0.0,0.0,0.0,8.1e-05,0.0,0.0,0.0,0.0,0.0,0.0,8.1e-05,0.0,0.0,0.0,0.0,0.0,0.0,4.9e-05,0.0,0.0,0.0,0.0,0.0,0.0,0.0,0.0,0.0,0.0,0.0,0.0,0.0,0.0,0.0,0.0,0.0,0.0,0.0,0.0,0.0
1668536788335052995,207897,1668536788484585436,enu,0.0044,0.0057,-0.001,0.0,0.0,0.0,8.1e-05,0.0,0.0,0.0,0.0,0.0,0.0,8.1e-05,0.0,0.0,0.0,0.0,0.0,0.0,4.9e-05,0.0,0.0,0.0,0.0,0.0,0.0,0.0,0.0,0.0,0.0,0.0,0.0,0.0,0.0,0.0,0.0,0.0,0.0,0.0,0.0,0.0
1668536788344943562,207898,1668536788494605901,enu,0.004,0.0058,-0.0014,0.0,0.0,0.0,8.1e-05,0.0,0.0,0.0,0.0,0.0,0.0,8.1e-05,0.0,0.0,0.0,0.0,0.0,0.0,4.9e-05,0.0,0.0,0.0,0.0,0.0,0.0,0.0,0.0,0.0,0.0,0.0,0.0,0.0,0.0,0.0,0.0,0.0,0.0,0.0,0.0,0.0
1668536788354962311,207899,1668536788504666781,enu,0.0049,0.0058,-0.0015,0.0,0.0,0.0,8.1e-05,0.0,0.0,0.0,0.0,0.0,0.0,8.1e-05,0.0,0.0,0.0,0.0,0.0,0.0,4.9e-05,0.0,0.0,0.0,0.0,0.0,0.0,0.0,0.0,0.0,0.0,0.0,0.0,0.0,0.0,0.0,0.0,0.0,0.0,0.0,0.0,0.0
1668536788364723558,207900,1668536788514596013,enu,0.0042,0.0057,-0.0005,0.0,0.0,0.0,8.1e-05,0.0,0.0,0.0,0.0,0.0,0.0,8.1e-05,0.0,0.0,0.0,0.0,0.0,0.0,4.9e-05,0.0,0.0,0.0,0.0,0.0,0.0,0.0,0.0,0.0,0.0,0.0,0.0,0.0,0.0,0.0,0.0,0.0,0.0,0.0,0.0,0.0
1668536788375021163,207901,1668536788524591607,enu,0.0047,0.0059,-0.0012,0.0,0.0,0.0,8.1e-05,0.0,0.0,0.0,0.0,0.0,0.0,8.1e-05,0.0,0.0,0.0,0.0,0.0,0.0,4.9e-05,0.0,0.0,0.0,0.0,0.0,0.0,0.0,0.0,0.0,0.0,0.0,0.0,0.0,0.0,0.0,0.0,0.0,0.0,0.0,0.0,0.0
1668536788384606125,207902,1668536788534657109,enu,0.0048,0.0056,-0.0005,0.0,0.0,0.0,8.1e-05,0.0,0.0,0.0,0.0,0.0,0.0,8.1e-05,0.0,0.0,0.0,0.0,0.0,0.0,4.9e-05,0.0,0.0,0.0,0.0,0.0,0.0,0.0,0.0,0.0,0.0,0.0,0.0,0.0,0.0,0.0,0.0,0.0,0.0,0.0,0.0,0.0
1668536788394741781,207903,1668536788544567767,enu,0.0043,0.0056,-0.0007,0.0,0.0,0.0,8.1e-05,0.0,0.0,0.0,0.0,0.0,0.0,8.1e-05,0.0,0.0,0.0,0.0,0.0,0.0,4.9e-05,0.0,0.0,0.0,0.0,0.0,0.0,0.0,0.0,0.0,0.0,0.0,0.0,0.0,0.0,0.0,0.0,0.0,0.0,0.0,0.0,0.0
1668536788404912138,207904,1668536788554589920,enu,0.0053,0.006,-0.0012,0.0,0.0,0.0,8.1e-05,0.0,0.0,0.0,0.0,0.0,0.0,8.1e-05,0.0,0.0,0.0,0.0,0.0,0.0,4.9e-05,0.0,0.0,0.0,0.0,0.0,0.0,0.0,0.0,0.0,0.0,0.0,0.0,0.0,0.0,0.0,0.0,0.0,0.0,0.0,0.0,0.0
1668536788414657847,207905,1668536788564744990,enu,0.0046,0.0055,-0.0003,0.0,0.0,0.0,8.1e-05,0.0,0.0,0.0,0.0,0.0,0.0,8.1e-05,0.0,0.0,0.0,0.0,0.0,0.0,4.9e-05,0.0,0.0,0.0,0.0,0.0,0.0,0.0,0.0,0.0,0.0,0.0,0.0,0.0,0.0,0.0,0.0,0.0,0.0,0.0,0.0,0.0
1668536788424676151,207906,1668536788574650618,enu,0.0046,0.0061,-0.0013,0.0,0.0,0.0,8.1e-05,0.0,0.0,0.0,0.0,0.0,0.0,8.1e-05,0.0,0.0,0.0,0.0,0.0,0.0,4.9e-05,0.0,0.0,0.0,0.0,0.0,0.0,0.0,0.0,0.0,0.0,0.0,0.0,0.0,0.0,0.0,0.0,0.0,0.0,0.0,0.0,0.0
1668536788434547944,207907,1668536788584616419,enu,0.0049,0.0062,-0.0009,0.0,0.0,0.0,8.1e-05,0.0,0.0,0.0,0.0,0.0,0.0,8.1e-05,0.0,0.0,0.0,0.0,0.0,0.0,4.9e-05,0.0,0.0,0.0,0.0,0.0,0.0,0.0,0.0,0.0,0.0,0.0,0.0,0.0,0.0,0.0,0.0,0.0,0.0,0.0,0.0,0.0
1668536788444926718,207908,1668536788594692138,enu,0.0039,0.0062,-0.0007,0.0,0.0,0.0,8.1e-05,0.0,0.0,0.0,0.0,0.0,0.0,8.1e-05,0.0,0.0,0.0,0.0,0.0,0.0,4.9e-05,0.0,0.0,0.0,0.0,0.0,0.0,0.0,0.0,0.0,0.0,0.0,0.0,0.0,0.0,0.0,0.0,0.0,0.0,0.0,0.0,0.0
1668536788455038161,207909,1668536788604674615,enu,0.0043,0.0066,-0.0016,0.0,0.0,0.0,8.1e-05,0.0,0.0,0.0,0.0,0.0,0.0,8.1e-05,0.0,0.0,0.0,0.0,0.0,0.0,4.9e-05,0.0,0.0,0.0,0.0,0.0,0.0,0.0,0.0,0.0,0.0,0.0,0.0,0.0,0.0,0.0,0.0,0.0,0.0,0.0,0.0,0.0
1668536788464957263,207910,1668536788614686284,enu,0.0039,0.0065,-0.0009,0.0,0.0,0.0,8.1e-05,0.0,0.0,0.0,0.0,0.0,0.0,8.1e-05,0.0,0.0,0.0,0.0,0.0,0.0,4.9e-05,0.0,0.0,0.0,0.0,0.0,0.0,0.0,0.0,0.0,0.0,0.0,0.0,0.0,0.0,0.0,0.0,0.0,0.0,0.0,0.0,0.0
1668536788474893448,207911,1668536788624656463,enu,0.0035,0.007,-0.0016,0.0,0.0,0.0,8.1e-05,0.0,0.0,0.0,0.0,0.0,0.0,8.1e-05,0.0,0.0,0.0,0.0,0.0,0.0,4.9e-05,0.0,0.0,0.0,0.0,0.0,0.0,0.0,0.0,0.0,0.0,0.0,0.0,0.0,0.0,0.0,0.0,0.0,0.0,0.0,0.0,0.0
1668536788484881154,207912,1668536788634616292,enu,0.0042,0.007,-0.0012,0.0,0.0,0.0,8.1e-05,0.0,0.0,0.0,0.0,0.0,0.0,8.1e-05,0.0,0.0,0.0,0.0,0.0,0.0,4.9e-05,0.0,0.0,0.0,0.0,0.0,0.0,0.0,0.0,0.0,0.0,0.0,0.0,0.0,0.0,0.0,0.0,0.0,0.0,0.0,0.0,0.0
1668536788494996366,207913,1668536788644635585,enu,0.0037,0.0067,-0.0007,0.0,0.0,0.0,8.1e-05,0.0,0.0,0.0,0.0,0.0,0.0,8.1e-05,0.0,0.0,0.0,0.0,0.0,0.0,4.9e-05,0.0,0.0,0.0,0.0,0.0,0.0,0.0,0.0,0.0,0.0,0.0,0.0,0.0,0.0,0.0,0.0,0.0,0.0,0.0,0.0,0.0
1668536788504719561,207914,1668536788654720362,enu,0.0041,0.0074,-0.0019,0.0,0.0,0.0,8.1e-05,0.0,0.0,0.0,0.0,0.0,0.0,8.1e-05,0.0,0.0,0.0,0.0,0.0,0.0,4.9e-05,0.0,0.0,0.0,0.0,0.0,0.0,0.0,0.0,0.0,0.0,0.0,0.0,0.0,0.0,0.0,0.0,0.0,0.0,0.0,0.0,0.0
1668536788514648042,207915,1668536788664578579,enu,0.0044,0.0069,-0.001,0.0,0.0,0.0,8.1e-05,0.0,0.0,0.0,0.0,0.0,0.0,8.1e-05,0.0,0.0,0.0,0.0,0.0,0.0,4.9e-05,0.0,0.0,0.0,0.0,0.0,0.0,0.0,0.0,0.0,0.0,0.0,0.0,0.0,0.0,0.0,0.0,0.0,0.0,0.0,0.0,0.0
1668536788524826260,207916,1668536788674622810,enu,0.0037,0.0069,-0.0013,0.0,0.0,0.0,8.1e-05,0.0,0.0,0.0,0.0,0.0,0.0,8.1e-05,0.0,0.0,0.0,0.0,0.0,0.0,4.9e-05,0.0,0.0,0.0,0.0,0.0,0.0,0.0,0.0,0.0,0.0,0.0,0.0,0.0,0.0,0.0,0.0,0.0,0.0,0.0,0.0,0.0
1668536788534841574,207917,1668536788684684101,enu,0.0046,0.0072,-0.0016,0.0,0.0,0.0,8.1e-05,0.0,0.0,0.0,0.0,0.0,0.0,8.1e-05,0.0,0.0,0.0,0.0,0.0,0.0,4.9e-05,0.0,0.0,0.0,0.0,0.0,0.0,0.0,0.0,0.0,0.0,0.0,0.0,0.0,0.0,0.0,0.0,0.0,0.0,0.0,0.0,0.0
1668536788544570253,207918,1668536788694609416,enu,0.0038,0.0067,-0.0007,0.0,0.0,0.0,8.1e-05,0.0,0.0,0.0,0.0,0.0,0.0,8.1e-05,0.0,0.0,0.0,0.0,0.0,0.0,4.9e-05,0.0,0.0,0.0,0.0,0.0,0.0,0.0,0.0,0.0,0.0,0.0,0.0,0.0,0.0,0.0,0.0,0.0,0.0,0.0,0.0,0.0
1668536788554572930,207919,1668536788704598926,enu,0.0038,0.0069,-0.0017,0.0,0.0,0.0,8.1e-05,0.0,0.0,0.0,0.0,0.0,0.0,8.1e-05,0.0,0.0,0.0,0.0,0.0,0.0,4.9e-05,0.0,0.0,0.0,0.0,0.0,0.0,0.0,0.0,0.0,0.0,0.0,0.0,0.0,0.0,0.0,0.0,0.0,0.0,0.0,0.0,0.0
1668536788565134911,207920,1668536788714654987,enu,0.0043,0.0066,-0.0013,0.0,0.0,0.0,8.1e-05,0.0,0.0,0.0,0.0,0.0,0.0,8.1e-05,0.0,0.0,0.0,0.0,0.0,0.0,4.9e-05,0.0,0.0,0.0,0.0,0.0,0.0,0.0,0.0,0.0,0.0,0.0,0.0,0.0,0.0,0.0,0.0,0.0,0.0,0.0,0.0,0.0
1668536788574965126,207921,1668536788724577572,enu,0.0033,0.0065,-0.0011,0.0,0.0,0.0,8.1e-05,0.0,0.0,0.0,0.0,0.0,0.0,8.1e-05,0.0,0.0,0.0,0.0,0.0,0.0,4.9e-05,0.0,0.0,0.0,0.0,0.0,0.0,0.0,0.0,0.0,0.0,0.0,0.0,0.0,0.0,0.0,0.0,0.0,0.0,0.0,0.0,0.0
1668536788584598225,207922,1668536788734650261,enu,0.004,0.0065,-0.0015,0.0,0.0,0.0,8.1e-05,0.0,0.0,0.0,0.0,0.0,0.0,8.1e-05,0.0,0.0,0.0,0.0,0.0,0.0,4.9e-05,0.0,0.0,0.0,0.0,0.0,0.0,0.0,0.0,0.0,0.0,0.0,0.0,0.0,0.0,0.0,0.0,0.0,0.0,0.0,0.0,0.0
1668536788594918043,207923,1668536788744595455,enu,0.0037,0.0059,-0.0008,0.0,0.0,0.0,8.1e-05,0.0,0.0,0.0,0.0,0.0,0.0,8.1e-05,0.0,0.0,0.0,0.0,0.0,0.0,4.9e-05,0.0,0.0,0.0,0.0,0.0,0.0,0.0,0.0,0.0,0.0,0.0,0.0,0.0,0.0,0.0,0.0,0.0,0.0,0.0,0.0,0.0
1668536788604697575,207924,1668536788754611282,enu,0.0035,0.0062,-0.0017,0.0,0.0,0.0,8.1e-05,0.0,0.0,0.0,0.0,0.0,0.0,8.1e-05,0.0,0.0,0.0,0.0,0.0,0.0,4.9e-05,0.0,0.0,0.0,0.0,0.0,0.0,0.0,0.0,0.0,0.0,0.0,0.0,0.0,0.0,0.0,0.0,0.0,0.0,0.0,0.0,0.0
1668536788615187953,207925,1668536788764668217,enu,0.0042,0.0062,-0.0015,0.0,0.0,0.0,8.1e-05,0.0,0.0,0.0,0.0,0.0,0.0,8.1e-05,0.0,0.0,0.0,0.0,0.0,0.0,4.9e-05,0.0,0.0,0.0,0.0,0.0,0.0,0.0,0.0,0.0,0.0,0.0,0.0,0.0,0.0,0.0,0.0,0.0,0.0,0.0,0.0,0.0
1668536788625222034,207926,1668536788774671633,enu,0.0035,0.0058,-0.0009,0.0,0.0,0.0,8.1e-05,0.0,0.0,0.0,0.0,0.0,0.0,8.1e-05,0.0,0.0,0.0,0.0,0.0,0.0,4.9e-05,0.0,0.0,0.0,0.0,0.0,0.0,0.0,0.0,0.0,0.0,0.0,0.0,0.0,0.0,0.0,0.0,0.0,0.0,0.0,0.0,0.0
1668536788634815281,207927,1668536788784584097,enu,0.0039,0.0063,-0.0017,0.0,0.0,0.0,8.1e-05,0.0,0.0,0.0,0.0,0.0,0.0,8.1e-05,0.0,0.0,0.0,0.0,0.0,0.0,4.9e-05,0.0,0.0,0.0,0.0,0.0,0.0,0.0,0.0,0.0,0.0,0.0,0.0,0.0,0.0,0.0,0.0,0.0,0.0,0.0,0.0,0.0
1668536788644697001,207928,1668536788794598687,enu,0.0039,0.0059,-0.0009,0.0,0.0,0.0,8.1e-05,0.0,0.0,0.0,0.0,0.0,0.0,8.1e-05,0.0,0.0,0.0,0.0,0.0,0.0,4.9e-05,0.0,0.0,0.0,0.0,0.0,0.0,0.0,0.0,0.0,0.0,0.0,0.0,0.0,0.0,0.0,0.0,0.0,0.0,0.0,0.0,0.0
1668536788654876364,207929,1668536788804650006,enu,0.0031,0.0061,-0.0014,0.0,0.0,0.0,8.1e-05,0.0,0.0,0.0,0.0,0.0,0.0,8.1e-05,0.0,0.0,0.0,0.0,0.0,0.0,4.9e-05,0.0,0.0,0.0,0.0,0.0,0.0,0.0,0.0,0.0,0.0,0.0,0.0,0.0,0.0,0.0,0.0,0.0,0.0,0.0,0.0,0.0
1668536788665248396,207930,1668536788814590481,enu,0.0038,0.0061,-0.0017,0.0,0.0,0.0,8.1e-05,0.0,0.0,0.0,0.0,0.0,0.0,8.1e-05,0.0,0.0,0.0,0.0,0.0,0.0,4.9e-05,0.0,0.0,0.0,0.0,0.0,0.0,0.0,0.0,0.0,0.0,0.0,0.0,0.0,0.0,0.0,0.0,0.0,0.0,0.0,0.0,0.0
1668536788674997071,207931,1668536788824622262,enu,0.0031,0.0062,-0.0009,0.0,0.0,0.0,8.1e-05,0.0,0.0,0.0,0.0,0.0,0.0,8.1e-05,0.0,0.0,0.0,0.0,0.0,0.0,4.9e-05,0.0,0.0,0.0,0.0,0.0,0.0,0.0,0.0,0.0,0.0,0.0,0.0,0.0,0.0,0.0,0.0,0.0,0.0,0.0,0.0,0.0
1668536788684888235,207932,1668536788834661991,enu,0.0034,0.0066,-0.0015,0.0,0.0,0.0,8.1e-05,0.0,0.0,0.0,0.0,0.0,0.0,8.1e-05,0.0,0.0,0.0,0.0,0.0,0.0,4.9e-05,0.0,0.0,0.0,0.0,0.0,0.0,0.0,0.0,0.0,0.0,0.0,0.0,0.0,0.0,0.0,0.0,0.0,0.0,0.0,0.0,0.0
1668536788694634936,207933,1668536788844613129,enu,0.0038,0.0063,-0.0009,0.0,0.0,0.0,8.1e-05,0.0,0.0,0.0,0.0,0.0,0.0,8.1e-05,0.0,0.0,0.0,0.0,0.0,0.0,4.9e-05,0.0,0.0,0.0,0.0,0.0,0.0,0.0,0.0,0.0,0.0,0.0,0.0,0.0,0.0,0.0,0.0,0.0,0.0,0.0,0.0,0.0
1668536788705094854,207934,1668536788854647786,enu,0.0032,0.0066,-0.0011,0.0,0.0,0.0,8.1e-05,0.0,0.0,0.0,0.0,0.0,0.0,8.1e-05,0.0,0.0,0.0,0.0,0.0,0.0,4.9e-05,0.0,0.0,0.0,0.0,0.0,0.0,0.0,0.0,0.0,0.0,0.0,0.0,0.0,0.0,0.0,0.0,0.0,0.0,0.0,0.0,0.0
1668536788714662464,207935,1668536788864601319,enu,0.0041,0.007,-0.0016,0.0,0.0,0.0,8.1e-05,0.0,0.0,0.0,0.0,0.0,0.0,8.1e-05,0.0,0.0,0.0,0.0,0.0,0.0,4.9e-05,0.0,0.0,0.0,0.0,0.0,0.0,0.0,0.0,0.0,0.0,0.0,0.0,0.0,0.0,0.0,0.0,0.0,0.0,0.0,0.0,0.0
1668536788724947437,207936,1668536788874598115,enu,0.0035,0.0066,-0.0008,0.0,0.0,0.0,8.1e-05,0.0,0.0,0.0,0.0,0.0,0.0,8.1e-05,0.0,0.0,0.0,0.0,0.0,0.0,4.9e-05,0.0,0.0,0.0,0.0,0.0,0.0,0.0,0.0,0.0,0.0,0.0,0.0,0.0,0.0,0.0,0.0,0.0,0.0,0.0,0.0,0.0
1668536788735153704,207937,1668536788884605392,enu,0.0033,0.007,-0.0018,0.0,0.0,0.0,8.1e-05,0.0,0.0,0.0,0.0,0.0,0.0,8.1e-05,0.0,0.0,0.0,0.0,0.0,0.0,4.9e-05,0.0,0.0,0.0,0.0,0.0,0.0,0.0,0.0,0.0,0.0,0.0,0.0,0.0,0.0,0.0,0.0,0.0,0.0,0.0,0.0,0.0
1668536788744797540,207938,1668536788894657479,enu,0.0036,0.007,-0.0015,0.0,0.0,0.0,8.1e-05,0.0,0.0,0.0,0.0,0.0,0.0,8.1e-05,0.0,0.0,0.0,0.0,0.0,0.0,4.9e-05,0.0,0.0,0.0,0.0,0.0,0.0,0.0,0.0,0.0,0.0,0.0,0.0,0.0,0.0,0.0,0.0,0.0,0.0,0.0,0.0,0.0
1668536788754982226,207939,1668536788904683864,enu,0.0025,0.0071,-0.0012,0.0,0.0,0.0,8.1e-05,0.0,0.0,0.0,0.0,0.0,0.0,8.1e-05,0.0,0.0,0.0,0.0,0.0,0.0,4.9e-05,0.0,0.0,0.0,0.0,0.0,0.0,0.0,0.0,0.0,0.0,0.0,0.0,0.0,0.0,0.0,0.0,0.0,0.0,0.0,0.0,0.0
1668536788764723661,207940,1668536788914590423,enu,0.0026,0.0072,-0.0019,0.0,0.0,0.0,8.1e-05,0.0,0.0,0.0,0.0,0.0,0.0,8.1e-05,0.0,0.0,0.0,0.0,0.0,0.0,4.9e-05,0.0,0.0,0.0,0.0,0.0,0.0,0.0,0.0,0.0,0.0,0.0,0.0,0.0,0.0,0.0,0.0,0.0,0.0,0.0,0.0,0.0
1668536788775077066,207941,1668536788924670492,enu,0.002,0.0071,-0.0012,0.0,0.0,0.0,8.1e-05,0.0,0.0,0.0,0.0,0.0,0.0,8.1e-05,0.0,0.0,0.0,0.0,0.0,0.0,4.9e-05,0.0,0.0,0.0,0.0,0.0,0.0,0.0,0.0,0.0,0.0,0.0,0.0,0.0,0.0,0.0,0.0,0.0,0.0,0.0,0.0,0.0
1668536788784759916,207942,1668536788934573562,enu,0.0011,0.0075,-0.0018,0.0,0.0,0.0,8.1e-05,0.0,0.0,0.0,0.0,0.0,0.0,8.1e-05,0.0,0.0,0.0,0.0,0.0,0.0,4.9e-05,0.0,0.0,0.0,0.0,0.0,0.0,0.0,0.0,0.0,0.0,0.0,0.0,0.0,0.0,0.0,0.0,0.0,0.0,0.0,0.0,0.0
1668536788795057246,207943,1668536788944582911,enu,0.0011,0.0073,-0.0015,0.0,0.0,0.0,8.1e-05,0.0,0.0,0.0,0.0,0.0,0.0,8.1e-05,0.0,0.0,0.0,0.0,0.0,0.0,4.9e-05,0.0,0.0,0.0,0.0,0.0,0.0,0.0,0.0,0.0,0.0,0.0,0.0,0.0,0.0,0.0,0.0,0.0,0.0,0.0,0.0,0.0
1668536788804914927,207944,1668536788954667647,enu,-0.0003,0.0072,-0.0012,0.0,0.0,0.0,8.1e-05,0.0,0.0,0.0,0.0,0.0,0.0,8.1e-05,0.0,0.0,0.0,0.0,0.0,0.0,4.9e-05,0.0,0.0,0.0,0.0,0.0,0.0,0.0,0.0,0.0,0.0,0.0,0.0,0.0,0.0,0.0,0.0,0.0,0.0,0.0,0.0,0.0
1668536788814619126,207945,1668536788964599412,enu,-0.0008,0.0078,-0.0023,0.0,0.0,0.0,8.1e-05,0.0,0.0,0.0,0.0,0.0,0.0,8.1e-05,0.0,0.0,0.0,0.0,0.0,0.0,4.9e-05,0.0,0.0,0.0,0.0,0.0,0.0,0.0,0.0,0.0,0.0,0.0,0.0,0.0,0.0,0.0,0.0,0.0,0.0,0.0,0.0,0.0
1668536788825259651,207946,1668536788974656842,enu,-0.0014,0.0073,-0.0016,0.0,0.0,0.0,8.1e-05,0.0,0.0,0.0,0.0,0.0,0.0,8.1e-05,0.0,0.0,0.0,0.0,0.0,0.0,4.9e-05,0.0,0.0,0.0,0.0,0.0,0.0,0.0,0.0,0.0,0.0,0.0,0.0,0.0,0.0,0.0,0.0,0.0,0.0,0.0,0.0,0.0
1668536788834732171,207947,1668536788984594085,enu,-0.003,0.0075,-0.002,0.0,0.0,0.0,8.1e-05,0.0,0.0,0.0,0.0,0.0,0.0,8.1e-05,0.0,0.0,0.0,0.0,0.0,0.0,4.9e-05,0.0,0.0,0.0,0.0,0.0,0.0,0.0,0.0,0.0,0.0,0.0,0.0,0.0,0.0,0.0,0.0,0.0,0.0,0.0,0.0,0.0
1668536788845325658,207948,1668536788994588293,enu,-0.0033,0.0076,-0.0022,0.0,0.0,0.0,8.1e-05,0.0,0.0,0.0,0.0,0.0,0.0,8.1e-05,0.0,0.0,0.0,0.0,0.0,0.0,4.9e-05,0.0,0.0,0.0,0.0,0.0,0.0,0.0,0.0,0.0,0.0,0.0,0.0,0.0,0.0,0.0,0.0,0.0,0.0,0.0,0.0,0.0
1668536788854599143,207949,1668536789004616892,enu,-0.0049,0.0073,-0.0014,0.0,0.0,0.0,8.1e-05,0.0,0.0,0.0,0.0,0.0,0.0,8.1e-05,0.0,0.0,0.0,0.0,0.0,0.0,4.9e-05,0.0,0.0,0.0,0.0,0.0,0.0,0.0,0.0,0.0,0.0,0.0,0.0,0.0,0.0,0.0,0.0,0.0,0.0,0.0,0.0,0.0
1668536788865225139,207950,1668536789014657686,enu,-0.0059,0.0075,-0.0025,0.0,0.0,0.0,8.1e-05,0.0,0.0,0.0,0.0,0.0,0.0,8.1e-05,0.0,0.0,0.0,0.0,0.0,0.0,4.9e-05,0.0,0.0,0.0,0.0,0.0,0.0,0.0,0.0,0.0,0.0,0.0,0.0,0.0,0.0,0.0,0.0,0.0,0.0,0.0,0.0,0.0
1668536788875024277,207951,1668536789024604972,enu,-0.0065,0.0073,-0.0019,0.0,0.0,0.0,8.1e-05,0.0,0.0,0.0,0.0,0.0,0.0,8.1e-05,0.0,0.0,0.0,0.0,0.0,0.0,4.9e-05,0.0,0.0,0.0,0.0,0.0,0.0,0.0,0.0,0.0,0.0,0.0,0.0,0.0,0.0,0.0,0.0,0.0,0.0,0.0,0.0,0.0
1668536788884755817,207952,1668536789034608124,enu,-0.0084,0.0074,-0.0019,0.0,0.0,0.0,8.1e-05,0.0,0.0,0.0,0.0,0.0,0.0,8.1e-05,0.0,0.0,0.0,0.0,0.0,0.0,4.9e-05,0.0,0.0,0.0,0.0,0.0,0.0,0.0,0.0,0.0,0.0,0.0,0.0,0.0,0.0,0.0,0.0,0.0,0.0,0.0,0.0,0.0
1668536788894901705,207953,1668536789044664088,enu,-0.0087,0.0075,-0.0022,0.0,0.0,0.0,8.1e-05,0.0,0.0,0.0,0.0,0.0,0.0,8.1e-05,0.0,0.0,0.0,0.0,0.0,0.0,4.9e-05,0.0,0.0,0.0,0.0,0.0,0.0,0.0,0.0,0.0,0.0,0.0,0.0,0.0,0.0,0.0,0.0,0.0,0.0,0.0,0.0,0.0
1668536788904814810,207954,1668536789054604948,enu,-0.0101,0.0069,-0.0014,0.0,0.0,0.0,8.1e-05,0.0,0.0,0.0,0.0,0.0,0.0,8.1e-05,0.0,0.0,0.0,0.0,0.0,0.0,4.9e-05,0.0,0.0,0.0,0.0,0.0,0.0,0.0,0.0,0.0,0.0,0.0,0.0,0.0,0.0,0.0,0.0,0.0,0.0,0.0,0.0,0.0
1668536788914740193,207955,1668536789064613909,enu,-0.0112,0.0074,-0.0024,0.0,0.0,0.0,8.1e-05,0.0,0.0,0.0,0.0,0.0,0.0,8.1e-05,0.0,0.0,0.0,0.0,0.0,0.0,4.9e-05,0.0,0.0,0.0,0.0,0.0,0.0,0.0,0.0,0.0,0.0,0.0,0.0,0.0,0.0,0.0,0.0,0.0,0.0,0.0,0.0,0.0
1668536788924916085,207956,1668536789074719994,enu,-0.0115,0.0073,-0.002,0.0,0.0,0.0,8.1e-05,0.0,0.0,0.0,0.0,0.0,0.0,8.1e-05,0.0,0.0,0.0,0.0,0.0,0.0,4.9e-05,0.0,0.0,0.0,0.0,0.0,0.0,0.0,0.0,0.0,0.0,0.0,0.0,0.0,0.0,0.0,0.0,0.0,0.0,0.0,0.0,0.0
1668536788934954086,207957,1668536789084711560,enu,-0.0134,0.0069,-0.0016,0.0,0.0,0.0,8.1e-05,0.0,0.0,0.0,0.0,0.0,0.0,8.1e-05,0.0,0.0,0.0,0.0,0.0,0.0,4.9e-05,0.0,0.0,0.0,0.0,0.0,0.0,0.0,0.0,0.0,0.0,0.0,0.0,0.0,0.0,0.0,0.0,0.0,0.0,0.0,0.0,0.0
1668536788944878018,207958,1668536789094621508,enu,-0.0136,0.0075,-0.0022,0.0,0.0,0.0,8.1e-05,0.0,0.0,0.0,0.0,0.0,0.0,8.1e-05,0.0,0.0,0.0,0.0,0.0,0.0,4.9e-05,0.0,0.0,0.0,0.0,0.0,0.0,0.0,0.0,0.0,0.0,0.0,0.0,0.0,0.0,0.0,0.0,0.0,0.0,0.0,0.0,0.0
1668536788954835471,207959,1668536789104711628,enu,-0.0149,0.0069,-0.0014,0.0,0.0,0.0,8.1e-05,0.0,0.0,0.0,0.0,0.0,0.0,8.1e-05,0.0,0.0,0.0,0.0,0.0,0.0,4.9e-05,0.0,0.0,0.0,0.0,0.0,0.0,0.0,0.0,0.0,0.0,0.0,0.0,0.0,0.0,0.0,0.0,0.0,0.0,0.0,0.0,0.0
1668536788965075529,207960,1668536789114667067,enu,-0.0168,0.0071,-0.0021,0.0,0.0,0.0,8.1e-05,0.0,0.0,0.0,0.0,0.0,0.0,8.1e-05,0.0,0.0,0.0,0.0,0.0,0.0,4.9e-05,0.0,0.0,0.0,0.0,0.0,0.0,0.0,0.0,0.0,0.0,0.0,0.0,0.0,0.0,0.0,0.0,0.0,0.0,0.0,0.0,0.0
1668536788974540244,207961,1668536789124663123,enu,-0.0171,0.0069,-0.002,0.0,0.0,0.0,8.1e-05,0.0,0.0,0.0,0.0,0.0,0.0,8.1e-05,0.0,0.0,0.0,0.0,0.0,0.0,4.9e-05,0.0,0.0,0.0,0.0,0.0,0.0,0.0,0.0,0.0,0.0,0.0,0.0,0.0,0.0,0.0,0.0,0.0,0.0,0.0,0.0,0.0
1668536788985012525,207962,1668536789134664328,enu,-0.0192,0.0066,-0.0015,0.0,0.0,0.0,8.1e-05,0.0,0.0,0.0,0.0,0.0,0.0,8.1e-05,0.0,0.0,0.0,0.0,0.0,0.0,4.9e-05,0.0,0.0,0.0,0.0,0.0,0.0,0.0,0.0,0.0,0.0,0.0,0.0,0.0,0.0,0.0,0.0,0.0,0.0,0.0,0.0,0.0
1668536788994813645,207963,1668536789144707870,enu,-0.02,0.0073,-0.0023,0.0,0.0,0.0,8.1e-05,0.0,0.0,0.0,0.0,0.0,0.0,8.1e-05,0.0,0.0,0.0,0.0,0.0,0.0,4.9e-05,0.0,0.0,0.0,0.0,0.0,0.0,0.0,0.0,0.0,0.0,0.0,0.0,0.0,0.0,0.0,0.0,0.0,0.0,0.0,0.0,0.0
1668536789004917799,207964,1668536789154764754,enu,-0.0211,0.0064,-0.0015,0.0,0.0,0.0,8.1e-05,0.0,0.0,0.0,0.0,0.0,0.0,8.1e-05,0.0,0.0,0.0,0.0,0.0,0.0,4.9e-05,0.0,0.0,0.0,0.0,0.0,0.0,0.0,0.0,0.0,0.0,0.0,0.0,0.0,0.0,0.0,0.0,0.0,0.0,0.0,0.0,0.0
1668536789014982849,207965,1668536789164672835,enu,-0.0232,0.0068,-0.0022,0.0,0.0,0.0,8.1e-05,0.0,0.0,0.0,0.0,0.0,0.0,8.1e-05,0.0,0.0,0.0,0.0,0.0,0.0,4.9e-05,0.0,0.0,0.0,0.0,0.0,0.0,0.0,0.0,0.0,0.0,0.0,0.0,0.0,0.0,0.0,0.0,0.0,0.0,0.0,0.0,0.0
1668536789024628510,207966,1668536789174611622,enu,-0.024,0.0069,-0.0026,0.0,0.0,0.0,8.1e-05,0.0,0.0,0.0,0.0,0.0,0.0,8.1e-05,0.0,0.0,0.0,0.0,0.0,0.0,4.9e-05,0.0,0.0,0.0,0.0,0.0,0.0,0.0,0.0,0.0,0.0,0.0,0.0,0.0,0.0,0.0,0.0,0.0,0.0,0.0,0.0,0.0
1668536789035052072,207967,1668536789184602888,enu,-0.0263,0.0062,-0.0021,0.0,0.0,0.0,8.1e-05,0.0,0.0,0.0,0.0,0.0,0.0,8.1e-05,0.0,0.0,0.0,0.0,0.0,0.0,4.9e-05,0.0,0.0,0.0,0.0,0.0,0.0,0.0,0.0,0.0,0.0,0.0,0.0,0.0,0.0,0.0,0.0,0.0,0.0,0.0,0.0,0.0
1668536789044807239,207968,1668536789194683192,enu,-0.0279,0.0069,-0.0031,0.0,0.0,0.0,8.1e-05,0.0,0.0,0.0,0.0,0.0,0.0,8.1e-05,0.0,0.0,0.0,0.0,0.0,0.0,4.9e-05,0.0,0.0,0.0,0.0,0.0,0.0,0.0,0.0,0.0,0.0,0.0,0.0,0.0,0.0,0.0,0.0,0.0,0.0,0.0,0.0,0.0
1668536789054885804,207969,1668536789204621745,enu,-0.0292,0.0065,-0.0027,0.0,0.0,0.0,8.1e-05,0.0,0.0,0.0,0.0,0.0,0.0,8.1e-05,0.0,0.0,0.0,0.0,0.0,0.0,4.9e-05,0.0,0.0,0.0,0.0,0.0,0.0,0.0,0.0,0.0,0.0,0.0,0.0,0.0,0.0,0.0,0.0,0.0,0.0,0.0,0.0,0.0
1668536789064827522,207970,1668536789214595958,enu,-0.0315,0.0065,-0.0028,0.0,0.0,0.0,8.1e-05,0.0,0.0,0.0,0.0,0.0,0.0,8.1e-05,0.0,0.0,0.0,0.0,0.0,0.0,4.9e-05,0.0,0.0,0.0,0.0,0.0,0.0,0.0,0.0,0.0,0.0,0.0,0.0,0.0,0.0,0.0,0.0,0.0,0.0,0.0,0.0,0.0
1668536789075045433,207971,1668536789224663623,enu,-0.0327,0.0068,-0.0033,0.0,0.0,0.0,8.1e-05,0.0,0.0,0.0,0.0,0.0,0.0,8.1e-05,0.0,0.0,0.0,0.0,0.0,0.0,4.9e-05,0.0,0.0,0.0,0.0,0.0,0.0,0.0,0.0,0.0,0.0,0.0,0.0,0.0,0.0,0.0,0.0,0.0,0.0,0.0,0.0,0.0
1668536789084802721,207972,1668536789234587284,enu,-0.0345,0.0062,-0.0025,0.0,0.0,0.0,8.1e-05,0.0,0.0,0.0,0.0,0.0,0.0,8.1e-05,0.0,0.0,0.0,0.0,0.0,0.0,4.9e-05,0.0,0.0,0.0,0.0,0.0,0.0,0.0,0.0,0.0,0.0,0.0,0.0,0.0,0.0,0.0,0.0,0.0,0.0,0.0,0.0,0.0
1668536789095071750,207973,1668536789244671523,enu,-0.0366,0.007,-0.0033,0.0,0.0,0.0,8.1e-05,0.0,0.0,0.0,0.0,0.0,0.0,8.1e-05,0.0,0.0,0.0,0.0,0.0,0.0,4.9e-05,0.0,0.0,0.0,0.0,0.0,0.0,0.0,0.0,0.0,0.0,0.0,0.0,0.0,0.0,0.0,0.0,0.0,0.0,0.0,0.0,0.0
1668536789104588221,207974,1668536789254624401,enu,-0.0375,0.0065,-0.0027,0.0,0.0,0.0,8.1e-05,0.0,0.0,0.0,0.0,0.0,0.0,8.1e-05,0.0,0.0,0.0,0.0,0.0,0.0,4.9e-05,0.0,0.0,0.0,0.0,0.0,0.0,0.0,0.0,0.0,0.0,0.0,0.0,0.0,0.0,0.0,0.0,0.0,0.0,0.0,0.0,0.0
1668536789115035019,207975,1668536789264617955,enu,-0.0404,0.0064,-0.0025,0.0,0.0,0.0,8.1e-05,0.0,0.0,0.0,0.0,0.0,0.0,8.1e-05,0.0,0.0,0.0,0.0,0.0,0.0,4.9e-05,0.0,0.0,0.0,0.0,0.0,0.0,0.0,0.0,0.0,0.0,0.0,0.0,0.0,0.0,0.0,0.0,0.0,0.0,0.0,0.0,0.0
1668536789124590339,207976,1668536789274663842,enu,-0.0419,0.0072,-0.0033,0.0,0.0,0.0,8.1e-05,0.0,0.0,0.0,0.0,0.0,0.0,8.1e-05,0.0,0.0,0.0,0.0,0.0,0.0,4.9e-05,0.0,0.0,0.0,0.0,0.0,0.0,0.0,0.0,0.0,0.0,0.0,0.0,0.0,0.0,0.0,0.0,0.0,0.0,0.0,0.0,0.0
1668536789134632448,207977,1668536789284613470,enu,-0.0442,0.0067,-0.0025,0.0,0.0,0.0,8.1e-05,0.0,0.0,0.0,0.0,0.0,0.0,8.1e-05,0.0,0.0,0.0,0.0,0.0,0.0,4.9e-05,0.0,0.0,0.0,0.0,0.0,0.0,0.0,0.0,0.0,0.0,0.0,0.0,0.0,0.0,0.0,0.0,0.0,0.0,0.0,0.0,0.0
1668536789144724878,207978,1668536789294609782,enu,-0.0475,0.0069,-0.0032,0.0,0.0,0.0,8.1e-05,0.0,0.0,0.0,0.0,0.0,0.0,8.1e-05,0.0,0.0,0.0,0.0,0.0,0.0,4.9e-05,0.0,0.0,0.0,0.0,0.0,0.0,0.0,0.0,0.0,0.0,0.0,0.0,0.0,0.0,0.0,0.0,0.0,0.0,0.0,0.0,0.0
1668536789154729896,207979,1668536789304671175,enu,-0.0491,0.0073,-0.0033,0.0,0.0,0.0,8.1e-05,0.0,0.0,0.0,0.0,0.0,0.0,8.1e-05,0.0,0.0,0.0,0.0,0.0,0.0,4.9e-05,0.0,0.0,0.0,0.0,0.0,0.0,0.0,0.0,0.0,0.0,0.0,0.0,0.0,0.0,0.0,0.0,0.0,0.0,0.0,0.0,0.0
1668536789165011270,207980,1668536789314612800,enu,-0.0523,0.0067,-0.0026,0.0,0.0,0.0,8.1e-05,0.0,0.0,0.0,0.0,0.0,0.0,8.1e-05,0.0,0.0,0.0,0.0,0.0,0.0,4.9e-05,0.0,0.0,0.0,0.0,0.0,0.0,0.0,0.0,0.0,0.0,0.0,0.0,0.0,0.0,0.0,0.0,0.0,0.0,0.0,0.0,0.0
1668536789174972677,207981,1668536789324631514,enu,-0.0554,0.007,-0.004,0.0,0.0,0.0,8.1e-05,0.0,0.0,0.0,0.0,0.0,0.0,8.1e-05,0.0,0.0,0.0,0.0,0.0,0.0,4.9e-05,0.0,0.0,0.0,0.0,0.0,0.0,0.0,0.0,0.0,0.0,0.0,0.0,0.0,0.0,0.0,0.0,0.0,0.0,0.0,0.0,0.0
1668536789184957939,207982,1668536789334614236,enu,-0.0587,0.0071,-0.0037,0.0,0.0,0.0,8.1e-05,0.0,0.0,0.0,0.0,0.0,0.0,8.1e-05,0.0,0.0,0.0,0.0,0.0,0.0,4.9e-05,0.0,0.0,0.0,0.0,0.0,0.0,0.0,0.0,0.0,0.0,0.0,0.0,0.0,0.0,0.0,0.0,0.0,0.0,0.0,0.0,0.0
1668536789195031143,207983,1668536789344661728,enu,-0.0627,0.0071,-0.004,0.0,0.0,0.0,8.1e-05,0.0,0.0,0.0,0.0,0.0,0.0,8.1e-05,0.0,0.0,0.0,0.0,0.0,0.0,4.9e-05,0.0,0.0,0.0,0.0,0.0,0.0,0.0,0.0,0.0,0.0,0.0,0.0,0.0,0.0,0.0,0.0,0.0,0.0,0.0,0.0,0.0
1668536789204602120,207984,1668536789354614518,enu,-0.0656,0.0074,-0.0044,0.0,0.0,0.0,8.1e-05,0.0,0.0,0.0,0.0,0.0,0.0,8.1e-05,0.0,0.0,0.0,0.0,0.0,0.0,4.9e-05,0.0,0.0,0.0,0.0,0.0,0.0,0.0,0.0,0.0,0.0,0.0,0.0,0.0,0.0,0.0,0.0,0.0,0.0,0.0,0.0,0.0
1668536789215025991,207985,1668536789364658836,enu,-0.0694,0.0066,-0.0039,0.0,0.0,0.0,8.1e-05,0.0,0.0,0.0,0.0,0.0,0.0,8.1e-05,0.0,0.0,0.0,0.0,0.0,0.0,4.9e-05,0.0,0.0,0.0,0.0,0.0,0.0,0.0,0.0,0.0,0.0,0.0,0.0,0.0,0.0,0.0,0.0,0.0,0.0,0.0,0.0,0.0
1668536789224785701,207986,1668536789374604631,enu,-0.0732,0.0073,-0.0052,0.0,0.0,0.0,8.1e-05,0.0,0.0,0.0,0.0,0.0,0.0,8.1e-05,0.0,0.0,0.0,0.0,0.0,0.0,4.9e-05,0.0,0.0,0.0,0.0,0.0,0.0,0.0,0.0,0.0,0.0,0.0,0.0,0.0,0.0,0.0,0.0,0.0,0.0,0.0,0.0,0.0
1668536789234623823,207987,1668536789384603873,enu,-0.0769,0.0069,-0.0048,0.0,0.0,0.0,8.1e-05,0.0,0.0,0.0,0.0,0.0,0.0,8.1e-05,0.0,0.0,0.0,0.0,0.0,0.0,4.9e-05,0.0,0.0,0.0,0.0,0.0,0.0,0.0,0.0,0.0,0.0,0.0,0.0,0.0,0.0,0.0,0.0,0.0,0.0,0.0,0.0,0.0
1668536789244842255,207988,1668536789394691122,enu,-0.0812,0.0062,-0.0048,0.0,0.0,0.0,8.1e-05,0.0,0.0,0.0,0.0,0.0,0.0,8.1e-05,0.0,0.0,0.0,0.0,0.0,0.0,4.9e-05,0.0,0.0,0.0,0.0,0.0,0.0,0.0,0.0,0.0,0.0,0.0,0.0,0.0,0.0,0.0,0.0,0.0,0.0,0.0,0.0,0.0
1668536789254796653,207989,1668536789404701344,enu,-0.0843,0.0074,-0.0053,0.0,0.0,0.0,8.1e-05,0.0,0.0,0.0,0.0,0.0,0.0,8.1e-05,0.0,0.0,0.0,0.0,0.0,0.0,4.9e-05,0.0,0.0,0.0,0.0,0.0,0.0,0.0,0.0,0.0,0.0,0.0,0.0,0.0,0.0,0.0,0.0,0.0,0.0,0.0,0.0,0.0
1668536789264559903,207990,1668536789414610587,enu,-0.088,0.0063,-0.0043,0.0,0.0,0.0,8.1e-05,0.0,0.0,0.0,0.0,0.0,0.0,8.1e-05,0.0,0.0,0.0,0.0,0.0,0.0,4.9e-05,0.0,0.0,0.0,0.0,0.0,0.0,0.0,0.0,0.0,0.0,0.0,0.0,0.0,0.0,0.0,0.0,0.0,0.0,0.0,0.0,0.0
1668536789274973103,207991,1668536789424696095,enu,-0.0919,0.0069,-0.005,0.0,0.0,0.0,8.1e-05,0.0,0.0,0.0,0.0,0.0,0.0,8.1e-05,0.0,0.0,0.0,0.0,0.0,0.0,4.9e-05,0.0,0.0,0.0,0.0,0.0,0.0,0.0,0.0,0.0,0.0,0.0,0.0,0.0,0.0,0.0,0.0,0.0,0.0,0.0,0.0,0.0
1668536789284775513,207992,1668536789434630503,enu,-0.0953,0.0067,-0.0049,0.0,0.0,0.0,8.1e-05,0.0,0.0,0.0,0.0,0.0,0.0,8.1e-05,0.0,0.0,0.0,0.0,0.0,0.0,4.9e-05,0.0,0.0,0.0,0.0,0.0,0.0,0.0,0.0,0.0,0.0,0.0,0.0,0.0,0.0,0.0,0.0,0.0,0.0,0.0,0.0,0.0
1668536789294932431,207993,1668536789444620228,enu,-0.0993,0.0059,-0.0041,0.0,0.0,0.0,8.1e-05,0.0,0.0,0.0,0.0,0.0,0.0,8.1e-05,0.0,0.0,0.0,0.0,0.0,0.0,4.9e-05,0.0,0.0,0.0,0.0,0.0,0.0,0.0,0.0,0.0,0.0,0.0,0.0,0.0,0.0,0.0,0.0,0.0,0.0,0.0,0.0,0.0
1668536789304627707,207994,1668536789454676572,enu,-0.1029,0.0069,-0.0049,0.0,0.0,0.0,8.1e-05,0.0,0.0,0.0,0.0,0.0,0.0,8.1e-05,0.0,0.0,0.0,0.0,0.0,0.0,4.9e-05,0.0,0.0,0.0,0.0,0.0,0.0,0.0,0.0,0.0,0.0,0.0,0.0,0.0,0.0,0.0,0.0,0.0,0.0,0.0,0.0,0.0
1668536789314754775,207995,1668536789464611385,enu,-0.1058,0.0054,-0.0039,0.0,0.0,0.0,8.1e-05,0.0,0.0,0.0,0.0,0.0,0.0,8.1e-05,0.0,0.0,0.0,0.0,0.0,0.0,4.9e-05,0.0,0.0,0.0,0.0,0.0,0.0,0.0,0.0,0.0,0.0,0.0,0.0,0.0,0.0,0.0,0.0,0.0,0.0,0.0,0.0,0.0
1668536789324893790,207996,1668536789474612885,enu,-0.1102,0.0059,-0.0046,0.0,0.0,0.0,8.1e-05,0.0,0.0,0.0,0.0,0.0,0.0,8.1e-05,0.0,0.0,0.0,0.0,0.0,0.0,4.9e-05,0.0,0.0,0.0,0.0,0.0,0.0,0.0,0.0,0.0,0.0,0.0,0.0,0.0,0.0,0.0,0.0,0.0,0.0,0.0,0.0,0.0
1668536789334710961,207997,1668536789484691049,enu,-0.1134,0.0064,-0.0046,0.0,0.0,0.0,8.1e-05,0.0,0.0,0.0,0.0,0.0,0.0,8.1e-05,0.0,0.0,0.0,0.0,0.0,0.0,4.9e-05,0.0,0.0,0.0,0.0,0.0,0.0,0.0,0.0,0.0,0.0,0.0,0.0,0.0,0.0,0.0,0.0,0.0,0.0,0.0,0.0,0.0
1668536789344609547,207998,1668536789494632377,enu,-0.1176,0.005,-0.0039,0.0,0.0,0.0,8.1e-05,0.0,0.0,0.0,0.0,0.0,0.0,8.1e-05,0.0,0.0,0.0,0.0,0.0,0.0,4.9e-05,0.0,0.0,0.0,0.0,0.0,0.0,0.0,0.0,0.0,0.0,0.0,0.0,0.0,0.0,0.0,0.0,0.0,0.0,0.0,0.0,0.0
1668536789354524303,207999,1668536789504598239,enu,-0.1213,0.0063,-0.0049,0.0,0.0,0.0,8.1e-05,0.0,0.0,0.0,0.0,0.0,0.0,8.1e-05,0.0,0.0,0.0,0.0,0.0,0.0,4.9e-05,0.0,0.0,0.0,0.0,0.0,0.0,0.0,0.0,0.0,0.0,0.0,0.0,0.0,0.0,0.0,0.0,0.0,0.0,0.0,0.0,0.0
1668536789364678645,208000,1668536789514706227,enu,-0.1244,0.0056,-0.0043,0.0,0.0,0.0,8.1e-05,0.0,0.0,0.0,0.0,0.0,0.0,8.1e-05,0.0,0.0,0.0,0.0,0.0,0.0,4.9e-05,0.0,0.0,0.0,0.0,0.0,0.0,0.0,0.0,0.0,0.0,0.0,0.0,0.0,0.0,0.0,0.0,0.0,0.0,0.0,0.0,0.0
1668536789374642348,208001,1668536789524608175,enu,-0.1288,0.0056,-0.0045,0.0,0.0,0.0,8.1e-05,0.0,0.0,0.0,0.0,0.0,0.0,8.1e-05,0.0,0.0,0.0,0.0,0.0,0.0,4.9e-05,0.0,0.0,0.0,0.0,0.0,0.0,0.0,0.0,0.0,0.0,0.0,0.0,0.0,0.0,0.0,0.0,0.0,0.0,0.0,0.0,0.0
1668536789384613489,208002,1668536789534599824,enu,-0.1328,0.0065,-0.0053,0.0,0.0,0.0,8.1e-05,0.0,0.0,0.0,0.0,0.0,0.0,8.1e-05,0.0,0.0,0.0,0.0,0.0,0.0,4.9e-05,0.0,0.0,0.0,0.0,0.0,0.0,0.0,0.0,0.0,0.0,0.0,0.0,0.0,0.0,0.0,0.0,0.0,0.0,0.0,0.0,0.0
1668536789394498319,208003,1668536789544704201,enu,-0.1372,0.0056,-0.0047,0.0,0.0,0.0,8.1e-05,0.0,0.0,0.0,0.0,0.0,0.0,8.1e-05,0.0,0.0,0.0,0.0,0.0,0.0,4.9e-05,0.0,0.0,0.0,0.0,0.0,0.0,0.0,0.0,0.0,0.0,0.0,0.0,0.0,0.0,0.0,0.0,0.0,0.0,0.0,0.0,0.0
1668536789404402633,208004,1668536789554614094,enu,-0.1414,0.0072,-0.0053,0.0,0.0,0.0,8.1e-05,0.0,0.0,0.0,0.0,0.0,0.0,8.1e-05,0.0,0.0,0.0,0.0,0.0,0.0,4.9e-05,0.0,0.0,0.0,0.0,0.0,0.0,0.0,0.0,0.0,0.0,0.0,0.0,0.0,0.0,0.0,0.0,0.0,0.0,0.0,0.0,0.0
1668536789415041777,208005,1668536789564669072,enu,-0.1447,0.0066,-0.005,0.0,0.0,0.0,8.1e-05,0.0,0.0,0.0,0.0,0.0,0.0,8.1e-05,0.0,0.0,0.0,0.0,0.0,0.0,4.9e-05,0.0,0.0,0.0,0.0,0.0,0.0,0.0,0.0,0.0,0.0,0.0,0.0,0.0,0.0,0.0,0.0,0.0,0.0,0.0,0.0,0.0
1668536789425005675,208006,1668536789574765199,enu,-0.1489,0.0066,-0.005,0.0,0.0,0.0,8.1e-05,0.0,0.0,0.0,0.0,0.0,0.0,8.1e-05,0.0,0.0,0.0,0.0,0.0,0.0,4.9e-05,0.0,0.0,0.0,0.0,0.0,0.0,0.0,0.0,0.0,0.0,0.0,0.0,0.0,0.0,0.0,0.0,0.0,0.0,0.0,0.0,0.0
1668536789434461796,208007,1668536789584671555,enu,-0.153,0.0082,-0.006,0.0,0.0,0.0,8.1e-05,0.0,0.0,0.0,0.0,0.0,0.0,8.1e-05,0.0,0.0,0.0,0.0,0.0,0.0,4.9e-05,0.0,0.0,0.0,0.0,0.0,0.0,0.0,0.0,0.0,0.0,0.0,0.0,0.0,0.0,0.0,0.0,0.0,0.0,0.0,0.0,0.0
1668536789444943717,208008,1668536789594659667,enu,-0.1571,0.0069,-0.0052,0.0,0.0,0.0,8.1e-05,0.0,0.0,0.0,0.0,0.0,0.0,8.1e-05,0.0,0.0,0.0,0.0,0.0,0.0,4.9e-05,0.0,0.0,0.0,0.0,0.0,0.0,0.0,0.0,0.0,0.0,0.0,0.0,0.0,0.0,0.0,0.0,0.0,0.0,0.0,0.0,0.0
1668536789454600616,208009,1668536789604665375,enu,-0.1614,0.0079,-0.0059,0.0,0.0,0.0,8.1e-05,0.0,0.0,0.0,0.0,0.0,0.0,8.1e-05,0.0,0.0,0.0,0.0,0.0,0.0,4.9e-05,0.0,0.0,0.0,0.0,0.0,0.0,0.0,0.0,0.0,0.0,0.0,0.0,0.0,0.0,0.0,0.0,0.0,0.0,0.0,0.0,0.0
1668536789464848571,208010,1668536789614706750,enu,-0.1642,0.0082,-0.0059,0.0,0.0,0.0,8.1e-05,0.0,0.0,0.0,0.0,0.0,0.0,8.1e-05,0.0,0.0,0.0,0.0,0.0,0.0,4.9e-05,0.0,0.0,0.0,0.0,0.0,0.0,0.0,0.0,0.0,0.0,0.0,0.0,0.0,0.0,0.0,0.0,0.0,0.0,0.0,0.0,0.0
1668536789474722974,208011,1668536789624677307,enu,-0.1686,0.0075,-0.0054,0.0,0.0,0.0,8.1e-05,0.0,0.0,0.0,0.0,0.0,0.0,8.1e-05,0.0,0.0,0.0,0.0,0.0,0.0,4.9e-05,0.0,0.0,0.0,0.0,0.0,0.0,0.0,0.0,0.0,0.0,0.0,0.0,0.0,0.0,0.0,0.0,0.0,0.0,0.0,0.0,0.0
1668536789484669296,208012,1668536789634633022,enu,-0.1733,0.0086,-0.0065,0.0,0.0,0.0,8.1e-05,0.0,0.0,0.0,0.0,0.0,0.0,8.1e-05,0.0,0.0,0.0,0.0,0.0,0.0,4.9e-05,0.0,0.0,0.0,0.0,0.0,0.0,0.0,0.0,0.0,0.0,0.0,0.0,0.0,0.0,0.0,0.0,0.0,0.0,0.0,0.0,0.0
1668536789494646774,208013,1668536789644661149,enu,-0.1773,0.0075,-0.006,0.0,0.0,0.0,8.1e-05,0.0,0.0,0.0,0.0,0.0,0.0,8.1e-05,0.0,0.0,0.0,0.0,0.0,0.0,4.9e-05,0.0,0.0,0.0,0.0,0.0,0.0,0.0,0.0,0.0,0.0,0.0,0.0,0.0,0.0,0.0,0.0,0.0,0.0,0.0,0.0,0.0
1668536789504604710,208014,1668536789654701241,enu,-0.1823,0.008,-0.0061,0.0,0.0,0.0,8.1e-05,0.0,0.0,0.0,0.0,0.0,0.0,8.1e-05,0.0,0.0,0.0,0.0,0.0,0.0,4.9e-05,0.0,0.0,0.0,0.0,0.0,0.0,0.0,0.0,0.0,0.0,0.0,0.0,0.0,0.0,0.0,0.0,0.0,0.0,0.0,0.0,0.0
1668536789514571055,208015,1668536789664621406,enu,-0.1854,0.0082,-0.0062,0.0,0.0,0.0,8.1e-05,0.0,0.0,0.0,0.0,0.0,0.0,8.1e-05,0.0,0.0,0.0,0.0,0.0,0.0,4.9e-05,0.0,0.0,0.0,0.0,0.0,0.0,0.0,0.0,0.0,0.0,0.0,0.0,0.0,0.0,0.0,0.0,0.0,0.0,0.0,0.0,0.0
1668536789524635934,208016,1668536789674699303,enu,-0.1893,0.0066,-0.0055,0.0,0.0,0.0,8.1e-05,0.0,0.0,0.0,0.0,0.0,0.0,8.1e-05,0.0,0.0,0.0,0.0,0.0,0.0,4.9e-05,0.0,0.0,0.0,0.0,0.0,0.0,0.0,0.0,0.0,0.0,0.0,0.0,0.0,0.0,0.0,0.0,0.0,0.0,0.0,0.0,0.0
1668536789534548201,208017,1668536789684605693,enu,-0.1942,0.0081,-0.0066,0.0,0.0,0.0,8.1e-05,0.0,0.0,0.0,0.0,0.0,0.0,8.1e-05,0.0,0.0,0.0,0.0,0.0,0.0,4.9e-05,0.0,0.0,0.0,0.0,0.0,0.0,0.0,0.0,0.0,0.0,0.0,0.0,0.0,0.0,0.0,0.0,0.0,0.0,0.0,0.0,0.0
1668536789544704087,208018,1668536789694698284,enu,-0.1983,0.0069,-0.0063,0.0,0.0,0.0,8.1e-05,0.0,0.0,0.0,0.0,0.0,0.0,8.1e-05,0.0,0.0,0.0,0.0,0.0,0.0,4.9e-05,0.0,0.0,0.0,0.0,0.0,0.0,0.0,0.0,0.0,0.0,0.0,0.0,0.0,0.0,0.0,0.0,0.0,0.0,0.0,0.0,0.0
1668536789554334685,208019,1668536789704615965,enu,-0.2029,0.0065,-0.0059,0.0,0.0,0.0,8.1e-05,0.0,0.0,0.0,0.0,0.0,0.0,8.1e-05,0.0,0.0,0.0,0.0,0.0,0.0,4.9e-05,0.0,0.0,0.0,0.0,0.0,0.0,0.0,0.0,0.0,0.0,0.0,0.0,0.0,0.0,0.0,0.0,0.0,0.0,0.0,0.0,0.0
1668536789564657680,208020,1668536789714606826,enu,-0.2069,0.0073,-0.0065,0.0,0.0,0.0,8.1e-05,0.0,0.0,0.0,0.0,0.0,0.0,8.1e-05,0.0,0.0,0.0,0.0,0.0,0.0,4.9e-05,0.0,0.0,0.0,0.0,0.0,0.0,0.0,0.0,0.0,0.0,0.0,0.0,0.0,0.0,0.0,0.0,0.0,0.0,0.0,0.0,0.0
1668536789575008635,208021,1668536789724617428,enu,-0.2107,0.0057,-0.0059,0.0,0.0,0.0,8.1e-05,0.0,0.0,0.0,0.0,0.0,0.0,8.1e-05,0.0,0.0,0.0,0.0,0.0,0.0,4.9e-05,0.0,0.0,0.0,0.0,0.0,0.0,0.0,0.0,0.0,0.0,0.0,0.0,0.0,0.0,0.0,0.0,0.0,0.0,0.0,0.0,0.0
1668536789584884619,208022,1668536789734674674,enu,-0.2161,0.0068,-0.0068,0.0,0.0,0.0,8.1e-05,0.0,0.0,0.0,0.0,0.0,0.0,8.1e-05,0.0,0.0,0.0,0.0,0.0,0.0,4.9e-05,0.0,0.0,0.0,0.0,0.0,0.0,0.0,0.0,0.0,0.0,0.0,0.0,0.0,0.0,0.0,0.0,0.0,0.0,0.0,0.0,0.0
1668536789594786740,208023,1668536789744665301,enu,-0.2203,0.0061,-0.007,0.0,0.0,0.0,8.1e-05,0.0,0.0,0.0,0.0,0.0,0.0,8.1e-05,0.0,0.0,0.0,0.0,0.0,0.0,4.9e-05,0.0,0.0,0.0,0.0,0.0,0.0,0.0,0.0,0.0,0.0,0.0,0.0,0.0,0.0,0.0,0.0,0.0,0.0,0.0,0.0,0.0
1668536789604579803,208024,1668536789754637502,enu,-0.2251,0.0055,-0.0063,0.0,0.0,0.0,8.1e-05,0.0,0.0,0.0,0.0,0.0,0.0,8.1e-05,0.0,0.0,0.0,0.0,0.0,0.0,4.9e-05,0.0,0.0,0.0,0.0,0.0,0.0,0.0,0.0,0.0,0.0,0.0,0.0,0.0,0.0,0.0,0.0,0.0,0.0,0.0,0.0,0.0
1668536789614697525,208025,1668536789764686052,enu,-0.2295,0.0069,-0.007,0.0,0.0,0.0,8.1e-05,0.0,0.0,0.0,0.0,0.0,0.0,8.1e-05,0.0,0.0,0.0,0.0,0.0,0.0,4.9e-05,0.0,0.0,0.0,0.0,0.0,0.0,0.0,0.0,0.0,0.0,0.0,0.0,0.0,0.0,0.0,0.0,0.0,0.0,0.0,0.0,0.0
1668536789624734662,208026,1668536789774622078,enu,-0.2335,0.0049,-0.0068,0.0,0.0,0.0,8.1e-05,0.0,0.0,0.0,0.0,0.0,0.0,8.1e-05,0.0,0.0,0.0,0.0,0.0,0.0,4.9e-05,0.0,0.0,0.0,0.0,0.0,0.0,0.0,0.0,0.0,0.0,0.0,0.0,0.0,0.0,0.0,0.0,0.0,0.0,0.0,0.0,0.0
1668536789634532596,208027,1668536789784643437,enu,-0.239,0.0063,-0.0074,0.0,0.0,0.0,8.1e-05,0.0,0.0,0.0,0.0,0.0,0.0,8.1e-05,0.0,0.0,0.0,0.0,0.0,0.0,4.9e-05,0.0,0.0,0.0,0.0,0.0,0.0,0.0,0.0,0.0,0.0,0.0,0.0,0.0,0.0,0.0,0.0,0.0,0.0,0.0,0.0,0.0
1668536789644864578,208028,1668536789794672074,enu,-0.2431,0.0063,-0.0077,0.0,0.0,0.0,8.1e-05,0.0,0.0,0.0,0.0,0.0,0.0,8.1e-05,0.0,0.0,0.0,0.0,0.0,0.0,4.9e-05,0.0,0.0,0.0,0.0,0.0,0.0,0.0,0.0,0.0,0.0,0.0,0.0,0.0,0.0,0.0,0.0,0.0,0.0,0.0,0.0,0.0
1668536789654737721,208029,1668536789804606653,enu,-0.2476,0.0049,-0.0069,0.0,0.0,0.0,8.1e-05,0.0,0.0,0.0,0.0,0.0,0.0,8.1e-05,0.0,0.0,0.0,0.0,0.0,0.0,4.9e-05,0.0,0.0,0.0,0.0,0.0,0.0,0.0,0.0,0.0,0.0,0.0,0.0,0.0,0.0,0.0,0.0,0.0,0.0,0.0,0.0,0.0
1668536789664621203,208030,1668536789814610434,enu,-0.2525,0.0066,-0.0079,0.0,0.0,0.0,8.1e-05,0.0,0.0,0.0,0.0,0.0,0.0,8.1e-05,0.0,0.0,0.0,0.0,0.0,0.0,4.9e-05,0.0,0.0,0.0,0.0,0.0,0.0,0.0,0.0,0.0,0.0,0.0,0.0,0.0,0.0,0.0,0.0,0.0,0.0,0.0,0.0,0.0
1668536789674762434,208031,1668536789824685877,enu,-0.2562,0.0052,-0.0076,0.0,0.0,0.0,8.1e-05,0.0,0.0,0.0,0.0,0.0,0.0,8.1e-05,0.0,0.0,0.0,0.0,0.0,0.0,4.9e-05,0.0,0.0,0.0,0.0,0.0,0.0,0.0,0.0,0.0,0.0,0.0,0.0,0.0,0.0,0.0,0.0,0.0,0.0,0.0,0.0,0.0
1668536789684527923,208032,1668536789834620907,enu,-0.2616,0.0059,-0.0076,0.0,0.0,0.0,8.1e-05,0.0,0.0,0.0,0.0,0.0,0.0,8.1e-05,0.0,0.0,0.0,0.0,0.0,0.0,4.9e-05,0.0,0.0,0.0,0.0,0.0,0.0,0.0,0.0,0.0,0.0,0.0,0.0,0.0,0.0,0.0,0.0,0.0,0.0,0.0,0.0,0.0
1668536789695095144,208033,1668536789844622924,enu,-0.2658,0.0062,-0.0081,0.0,0.0,0.0,8.1e-05,0.0,0.0,0.0,0.0,0.0,0.0,8.1e-05,0.0,0.0,0.0,0.0,0.0,0.0,4.9e-05,0.0,0.0,0.0,0.0,0.0,0.0,0.0,0.0,0.0,0.0,0.0,0.0,0.0,0.0,0.0,0.0,0.0,0.0,0.0,0.0,0.0
1668536789704937521,208034,1668536789854682875,enu,-0.2698,0.0049,-0.0072,0.0,0.0,0.0,8.1e-05,0.0,0.0,0.0,0.0,0.0,0.0,8.1e-05,0.0,0.0,0.0,0.0,0.0,0.0,4.9e-05,0.0,0.0,0.0,0.0,0.0,0.0,0.0,0.0,0.0,0.0,0.0,0.0,0.0,0.0,0.0,0.0,0.0,0.0,0.0,0.0,0.0
1668536789714776762,208035,1668536789864623655,enu,-0.2753,0.0066,-0.0079,0.0,0.0,0.0,8.1e-05,0.0,0.0,0.0,0.0,0.0,0.0,8.1e-05,0.0,0.0,0.0,0.0,0.0,0.0,4.9e-05,0.0,0.0,0.0,0.0,0.0,0.0,0.0,0.0,0.0,0.0,0.0,0.0,0.0,0.0,0.0,0.0,0.0,0.0,0.0,0.0,0.0
1668536789724932563,208036,1668536789874648030,enu,-0.2791,0.0053,-0.0079,0.0,0.0,0.0,8.1e-05,0.0,0.0,0.0,0.0,0.0,0.0,8.1e-05,0.0,0.0,0.0,0.0,0.0,0.0,4.9e-05,0.0,0.0,0.0,0.0,0.0,0.0,0.0,0.0,0.0,0.0,0.0,0.0,0.0,0.0,0.0,0.0,0.0,0.0,0.0,0.0,0.0
1668536789734883515,208037,1668536789884685471,enu,-0.284,0.0055,-0.0075,0.0,0.0,0.0,8.1e-05,0.0,0.0,0.0,0.0,0.0,0.0,8.1e-05,0.0,0.0,0.0,0.0,0.0,0.0,4.9e-05,0.0,0.0,0.0,0.0,0.0,0.0,0.0,0.0,0.0,0.0,0.0,0.0,0.0,0.0,0.0,0.0,0.0,0.0,0.0,0.0,0.0
1668536789744879008,208038,1668536789894623196,enu,-0.2887,0.0066,-0.0083,0.0,0.0,0.0,8.1e-05,0.0,0.0,0.0,0.0,0.0,0.0,8.1e-05,0.0,0.0,0.0,0.0,0.0,0.0,4.9e-05,0.0,0.0,0.0,0.0,0.0,0.0,0.0,0.0,0.0,0.0,0.0,0.0,0.0,0.0,0.0,0.0,0.0,0.0,0.0,0.0,0.0
1668536789754692206,208039,1668536789904710808,enu,-0.2923,0.0048,-0.0076,0.0,0.0,0.0,8.1e-05,0.0,0.0,0.0,0.0,0.0,0.0,8.1e-05,0.0,0.0,0.0,0.0,0.0,0.0,4.9e-05,0.0,0.0,0.0,0.0,0.0,0.0,0.0,0.0,0.0,0.0,0.0,0.0,0.0,0.0,0.0,0.0,0.0,0.0,0.0,0.0,0.0
1668536789764711297,208040,1668536789914692803,enu,-0.2976,0.0063,-0.0082,0.0,0.0,0.0,8.1e-05,0.0,0.0,0.0,0.0,0.0,0.0,8.1e-05,0.0,0.0,0.0,0.0,0.0,0.0,4.9e-05,0.0,0.0,0.0,0.0,0.0,0.0,0.0,0.0,0.0,0.0,0.0,0.0,0.0,0.0,0.0,0.0,0.0,0.0,0.0,0.0,0.0
1668536789774867267,208041,1668536789924609595,enu,-0.3016,0.0059,-0.0085,0.0,0.0,0.0,8.1e-05,0.0,0.0,0.0,0.0,0.0,0.0,8.1e-05,0.0,0.0,0.0,0.0,0.0,0.0,4.9e-05,0.0,0.0,0.0,0.0,0.0,0.0,0.0,0.0,0.0,0.0,0.0,0.0,0.0,0.0,0.0,0.0,0.0,0.0,0.0,0.0,0.0
1668536789784679718,208042,1668536789934617450,enu,-0.3063,0.0054,-0.0079,0.0,0.0,0.0,8.1e-05,0.0,0.0,0.0,0.0,0.0,0.0,8.1e-05,0.0,0.0,0.0,0.0,0.0,0.0,4.9e-05,0.0,0.0,0.0,0.0,0.0,0.0,0.0,0.0,0.0,0.0,0.0,0.0,0.0,0.0,0.0,0.0,0.0,0.0,0.0,0.0,0.0
1668536789794766442,208043,1668536789944688631,enu,-0.3114,0.0066,-0.0089,0.0,0.0,0.0,8.1e-05,0.0,0.0,0.0,0.0,0.0,0.0,8.1e-05,0.0,0.0,0.0,0.0,0.0,0.0,4.9e-05,0.0,0.0,0.0,0.0,0.0,0.0,0.0,0.0,0.0,0.0,0.0,0.0,0.0,0.0,0.0,0.0,0.0,0.0,0.0,0.0,0.0
1668536789804646378,208044,1668536789954615958,enu,-0.3155,0.0048,-0.0087,0.0,0.0,0.0,8.1e-05,0.0,0.0,0.0,0.0,0.0,0.0,8.1e-05,0.0,0.0,0.0,0.0,0.0,0.0,4.9e-05,0.0,0.0,0.0,0.0,0.0,0.0,0.0,0.0,0.0,0.0,0.0,0.0,0.0,0.0,0.0,0.0,0.0,0.0,0.0,0.0,0.0
1668536789814609224,208045,1668536789964624912,enu,-0.3212,0.006,-0.0088,0.0,0.0,0.0,8.1e-05,0.0,0.0,0.0,0.0,0.0,0.0,8.1e-05,0.0,0.0,0.0,0.0,0.0,0.0,4.9e-05,0.0,0.0,0.0,0.0,0.0,0.0,0.0,0.0,0.0,0.0,0.0,0.0,0.0,0.0,0.0,0.0,0.0,0.0,0.0,0.0,0.0
1668536789824575415,208046,1668536789974680436,enu,-0.3253,0.0058,-0.0091,0.0,0.0,0.0,8.1e-05,0.0,0.0,0.0,0.0,0.0,0.0,8.1e-05,0.0,0.0,0.0,0.0,0.0,0.0,4.9e-05,0.0,0.0,0.0,0.0,0.0,0.0,0.0,0.0,0.0,0.0,0.0,0.0,0.0,0.0,0.0,0.0,0.0,0.0,0.0,0.0,0.0
1668536789834488857,208047,1668536789984614598,enu,-0.3298,0.0043,-0.0087,0.0,0.0,0.0,8.1e-05,0.0,0.0,0.0,0.0,0.0,0.0,8.1e-05,0.0,0.0,0.0,0.0,0.0,0.0,4.9e-05,0.0,0.0,0.0,0.0,0.0,0.0,0.0,0.0,0.0,0.0,0.0,0.0,0.0,0.0,0.0,0.0,0.0,0.0,0.0,0.0,0.0
1668536789844407207,208048,1668536789994625362,enu,-0.3351,0.0064,-0.0098,0.0,0.0,0.0,8.1e-05,0.0,0.0,0.0,0.0,0.0,0.0,8.1e-05,0.0,0.0,0.0,0.0,0.0,0.0,4.9e-05,0.0,0.0,0.0,0.0,0.0,0.0,0.0,0.0,0.0,0.0,0.0,0.0,0.0,0.0,0.0,0.0,0.0,0.0,0.0,0.0,0.0
1668536789854523005,208049,1668536790004690546,enu,-0.339,0.0046,-0.0097,0.0,0.0,0.0,8.1e-05,0.0,0.0,0.0,0.0,0.0,0.0,8.1e-05,0.0,0.0,0.0,0.0,0.0,0.0,4.9e-05,0.0,0.0,0.0,0.0,0.0,0.0,0.0,0.0,0.0,0.0,0.0,0.0,0.0,0.0,0.0,0.0,0.0,0.0,0.0,0.0,0.0
1668536789864750692,208050,1668536790014625068,enu,-0.3445,0.005,-0.0099,0.0,0.0,0.0,8.1e-05,0.0,0.0,0.0,0.0,0.0,0.0,8.1e-05,0.0,0.0,0.0,0.0,0.0,0.0,4.9e-05,0.0,0.0,0.0,0.0,0.0,0.0,0.0,0.0,0.0,0.0,0.0,0.0,0.0,0.0,0.0,0.0,0.0,0.0,0.0,0.0,0.0
1668536789874891869,208051,1668536790024632061,enu,-0.3488,0.0059,-0.0106,0.0,0.0,0.0,8.1e-05,0.0,0.0,0.0,0.0,0.0,0.0,8.1e-05,0.0,0.0,0.0,0.0,0.0,0.0,4.9e-05,0.0,0.0,0.0,0.0,0.0,0.0,0.0,0.0,0.0,0.0,0.0,0.0,0.0,0.0,0.0,0.0,0.0,0.0,0.0,0.0,0.0
1668536789884650738,208052,1668536790034698570,enu,-0.3528,0.0044,-0.01,0.0,0.0,0.0,8.1e-05,0.0,0.0,0.0,0.0,0.0,0.0,8.1e-05,0.0,0.0,0.0,0.0,0.0,0.0,4.9e-05,0.0,0.0,0.0,0.0,0.0,0.0,0.0,0.0,0.0,0.0,0.0,0.0,0.0,0.0,0.0,0.0,0.0,0.0,0.0,0.0,0.0
1668536789894591259,208053,1668536790044622074,enu,-0.3583,0.0062,-0.0109,0.0,0.0,0.0,8.1e-05,0.0,0.0,0.0,0.0,0.0,0.0,8.1e-05,0.0,0.0,0.0,0.0,0.0,0.0,4.9e-05,0.0,0.0,0.0,0.0,0.0,0.0,0.0,0.0,0.0,0.0,0.0,0.0,0.0,0.0,0.0,0.0,0.0,0.0,0.0,0.0,0.0
1668536789904609105,208054,1668536790054641590,enu,-0.3626,0.0049,-0.0112,0.0,0.0,0.0,8.1e-05,0.0,0.0,0.0,0.0,0.0,0.0,8.1e-05,0.0,0.0,0.0,0.0,0.0,0.0,4.9e-05,0.0,0.0,0.0,0.0,0.0,0.0,0.0,0.0,0.0,0.0,0.0,0.0,0.0,0.0,0.0,0.0,0.0,0.0,0.0,0.0,0.0
1668536789914847989,208055,1668536790064772166,enu,-0.3677,0.0053,-0.0108,0.0,0.0,0.0,8.1e-05,0.0,0.0,0.0,0.0,0.0,0.0,8.1e-05,0.0,0.0,0.0,0.0,0.0,0.0,4.9e-05,0.0,0.0,0.0,0.0,0.0,0.0,0.0,0.0,0.0,0.0,0.0,0.0,0.0,0.0,0.0,0.0,0.0,0.0,0.0,0.0,0.0
1668536789924798842,208056,1668536790074711831,enu,-0.3726,0.0065,-0.0113,0.0,0.0,0.0,8.1e-05,0.0,0.0,0.0,0.0,0.0,0.0,8.1e-05,0.0,0.0,0.0,0.0,0.0,0.0,4.9e-05,0.0,0.0,0.0,0.0,0.0,0.0,0.0,0.0,0.0,0.0,0.0,0.0,0.0,0.0,0.0,0.0,0.0,0.0,0.0,0.0,0.0
1668536789934721351,208057,1668536790084791140,enu,-0.3765,0.0045,-0.0109,0.0,0.0,0.0,8.1e-05,0.0,0.0,0.0,0.0,0.0,0.0,8.1e-05,0.0,0.0,0.0,0.0,0.0,0.0,4.9e-05,0.0,0.0,0.0,0.0,0.0,0.0,0.0,0.0,0.0,0.0,0.0,0.0,0.0,0.0,0.0,0.0,0.0,0.0,0.0,0.0,0.0
1668536789944597409,208058,1668536790094657852,enu,-0.3824,0.0066,-0.0116,0.0,0.0,0.0,8.1e-05,0.0,0.0,0.0,0.0,0.0,0.0,8.1e-05,0.0,0.0,0.0,0.0,0.0,0.0,4.9e-05,0.0,0.0,0.0,0.0,0.0,0.0,0.0,0.0,0.0,0.0,0.0,0.0,0.0,0.0,0.0,0.0,0.0,0.0,0.0,0.0,0.0
1668536789954662079,208059,1668536790104675610,enu,-0.3866,0.006,-0.0118,0.0,0.0,0.0,8.1e-05,0.0,0.0,0.0,0.0,0.0,0.0,8.1e-05,0.0,0.0,0.0,0.0,0.0,0.0,4.9e-05,0.0,0.0,0.0,0.0,0.0,0.0,0.0,0.0,0.0,0.0,0.0,0.0,0.0,0.0,0.0,0.0,0.0,0.0,0.0,0.0,0.0
1668536789964613669,208060,1668536790114690219,enu,-0.3915,0.0053,-0.0113,0.0,0.0,0.0,8.1e-05,0.0,0.0,0.0,0.0,0.0,0.0,8.1e-05,0.0,0.0,0.0,0.0,0.0,0.0,4.9e-05,0.0,0.0,0.0,0.0,0.0,0.0,0.0,0.0,0.0,0.0,0.0,0.0,0.0,0.0,0.0,0.0,0.0,0.0,0.0,0.0,0.0
1668536789974844156,208061,1668536790124743998,enu,-0.3972,0.0069,-0.0122,0.0,0.0,0.0,8.1e-05,0.0,0.0,0.0,0.0,0.0,0.0,8.1e-05,0.0,0.0,0.0,0.0,0.0,0.0,4.9e-05,0.0,0.0,0.0,0.0,0.0,0.0,0.0,0.0,0.0,0.0,0.0,0.0,0.0,0.0,0.0,0.0,0.0,0.0,0.0,0.0,0.0
1668536789984885488,208062,1668536790134695373,enu,-0.4009,0.0052,-0.0116,0.0,0.0,0.0,8.1e-05,0.0,0.0,0.0,0.0,0.0,0.0,8.1e-05,0.0,0.0,0.0,0.0,0.0,0.0,4.9e-05,0.0,0.0,0.0,0.0,0.0,0.0,0.0,0.0,0.0,0.0,0.0,0.0,0.0,0.0,0.0,0.0,0.0,0.0,0.0,0.0,0.0
1668536789995036250,208063,1668536790144798043,enu,-0.4065,0.0062,-0.0116,0.0,0.0,0.0,8.1e-05,0.0,0.0,0.0,0.0,0.0,0.0,8.1e-05,0.0,0.0,0.0,0.0,0.0,0.0,4.9e-05,0.0,0.0,0.0,0.0,0.0,0.0,0.0,0.0,0.0,0.0,0.0,0.0,0.0,0.0,0.0,0.0,0.0,0.0,0.0,0.0,0.0
1668536790004795749,208064,1668536790154817917,enu,-0.4112,0.0061,-0.0122,0.0,0.0,0.0,8.1e-05,0.0,0.0,0.0,0.0,0.0,0.0,8.1e-05,0.0,0.0,0.0,0.0,0.0,0.0,4.9e-05,0.0,0.0,0.0,0.0,0.0,0.0,0.0,0.0,0.0,0.0,0.0,0.0,0.0,0.0,0.0,0.0,0.0,0.0,0.0,0.0,0.0
1668536790014872723,208065,1668536790164635171,enu,-0.4157,0.0049,-0.0113,0.0,0.0,0.0,8.1e-05,0.0,0.0,0.0,0.0,0.0,0.0,8.1e-05,0.0,0.0,0.0,0.0,0.0,0.0,4.9e-05,0.0,0.0,0.0,0.0,0.0,0.0,0.0,0.0,0.0,0.0,0.0,0.0,0.0,0.0,0.0,0.0,0.0,0.0,0.0,0.0,0.0
1668536790024891786,208066,1668536790174722176,enu,-0.4214,0.0067,-0.0119,0.0,0.0,0.0,8.1e-05,0.0,0.0,0.0,0.0,0.0,0.0,8.1e-05,0.0,0.0,0.0,0.0,0.0,0.0,4.9e-05,0.0,0.0,0.0,0.0,0.0,0.0,0.0,0.0,0.0,0.0,0.0,0.0,0.0,0.0,0.0,0.0,0.0,0.0,0.0,0.0,0.0
1668536790034684865,208067,1668536790184637909,enu,-0.425,0.0051,-0.0114,0.0,0.0,0.0,8.1e-05,0.0,0.0,0.0,0.0,0.0,0.0,8.1e-05,0.0,0.0,0.0,0.0,0.0,0.0,4.9e-05,0.0,0.0,0.0,0.0,0.0,0.0,0.0,0.0,0.0,0.0,0.0,0.0,0.0,0.0,0.0,0.0,0.0,0.0,0.0,0.0,0.0
1668536790044708978,208068,1668536790194637186,enu,-0.4302,0.0051,-0.0111,0.0,0.0,0.0,8.1e-05,0.0,0.0,0.0,0.0,0.0,0.0,8.1e-05,0.0,0.0,0.0,0.0,0.0,0.0,4.9e-05,0.0,0.0,0.0,0.0,0.0,0.0,0.0,0.0,0.0,0.0,0.0,0.0,0.0,0.0,0.0,0.0,0.0,0.0,0.0,0.0,0.0
