%time,field.header.seq,field.header.stamp,field.header.frame_id,field.status.status,field.status.service,field.latitude,field.longitude,field.altitude,field.position_covariance0,field.position_covariance1,field.position_covariance2,field.position_covariance3,field.position_covariance4,field.position_covariance5,field.position_covariance6,field.position_covariance7,field.position_covariance8,field.position_covariance_type
1668538458325146694,374896,1668538458403709089,gps,2,1,42.3008995361,-83.6991315606,270.935241699,8.1e-05,0.0,0.0,0.0,0.000121,0.0,0.0,0.0,0.002025,2
1668538458335369679,374897,1668538458413745499,gps,2,1,42.3008995399,-83.6991312419,270.934967041,8.1e-05,0.0,0.0,0.0,0.000121,0.0,0.0,0.0,0.002025,2
1668538458345228064,374898,1668538458423687970,gps,2,1,42.3008995422,-83.6991309208,270.934753418,8.1e-05,0.0,0.0,0.0,0.000121,0.0,0.0,0.0,0.002025,2
1668538458355101196,374899,1668538458433694322,gps,2,1,42.3008995458,-83.699130598,270.934753418,8.1e-05,0.0,0.0,0.0,0.000121,0.0,0.0,0.0,0.002025,2
1668538458365124099,374900,1668538458443760926,gps,2,1,42.30089955,-83.6991302767,270.934570312,8.1e-05,0.0,0.0,0.0,0.000121,0.0,0.0,0.0,0.002025,2
1668538458375434449,374901,1668538458453743222,gps,2,1,42.300899552,-83.6991299531,270.934570312,8.1e-05,0.0,0.0,0.0,0.000121,0.0,0.0,0.0,0.002025,2
1668538458385574445,374902,1668538458463708745,gps,2,1,42.3008995553,-83.6991296269,270.934753418,8.1e-05,0.0,0.0,0.0,0.000121,0.0,0.0,0.0,0.002025,2
1668538458395285110,374903,1668538458473750842,gps,2,1,42.3008995586,-83.6991293038,270.934783936,8.1e-05,0.0,0.0,0.0,0.000121,0.0,0.0,0.0,0.002025,2
1668538458405239747,374904,1668538458483677924,gps,2,1,42.3008995604,-83.6991289767,270.934967041,8.1e-05,0.0,0.0,0.0,0.000121,0.0,0.0,0.0,0.002025,2
1668538458415517831,374905,1668538458493761411,gps,2,1,42.3008995632,-83.6991286477,270.935333252,8.1e-05,0.0,0.0,0.0,0.000121,0.0,0.0,0.0,0.002025,2
1668538458425263092,374906,1668538458503748923,gps,2,1,42.300899566,-83.6991283212,270.935577393,8.1e-05,0.0,0.0,0.0,0.000121,0.0,0.0,0.0,0.002025,2
1668538458435349794,374907,1668538458513779724,gps,2,1,42.3008995709,-83.6991279866,270.935913086,8.1e-05,0.0,0.0,0.0,0.000121,0.0,0.0,0.0,0.002025,2
1668538458445260267,374908,1668538458523732527,gps,2,1,42.3008995732,-83.6991276545,270.936340332,8.1e-05,0.0,0.0,0.0,0.000121,0.0,0.0,0.0,0.002025,2
1668538458455252747,374909,1668538458533724971,gps,2,1,42.3008995762,-83.6991273245,270.936676025,8.1e-05,0.0,0.0,0.0,0.000121,0.0,0.0,0.0,0.002025,2
1668538458465819874,374910,1668538458543892498,gps,2,1,42.3008995806,-83.6991269867,270.937042236,8.1e-05,0.0,0.0,0.0,0.000121,0.0,0.0,0.0,0.002025,2
1668538458475278296,374911,1668538458553769458,gps,2,1,42.3008995828,-83.6991266507,270.937438965,8.1e-05,0.0,0.0,0.0,0.000121,0.0,0.0,0.0,0.002025,2
1668538458484994798,374912,1668538458563688935,gps,2,1,42.3008995854,-83.6991263178,270.937866211,8.1e-05,0.0,0.0,0.0,0.000121,0.0,0.0,0.0,0.002025,2
1668538458495264380,374913,1668538458573670689,gps,2,1,42.3008995895,-83.6991259763,270.938201904,8.1e-05,0.0,0.0,0.0,0.000121,0.0,0.0,0.0,0.002025,2
1668538458505514300,374914,1668538458583757059,gps,2,1,42.3008995919,-83.6991256365,270.938537598,8.1e-05,0.0,0.0,0.0,0.000121,0.0,0.0,0.0,0.002025,2
1668538458514993728,374915,1668538458593684094,gps,2,1,42.3008995941,-83.6991252999,270.938903809,8.1e-05,0.0,0.0,0.0,0.000121,0.0,0.0,0.0,0.002025,2
1668538458525432288,374916,1668538458603675977,gps,2,1,42.3008995983,-83.6991249551,270.939178467,8.1e-05,0.0,0.0,0.0,0.000121,0.0,0.0,0.0,0.002025,2
1668538458535393500,374917,1668538458613683721,gps,2,1,42.3008996006,-83.6991246121,270.939422607,8.1e-05,0.0,0.0,0.0,0.000121,0.0,0.0,0.0,0.002025,2
1668538458545242865,374918,1668538458623766644,gps,2,1,42.3008996031,-83.6991242716,270.939727783,8.1e-05,0.0,0.0,0.0,0.000121,0.0,0.0,0.0,0.002025,2
1668538458555265662,374919,1668538458633696930,gps,2,1,42.3008996079,-83.6991239233,270.939880371,8.1e-05,0.0,0.0,0.0,0.000121,0.0,0.0,0.0,0.002025,2
1668538458565221026,374920,1668538458643746085,gps,2,1,42.3008996106,-83.6991235763,270.940002441,8.1e-05,0.0,0.0,0.0,0.000121,0.0,0.0,0.0,0.002025,2
1668538458575269069,374921,1668538458653693718,gps,2,1,42.300899613,-83.6991232326,270.940185547,8.1e-05,0.0,0.0,0.0,0.000121,0.0,0.0,0.0,0.002025,2
1668538458585252282,374922,1668538458663660950,gps,2,1,42.3008996179,-83.6991228806,270.940216064,8.1e-05,0.0,0.0,0.0,0.000121,0.0,0.0,0.0,0.002025,2
1668538458595223535,374923,1668538458673754207,gps,2,1,42.300899621,-83.6991225299,270.940124512,8.1e-05,0.0,0.0,0.0,0.000121,0.0,0.0,0.0,0.002025,2
1668538458605196994,374924,1668538458683668566,gps,2,1,42.3008996235,-83.6991221823,270.940246582,8.1e-05,0.0,0.0,0.0,0.000121,0.0,0.0,0.0,0.002025,2
1668538458615204052,374925,1668538458693677513,gps,2,1,42.3008996287,-83.6991218264,270.940093994,8.1e-05,0.0,0.0,0.0,0.000121,0.0,0.0,0.0,0.002025,2
1668538458625086229,374926,1668538458703757319,gps,2,1,42.300899632,-83.6991214717,270.939880371,8.1e-05,0.0,0.0,0.0,0.000121,0.0,0.0,0.0,0.002025,2
1668538458635164226,374927,1668538458713706991,gps,2,1,42.3008996349,-83.6991211205,270.939788818,8.1e-05,0.0,0.0,0.0,0.000121,0.0,0.0,0.0,0.002025,2
1668538458645550680,374928,1668538458723692165,gps,2,1,42.3008996403,-83.699120761,270.939544678,8.1e-05,0.0,0.0,0.0,0.000121,0.0,0.0,0.0,0.002025,2
1668538458655347923,374929,1668538458733744617,gps,2,1,42.3008996439,-83.6991204027,270.939208984,8.1e-05,0.0,0.0,0.0,0.000121,0.0,0.0,0.0,0.002025,2
1668538458665010899,374930,1668538458743724785,gps,2,1,42.3008996472,-83.6991200473,270.938995361,8.1e-05,0.0,0.0,0.0,0.000121,0.0,0.0,0.0,0.002025,2
1668538458675226374,374931,1668538458753701719,gps,2,1,42.300899653,-83.699119684,270.93862915,8.1e-05,0.0,0.0,0.0,0.000121,0.0,0.0,0.0,0.002025,2
1668538458685388232,374932,1668538458763734476,gps,2,1,42.3008996571,-83.6991193218,270.938232422,8.1e-05,0.0,0.0,0.0,0.000121,0.0,0.0,0.0,0.002025,2
1668538458695192243,374933,1668538458773692234,gps,2,1,42.3008996609,-83.6991189628,270.937896729,8.1e-05,0.0,0.0,0.0,0.000121,0.0,0.0,0.0,0.002025,2
1668538458705148729,374934,1668538458783669720,gps,2,1,42.3008996669,-83.6991185959,270.9375,8.1e-05,0.0,0.0,0.0,0.000121,0.0,0.0,0.0,0.002025,2
1668538458715254996,374935,1668538458793810235,gps,2,1,42.3008996716,-83.6991182294,270.937133789,8.1e-05,0.0,0.0,0.0,0.000121,0.0,0.0,0.0,0.002025,2
1668538458725216554,374936,1668538458803671648,gps,2,1,42.3008996757,-83.6991178668,270.936706543,8.1e-05,0.0,0.0,0.0,0.000121,0.0,0.0,0.0,0.002025,2
1668538458735145387,374937,1668538458813668137,gps,2,1,42.3008996821,-83.699117496,270.936340332,8.1e-05,0.0,0.0,0.0,0.000121,0.0,0.0,0.0,0.002025,2
1668538458745110194,374938,1668538458823716533,gps,2,1,42.3008996868,-83.6991171261,270.936035156,8.1e-05,0.0,0.0,0.0,0.000121,0.0,0.0,0.0,0.002025,2
1668538458755070974,374939,1668538458833682905,gps,2,1,42.3008996913,-83.6991167593,270.935638428,8.1e-05,0.0,0.0,0.0,0.000121,0.0,0.0,0.0,0.002025,2
1668538458765022019,374940,1668538458843671262,gps,2,1,42.3008996978,-83.699116385,270.935302734,8.1e-05,0.0,0.0,0.0,0.000121,0.0,0.0,0.0,0.002025,2
1668538458775190600,374941,1668538458853759160,gps,2,1,42.3008997024,-83.6991160112,270.935028076,8.1e-05,0.0,0.0,0.0,0.000121,0.0,0.0,0.0,0.002025,2
1668538458785448032,374942,1668538458863697925,gps,2,1,42.3008997071,-83.6991156408,270.9347229,8.1e-05,0.0,0.0,0.0,0.000121,0.0,0.0,0.0,0.002025,2
1668538458795342858,374943,1668538458873711215,gps,2,1,42.300899712,-83.6991152635,270.934509277,8.1e-05,0.0,0.0,0.0,0.000121,0.0,0.0,0.0,0.002025,2
1668538458805326163,374944,1668538458883682298,gps,2,1,42.3008997166,-83.6991148858,270.934295654,8.1e-05,0.0,0.0,0.0,0.000121,0.0,0.0,0.0,0.002025,2
1668538458815606683,374945,1668538458893749312,gps,2,1,42.3008997212,-83.6991145113,270.934020996,8.1e-05,0.0,0.0,0.0,0.000121,0.0,0.0,0.0,0.002025,2
1668538458825277302,374946,1668538458903683911,gps,2,1,42.3008997259,-83.6991141303,270.933868408,8.1e-05,0.0,0.0,0.0,0.000121,0.0,0.0,0.0,0.002025,2
1668538458835230781,374947,1668538458913683876,gps,2,1,42.3008997303,-83.6991137487,270.933685303,8.1e-05,0.0,0.0,0.0,0.000121,0.0,0.0,0.0,0.002025,2
1668538458845222687,374948,1668538458923729027,gps,2,1,42.3008997347,-83.6991133703,270.933441162,8.1e-05,0.0,0.0,0.0,0.000121,0.0,0.0,0.0,0.002025,2
1668538458855255231,374949,1668538458933692151,gps,2,1,42.3008997392,-83.6991129857,270.933380127,8.1e-05,0.0,0.0,0.0,0.000121,0.0,0.0,0.0,0.002025,2
1668538458865215702,374950,1668538458943718053,gps,2,1,42.3008997433,-83.6991126006,270.933288574,8.1e-05,0.0,0.0,0.0,0.000121,0.0,0.0,0.0,0.002025,2
1668538458875235858,374951,1668538458953680767,gps,2,1,42.3008997475,-83.6991122184,270.933135986,8.1e-05,0.0,0.0,0.0,0.000121,0.0,0.0,0.0,0.002025,2
1668538458885195496,374952,1668538458963669475,gps,2,1,42.3008997519,-83.6991118302,270.933105469,8.1e-05,0.0,0.0,0.0,0.000121,0.0,0.0,0.0,0.002025,2
1668538458895187165,374953,1668538458973754636,gps,2,1,42.300899756,-83.6991114416,270.933074951,8.1e-05,0.0,0.0,0.0,0.000121,0.0,0.0,0.0,0.002025,2
1668538458905099392,374954,1668538458983660210,gps,2,1,42.30089976,-83.6991110558,270.933013916,8.1e-05,0.0,0.0,0.0,0.000121,0.0,0.0,0.0,0.002025,2
1668538458915024886,374955,1668538458993703128,gps,2,1,42.3008997645,-83.6991106641,270.933044434,8.1e-05,0.0,0.0,0.0,0.000121,0.0,0.0,0.0,0.002025,2
1668538458925455828,374956,1668538459003809920,gps,2,1,42.3008997686,-83.6991102721,270.933013916,8.1e-05,0.0,0.0,0.0,0.000121,0.0,0.0,0.0,0.002025,2
1668538458935517476,374957,1668538459013778110,gps,2,1,42.3008997728,-83.6991098828,270.932952881,8.1e-05,0.0,0.0,0.0,0.000121,0.0,0.0,0.0,0.002025,2
1668538458945699072,374958,1668538459023725007,gps,2,1,42.3008997759,-83.6991094892,270.933532715,8.1e-05,0.0,0.0,0.0,0.000121,0.0,0.0,0.0,0.002025,2
1668538458955456504,374959,1668538459033751535,gps,2,1,42.30089978,-83.6991090938,270.933502197,8.1e-05,0.0,0.0,0.0,0.000121,0.0,0.0,0.0,0.002025,2
1668538458965485190,374960,1668538459043868932,gps,2,1,42.3008997842,-83.6991087011,270.93347168,8.1e-05,0.0,0.0,0.0,0.000121,0.0,0.0,0.0,0.002025,2
1668538458975312308,374961,1668538459053723500,gps,2,1,42.3008997872,-83.6991083042,270.934020996,8.1e-05,0.0,0.0,0.0,0.000121,0.0,0.0,0.0,0.002025,2
1668538458985396466,374962,1668538459063821459,gps,2,1,42.300899791,-83.6991079057,270.933959961,8.1e-05,0.0,0.0,0.0,0.000121,0.0,0.0,0.0,0.002025,2
1668538458995184644,374963,1668538459073700478,gps,2,1,42.300899795,-83.6991075098,270.933929443,8.1e-05,0.0,0.0,0.0,0.000121,0.0,0.0,0.0,0.002025,2
1668538459005260163,374964,1668538459083677254,gps,2,1,42.3008997977,-83.6991071096,270.934417725,8.1e-05,0.0,0.0,0.0,0.000121,0.0,0.0,0.0,0.002025,2
1668538459015158946,374965,1668538459093727583,gps,2,1,42.3008998012,-83.6991067077,270.934356689,8.1e-05,0.0,0.0,0.0,0.000121,0.0,0.0,0.0,0.002025,2
1668538459025246058,374966,1668538459103688029,gps,2,1,42.300899805,-83.6991063088,270.934295654,8.1e-05,0.0,0.0,0.0,0.000121,0.0,0.0,0.0,0.002025,2
1668538459035166389,374967,1668538459113665163,gps,2,1,42.3008998075,-83.6991059052,270.934753418,8.1e-05,0.0,0.0,0.0,0.000121,0.0,0.0,0.0,0.002025,2
1668538459045216765,374968,1668538459123659312,gps,2,1,42.3008998106,-83.6991054999,270.934631348,8.1e-05,0.0,0.0,0.0,0.000121,0.0,0.0,0.0,0.002025,2
1668538459055186038,374969,1668538459133760817,gps,2,1,42.3008998142,-83.6991050975,270.93460083,8.1e-05,0.0,0.0,0.0,0.000121,0.0,0.0,0.0,0.002025,2
1668538459064951652,374970,1668538459143663676,gps,2,1,42.3008998164,-83.6991046904,270.934997559,8.1e-05,0.0,0.0,0.0,0.000121,0.0,0.0,0.0,0.002025,2
1668538459075111149,374971,1668538459153674190,gps,2,1,42.3008998195,-83.6991042817,270.934906006,8.1e-05,0.0,0.0,0.0,0.000121,0.0,0.0,0.0,0.002025,2
1668538459085451732,374972,1668538459163727656,gps,2,1,42.3008998227,-83.6991038756,270.934783936,8.1e-05,0.0,0.0,0.0,0.000121,0.0,0.0,0.0,0.002025,2
1668538459095624139,374973,1668538459173676544,gps,2,1,42.300899825,-83.699103465,270.935150146,8.1e-05,0.0,0.0,0.0,0.000121,0.0,0.0,0.0,0.002025,2
1668538459105045926,374974,1668538459183670139,gps,2,1,42.3008998285,-83.6991030526,270.935058594,8.1e-05,0.0,0.0,0.0,0.000121,0.0,0.0,0.0,0.002025,2
1668538459115223847,374975,1668538459193738342,gps,2,1,42.3008998318,-83.6991026434,270.934967041,8.1e-05,0.0,0.0,0.0,0.000121,0.0,0.0,0.0,0.002025,2
1668538459125291286,374976,1668538459203697305,gps,2,1,42.3008998344,-83.6991022295,270.93536377,0.000144,0.0,0.0,0.0,0.000169,0.0,0.0,0.0,0.002116,2
1668538459135279399,374977,1668538459213744844,gps,2,1,42.3008998383,-83.699101814,270.935302734,0.000144,0.0,0.0,0.0,0.000169,0.0,0.0,0.0,0.002116,2
1668538459145275845,374978,1668538459223706088,gps,2,1,42.3008998417,-83.699101401,270.935241699,0.000144,0.0,0.0,0.0,0.000169,0.0,0.0,0.0,0.002116,2
1668538459155239888,374979,1668538459233651930,gps,2,1,42.3008998446,-83.6991009837,270.935638428,0.000144,0.0,0.0,0.0,0.000169,0.0,0.0,0.0,0.002116,2
1668538459165217913,374980,1668538459243663484,gps,2,1,42.3008998485,-83.6991005648,270.935638428,0.000144,0.0,0.0,0.0,0.000169,0.0,0.0,0.0,0.002116,2
1668538459175358080,374981,1668538459253752209,gps,2,1,42.3008998523,-83.6991001487,270.93560791,0.000144,0.0,0.0,0.0,0.000169,0.0,0.0,0.0,0.002116,2
1668538459185124503,374982,1668538459263667775,gps,2,1,42.3008998553,-83.6990997282,270.936035156,0.000144,0.0,0.0,0.0,0.000169,0.0,0.0,0.0,0.002116,2
1668538459195242333,374983,1668538459273664167,gps,2,1,42.3008998592,-83.6990993062,270.936065674,0.000144,0.0,0.0,0.0,0.000169,0.0,0.0,0.0,0.002116,2
1668538459205462912,374984,1668538459283738435,gps,2,1,42.3008998631,-83.6990988867,270.936096191,0.000144,0.0,0.0,0.0,0.000169,0.0,0.0,0.0,0.002116,2
1668538459215444306,374985,1668538459293771223,gps,2,1,42.300899866,-83.6990984631,270.936523438,0.000144,0.0,0.0,0.0,0.000169,0.0,0.0,0.0,0.002116,2
1668538459225567147,374986,1668538459303697123,gps,2,1,42.3008998697,-83.6990980381,270.936523438,0.000144,0.0,0.0,0.0,0.000169,0.0,0.0,0.0,0.002116,2
1668538459235642197,374987,1668538459313804644,gps,2,1,42.3008998734,-83.6990976155,270.936553955,0.000144,0.0,0.0,0.0,0.000169,0.0,0.0,0.0,0.002116,2
1668538459245336484,374988,1668538459323695521,gps,2,1,42.3008998761,-83.6990971889,270.936950684,0.000144,0.0,0.0,0.0,0.000169,0.0,0.0,0.0,0.002116,2
1668538459255343413,374989,1668538459333668898,gps,2,1,42.3008998794,-83.6990967608,270.936920166,0.000144,0.0,0.0,0.0,0.000169,0.0,0.0,0.0,0.002116,2
1668538459265313366,374990,1668538459343726095,gps,2,1,42.3008998831,-83.6990963352,270.936981201,0.000144,0.0,0.0,0.0,0.000169,0.0,0.0,0.0,0.002116,2
1668538459275372595,374991,1668538459353672579,gps,2,1,42.3008998856,-83.6990959056,270.937316895,0.000144,0.0,0.0,0.0,0.000169,0.0,0.0,0.0,0.002116,2
1668538459285395654,374992,1668538459363746885,gps,2,1,42.3008998889,-83.6990954746,270.937286377,0.000144,0.0,0.0,0.0,0.000169,0.0,0.0,0.0,0.002116,2
1668538459295309891,374993,1668538459373658598,gps,2,1,42.3008998923,-83.699095046,270.937255859,0.000144,0.0,0.0,0.0,0.000169,0.0,0.0,0.0,0.002116,2
1668538459305312017,374994,1668538459383651941,gps,2,1,42.3008998953,-83.6990946137,270.937561035,0.000144,0.0,0.0,0.0,0.000169,0.0,0.0,0.0,0.002116,2
1668538459315273185,374995,1668538459393666445,gps,2,1,42.3008998984,-83.69909418,270.9375,0.000144,0.0,0.0,0.0,0.000169,0.0,0.0,0.0,0.002116,2
1668538459325316935,374996,1668538459403725217,gps,2,1,42.3008999017,-83.6990937485,270.937469482,0.000144,0.0,0.0,0.0,0.000169,0.0,0.0,0.0,0.002116,2
1668538459335226692,374997,1668538459413718615,gps,2,1,42.3008999046,-83.6990933135,270.937744141,0.000144,0.0,0.0,0.0,0.000169,0.0,0.0,0.0,0.002116,2
1668538459345363683,374998,1668538459423685312,gps,2,1,42.3008999076,-83.6990928769,270.937652588,0.000144,0.0,0.0,0.0,0.000169,0.0,0.0,0.0,0.002116,2
1668538459355544826,374999,1668538459433737667,gps,2,1,42.3008999108,-83.6990924425,270.937591553,0.000144,0.0,0.0,0.0,0.000169,0.0,0.0,0.0,0.002116,2
1668538459365495009,375000,1668538459443666337,gps,2,1,42.3008999135,-83.6990920045,270.937957764,0.000144,0.0,0.0,0.0,0.000169,0.0,0.0,0.0,0.002116,2
1668538459375126294,375001,1668538459453680824,gps,2,1,42.3008999163,-83.6990915649,270.937774658,0.000144,0.0,0.0,0.0,0.000169,0.0,0.0,0.0,0.002116,2
1668538459385375801,375002,1668538459463727756,gps,2,1,42.3008999196,-83.6990911275,270.937683105,0.000144,0.0,0.0,0.0,0.000169,0.0,0.0,0.0,0.002116,2
1668538459395444018,375003,1668538459473786077,gps,2,1,42.300899922,-83.6990906864,270.937927246,0.000144,0.0,0.0,0.0,0.000169,0.0,0.0,0.0,0.002116,2
1668538459405278231,375004,1668538459483687141,gps,2,1,42.300899925,-83.6990902438,270.937652588,0.000144,0.0,0.0,0.0,0.000169,0.0,0.0,0.0,0.002116,2
1668538459415254039,375005,1668538459493811587,gps,2,1,42.3008999279,-83.6990898036,270.937469482,0.000144,0.0,0.0,0.0,0.000169,0.0,0.0,0.0,0.002116,2
1668538459425446827,375006,1668538459503725612,gps,2,1,42.3008999297,-83.699089362,270.937652588,0.000144,0.0,0.0,0.0,0.000169,0.0,0.0,0.0,0.002116,2
1668538459435437477,375007,1668538459513667153,gps,2,1,42.3008999322,-83.6990889164,270.937286377,0.000144,0.0,0.0,0.0,0.000169,0.0,0.0,0.0,0.002116,2
1668538459445445864,375008,1668538459523765708,gps,2,1,42.3008999351,-83.6990884729,270.937011719,0.000144,0.0,0.0,0.0,0.000169,0.0,0.0,0.0,0.002116,2
1668538459455184374,375009,1668538459533713482,gps,2,1,42.3008999368,-83.6990880279,270.937072754,0.000144,0.0,0.0,0.0,0.000169,0.0,0.0,0.0,0.002116,2
1668538459465611546,375010,1668538459543841946,gps,2,1,42.3008999391,-83.6990875788,270.936553955,0.000144,0.0,0.0,0.0,0.000169,0.0,0.0,0.0,0.002116,2
1668538459475349897,375011,1668538459553746844,gps,2,1,42.300899942,-83.6990871325,270.936187744,0.000144,0.0,0.0,0.0,0.000169,0.0,0.0,0.0,0.002116,2
1668538459485124765,375012,1668538459563662498,gps,2,1,42.3008999436,-83.6990866842,270.936065674,0.000144,0.0,0.0,0.0,0.000169,0.0,0.0,0.0,0.002116,2
1668538459495286554,375013,1668538459573676503,gps,2,1,42.3008999462,-83.6990862317,270.935394287,0.000144,0.0,0.0,0.0,0.000169,0.0,0.0,0.0,0.002116,2
1668538459505635385,375014,1668538459583733495,gps,2,1,42.3008999489,-83.699085782,270.934875488,0.000144,0.0,0.0,0.0,0.000169,0.0,0.0,0.0,0.002116,2
1668538459515323064,375015,1668538459593661771,gps,2,1,42.3008999506,-83.69908533,270.934570312,0.000144,0.0,0.0,0.0,0.000169,0.0,0.0,0.0,0.002116,2
1668538459525492882,375016,1668538459603709788,gps,2,1,42.3008999534,-83.699084874,270.93371582,0.000144,0.0,0.0,0.0,0.000169,0.0,0.0,0.0,0.002116,2
1668538459535392438,375017,1668538459613728916,gps,2,1,42.3008999561,-83.6990844207,270.933013916,0.000144,0.0,0.0,0.0,0.000169,0.0,0.0,0.0,0.002116,2
1668538459545515819,375018,1668538459623656070,gps,2,1,42.3008999587,-83.6990839649,270.932556152,0.000144,0.0,0.0,0.0,0.000169,0.0,0.0,0.0,0.002116,2
1668538459555326798,375019,1668538459633658626,gps,2,1,42.3008999627,-83.6990835072,270.931732178,0.000144,0.0,0.0,0.0,0.000169,0.0,0.0,0.0,0.002116,2
1668538459565291082,375020,1668538459643712050,gps,2,1,42.3008999645,-83.6990830507,270.930847168,0.000144,0.0,0.0,0.0,0.000169,0.0,0.0,0.0,0.002116,2
1668538459575366757,375021,1668538459653646580,gps,2,1,42.3008999678,-83.6990825945,270.930480957,0.000144,0.0,0.0,0.0,0.000169,0.0,0.0,0.0,0.002116,2
1668538459585308680,375022,1668538459663653141,gps,2,1,42.3008999731,-83.6990821361,270.92980957,0.000144,0.0,0.0,0.0,0.000169,0.0,0.0,0.0,0.002116,2
1668538459595381277,375023,1668538459673722888,gps,2,1,42.3008999757,-83.6990816782,270.929016113,0.000144,0.0,0.0,0.0,0.000169,0.0,0.0,0.0,0.002116,2
1668538459605170675,375024,1668538459683655161,gps,2,1,42.3008999802,-83.6990812195,270.928741455,0.000144,0.0,0.0,0.0,0.000169,0.0,0.0,0.0,0.002116,2
1668538459615253947,375025,1668538459693661755,gps,2,1,42.3008999844,-83.699080759,270.928161621,0.000144,0.0,0.0,0.0,0.000169,0.0,0.0,0.0,0.002116,2
1668538459625383254,375026,1668538459703727877,gps,2,1,42.3008999891,-83.6990803004,270.927520752,0.000144,0.0,0.0,0.0,0.000169,0.0,0.0,0.0,0.002116,2
1668538459635186481,375027,1668538459713669588,gps,2,1,42.3008999935,-83.6990798405,270.927307129,0.000144,0.0,0.0,0.0,0.000169,0.0,0.0,0.0,0.002116,2
1668538459645731261,375028,1668538459723737355,gps,2,1,42.3008999982,-83.6990793777,270.926727295,0.000144,0.0,0.0,0.0,0.000169,0.0,0.0,0.0,0.002116,2
1668538459655461130,375029,1668538459733725279,gps,2,1,42.3009000032,-83.6990789169,270.926177979,0.000144,0.0,0.0,0.0,0.000169,0.0,0.0,0.0,0.002116,2
1668538459665415070,375030,1668538459743672687,gps,2,1,42.3009000075,-83.6990784549,270.926055908,0.000144,0.0,0.0,0.0,0.000169,0.0,0.0,0.0,0.002116,2
1668538459675475824,375031,1668538459753706755,gps,2,1,42.3009000121,-83.6990779911,270.925720215,0.000144,0.0,0.0,0.0,0.000169,0.0,0.0,0.0,0.002116,2
1668538459685376594,375032,1668538459763732790,gps,2,1,42.3009000174,-83.6990775281,270.925201416,0.000144,0.0,0.0,0.0,0.000169,0.0,0.0,0.0,0.002116,2
1668538459695263916,375033,1668538459773653625,gps,2,1,42.3009000211,-83.6990770642,270.925201416,0.000144,0.0,0.0,0.0,0.000169,0.0,0.0,0.0,0.002116,2
1668538459705306736,375034,1668538459783658865,gps,2,1,42.3009000249,-83.6990765974,270.924987793,0.000144,0.0,0.0,0.0,0.000169,0.0,0.0,0.0,0.002116,2
1668538459715311645,375035,1668538459793807452,gps,2,1,42.300900029,-83.6990761331,270.924621582,0.000144,0.0,0.0,0.0,0.000169,0.0,0.0,0.0,0.002116,2
1668538459725374769,375036,1668538459803654217,gps,2,1,42.300900032,-83.6990756665,270.924743652,0.000144,0.0,0.0,0.0,0.000169,0.0,0.0,0.0,0.002116,2
1668538459735232871,375037,1668538459813658623,gps,2,1,42.3009000348,-83.6990751976,270.924621582,0.000144,0.0,0.0,0.0,0.000169,0.0,0.0,0.0,0.002116,2
1668538459745358264,375038,1668538459823726484,gps,2,1,42.3009000385,-83.6990747301,270.924407959,0.000144,0.0,0.0,0.0,0.000169,0.0,0.0,0.0,0.002116,2
1668538459755271373,375039,1668538459833647920,gps,2,1,42.3009000408,-83.6990742613,270.9246521,0.000144,0.0,0.0,0.0,0.000169,0.0,0.0,0.0,0.002116,2
1668538459765217609,375040,1668538459843652083,gps,2,1,42.3009000433,-83.6990737898,270.924713135,0.000144,0.0,0.0,0.0,0.000169,0.0,0.0,0.0,0.002116,2
1668538459775300867,375041,1668538459853723863,gps,2,1,42.3009000463,-83.6990733206,270.924621582,0.000144,0.0,0.0,0.0,0.000169,0.0,0.0,0.0,0.002116,2
1668538459785482959,375042,1668538459863666438,gps,2,1,42.3009000481,-83.6990728493,270.925018311,0.000144,0.0,0.0,0.0,0.000169,0.0,0.0,0.0,0.002116,2
1668538459795247932,375043,1668538459873661513,gps,2,1,42.3009000502,-83.6990723755,270.925170898,0.000144,0.0,0.0,0.0,0.000169,0.0,0.0,0.0,0.002116,2
1668538459805343090,375044,1668538459883753847,gps,2,1,42.3009000528,-83.6990719035,270.925262451,0.000144,0.0,0.0,0.0,0.000169,0.0,0.0,0.0,0.002116,2
1668538459815473054,375045,1668538459893651480,gps,2,1,42.3009000537,-83.6990714296,270.925720215,0.000144,0.0,0.0,0.0,0.000169,0.0,0.0,0.0,0.002116,2
1668538459825341752,375046,1668538459903683573,gps,2,1,42.3009000559,-83.6990709527,270.925872803,0.000144,0.0,0.0,0.0,0.000169,0.0,0.0,0.0,0.002116,2
1668538459835497693,375047,1668538459913718515,gps,2,1,42.3009000581,-83.6990704786,270.925994873,0.000144,0.0,0.0,0.0,0.000169,0.0,0.0,0.0,0.002116,2
1668538459845334016,375048,1668538459923655811,gps,2,1,42.3009000593,-83.699070002,270.926422119,0.000144,0.0,0.0,0.0,0.000169,0.0,0.0,0.0,0.002116,2
1668538459855226603,375049,1668538459933641218,gps,2,1,42.3009000617,-83.6990695228,270.926513672,0.000144,0.0,0.0,0.0,0.000169,0.0,0.0,0.0,0.002116,2
1668538459865343107,375050,1668538459943722533,gps,2,1,42.3009000639,-83.6990690455,270.92666626,0.000144,0.0,0.0,0.0,0.000169,0.0,0.0,0.0,0.002116,2
1668538459875393355,375051,1668538459953633385,gps,2,1,42.3009000653,-83.6990685663,270.927001953,0.000144,0.0,0.0,0.0,0.000169,0.0,0.0,0.0,0.002116,2
1668538459885268199,375052,1668538459963650472,gps,2,1,42.3009000679,-83.6990680847,270.926971436,0.000144,0.0,0.0,0.0,0.000169,0.0,0.0,0.0,0.002116,2
1668538459895252078,375053,1668538459973812197,gps,2,1,42.3009000705,-83.699067605,270.927062988,0.000144,0.0,0.0,0.0,0.000169,0.0,0.0,0.0,0.002116,2
1668538459905137196,375054,1668538459983648259,gps,2,1,42.300900072,-83.6990671233,270.927246094,0.000144,0.0,0.0,0.0,0.000169,0.0,0.0,0.0,0.002116,2
1668538459915545294,375055,1668538459993653269,gps,2,1,42.3009000747,-83.699066639,270.927154541,0.000144,0.0,0.0,0.0,0.000169,0.0,0.0,0.0,0.002116,2
1668538459925577602,375056,1668538460003782427,gps,2,1,42.3009000773,-83.699066157,270.927124023,0.000144,0.0,0.0,0.0,0.000169,0.0,0.0,0.0,0.002116,2
1668538459935414683,375057,1668538460013780831,gps,2,1,42.300900079,-83.6990656729,270.927276611,0.000144,0.0,0.0,0.0,0.000169,0.0,0.0,0.0,0.002116,2
1668538459945623874,375058,1668538460023736054,gps,2,1,42.3009000818,-83.6990651863,270.927124023,0.000144,0.0,0.0,0.0,0.000169,0.0,0.0,0.0,0.002116,2
1668538459955304586,375059,1668538460033722660,gps,2,1,42.3009000845,-83.6990647018,270.927032471,0.000144,0.0,0.0,0.0,0.000169,0.0,0.0,0.0,0.002116,2
1668538459965420898,375060,1668538460043824098,gps,2,1,42.3009000849,-83.6990642146,270.927185059,0.000144,0.0,0.0,0.0,0.000169,0.0,0.0,0.0,0.002116,2
1668538459975368697,375061,1668538460053660656,gps,2,1,42.3009000878,-83.6990637258,270.927032471,0.000144,0.0,0.0,0.0,0.000169,0.0,0.0,0.0,0.002116,2
1668538459985431954,375062,1668538460063801099,gps,2,1,42.3009000906,-83.699063239,270.926879883,0.000144,0.0,0.0,0.0,0.000169,0.0,0.0,0.0,0.002116,2
1668538459995394796,375063,1668538460073760514,gps,2,1,42.3009000912,-83.6990627496,270.927032471,0.000144,0.0,0.0,0.0,0.000169,0.0,0.0,0.0,0.002116,2
1668538460005355322,375064,1668538460083677486,gps,2,1,42.3009000942,-83.6990622586,270.926879883,0.000144,0.0,0.0,0.0,0.000169,0.0,0.0,0.0,0.002116,2
1668538460015520272,375065,1668538460093716385,gps,2,1,42.3009000972,-83.6990617693,270.926727295,0.000144,0.0,0.0,0.0,0.000169,0.0,0.0,0.0,0.002116,2
1668538460025329313,375066,1668538460103656119,gps,2,1,42.3009000979,-83.6990612774,270.926879883,0.000144,0.0,0.0,0.0,0.000169,0.0,0.0,0.0,0.002116,2
1668538460035203151,375067,1668538460113647803,gps,2,1,42.3009001013,-83.699060784,270.926696777,0.000144,0.0,0.0,0.0,0.000169,0.0,0.0,0.0,0.002116,2
1668538460045173328,375068,1668538460123741295,gps,2,1,42.3009001043,-83.6990602926,270.926574707,0.000144,0.0,0.0,0.0,0.000169,0.0,0.0,0.0,0.002116,2
1668538460055156205,375069,1668538460133670534,gps,2,1,42.3009001063,-83.6990597978,270.92666626,0.000144,0.0,0.0,0.0,0.000169,0.0,0.0,0.0,0.002116,2
1668538460065638480,375070,1668538460143730021,gps,2,1,42.3009001097,-83.6990593022,270.926544189,0.000144,0.0,0.0,0.0,0.000169,0.0,0.0,0.0,0.002116,2
1668538460075579017,375071,1668538460153663550,gps,2,1,42.3009001129,-83.6990588085,270.926391602,0.000144,0.0,0.0,0.0,0.000169,0.0,0.0,0.0,0.002116,2
1668538460085602047,375072,1668538460163647974,gps,2,1,42.3009001151,-83.6990583115,270.926544189,0.000144,0.0,0.0,0.0,0.000169,0.0,0.0,0.0,0.002116,2
1668538460095471799,375073,1668538460173729564,gps,2,1,42.3009001185,-83.6990578136,270.926483154,0.000144,0.0,0.0,0.0,0.000169,0.0,0.0,0.0,0.002116,2
1668538460105247461,375074,1668538460183651030,gps,2,1,42.3009001219,-83.6990573177,270.926391602,0.000144,0.0,0.0,0.0,0.000169,0.0,0.0,0.0,0.002116,2
1668538460115252740,375075,1668538460193674034,gps,2,1,42.3009001241,-83.6990568186,270.926574707,0.000144,0.0,0.0,0.0,0.000169,0.0,0.0,0.0,0.002116,2
1668538460125367257,375076,1668538460203690912,gps,2,1,42.3009001274,-83.6990563187,270.926574707,0.000144,0.0,0.0,0.0,0.000169,0.0,0.0,0.0,0.002116,2
1668538460135398706,375077,1668538460213741811,gps,2,1,42.3009001307,-83.6990558205,270.926513672,0.000144,0.0,0.0,0.0,0.000169,0.0,0.0,0.0,0.002116,2
1668538460145367859,375078,1668538460223763078,gps,2,1,42.3009001328,-83.6990553195,270.926727295,0.000144,0.0,0.0,0.0,0.000169,0.0,0.0,0.0,0.002116,2
1668538460155498634,375079,1668538460233648245,gps,2,1,42.300900136,-83.6990548176,270.926696777,0.000144,0.0,0.0,0.0,0.000169,0.0,0.0,0.0,0.002116,2
1668538460165222137,375080,1668538460243705378,gps,2,1,42.3009001391,-83.6990543173,270.926727295,0.000144,0.0,0.0,0.0,0.000169,0.0,0.0,0.0,0.002116,2
1668538460175283152,375081,1668538460253680221,gps,2,1,42.300900141,-83.6990538142,270.926879883,0.000144,0.0,0.0,0.0,0.000169,0.0,0.0,0.0,0.002116,2
1668538460185194857,375082,1668538460263662321,gps,2,1,42.3009001439,-83.6990533104,270.926757812,0.000144,0.0,0.0,0.0,0.000169,0.0,0.0,0.0,0.002116,2
1668538460195575981,375083,1668538460273742288,gps,2,1,42.3009001467,-83.6990528081,270.926727295,0.000144,0.0,0.0,0.0,0.000169,0.0,0.0,0.0,0.002116,2
1668538460205014567,375084,1668538460283638255,gps,2,1,42.3009001483,-83.6990523031,270.92678833,0.000144,0.0,0.0,0.0,0.000169,0.0,0.0,0.0,0.002116,2
1668538460215504595,375085,1668538460293893554,gps,2,1,42.3009001508,-83.6990517972,270.926605225,0.000144,0.0,0.0,0.0,0.000169,0.0,0.0,0.0,0.002116,2
1668538460225582018,375086,1668538460303698206,gps,2,1,42.3009001533,-83.6990512929,270.926483154,0.000144,0.0,0.0,0.0,0.000169,0.0,0.0,0.0,0.002116,2
1668538460235546635,375087,1668538460313666754,gps,2,1,42.3009001547,-83.6990507858,270.926422119,0.000144,0.0,0.0,0.0,0.000169,0.0,0.0,0.0,0.002116,2
1668538460245512228,375088,1668538460323729928,gps,2,1,42.3009001568,-83.6990502777,270.926055908,0.000144,0.0,0.0,0.0,0.000169,0.0,0.0,0.0,0.002116,2
1668538460255258080,375089,1668538460333662625,gps,2,1,42.3009001594,-83.6990497711,270.925842285,0.000144,0.0,0.0,0.0,0.000169,0.0,0.0,0.0,0.002116,2
1668538460265234102,375090,1668538460343656776,gps,2,1,42.3009001611,-83.6990492618,270.92565918,0.000144,0.0,0.0,0.0,0.000169,0.0,0.0,0.0,0.002116,2
1668538460275345590,375091,1668538460353662076,gps,2,1,42.3009001641,-83.6990487524,270.925415039,0.000144,0.0,0.0,0.0,0.000169,0.0,0.0,0.0,0.002116,2
1668538460285361767,375092,1668538460363725856,gps,2,1,42.3009001661,-83.6990482439,270.925018311,0.000144,0.0,0.0,0.0,0.000169,0.0,0.0,0.0,0.002116,2
1668538460295299175,375093,1668538460373662983,gps,2,1,42.3009001683,-83.6990477349,270.925140381,0.000144,0.0,0.0,0.0,0.000169,0.0,0.0,0.0,0.002116,2
1668538460305217767,375094,1668538460383651466,gps,2,1,42.3009001714,-83.6990472258,270.925415039,0.000144,0.0,0.0,0.0,0.000169,0.0,0.0,0.0,0.002116,2
1668538460315578677,375095,1668538460393787055,gps,2,1,42.3009001746,-83.6990467161,270.925323486,0.000144,0.0,0.0,0.0,0.000169,0.0,0.0,0.0,0.002116,2
1668538460325660916,375096,1668538460403667241,gps,2,1,42.3009001766,-83.6990462057,270.925872803,0.000144,0.0,0.0,0.0,0.000169,0.0,0.0,0.0,0.002116,2
1668538460335459863,375097,1668538460413731158,gps,2,1,42.3009001789,-83.6990456937,270.926452637,0.000144,0.0,0.0,0.0,0.000169,0.0,0.0,0.0,0.002116,2
1668538460345099569,375098,1668538460423665002,gps,2,1,42.3009001839,-83.699045185,270.926879883,0.000144,0.0,0.0,0.0,0.000169,0.0,0.0,0.0,0.002116,2
1668538460355418993,375099,1668538460433657100,gps,2,1,42.3009001853,-83.699044672,270.927764893,0.000144,0.0,0.0,0.0,0.000169,0.0,0.0,0.0,0.002116,2
1668538460365029991,375100,1668538460443722894,gps,2,1,42.3009001878,-83.6990441584,270.928771973,0.000144,0.0,0.0,0.0,0.000169,0.0,0.0,0.0,0.002116,2
1668538460375045844,375101,1668538460453658266,gps,2,1,42.300900192,-83.699043647,270.929382324,0.000144,0.0,0.0,0.0,0.000169,0.0,0.0,0.0,0.002116,2
1668538460385324960,375102,1668538460463736232,gps,2,1,42.3009001927,-83.6990431331,270.930603027,0.000144,0.0,0.0,0.0,0.000169,0.0,0.0,0.0,0.002116,2
1668538460395399634,375103,1668538460473813666,gps,2,1,42.3009001953,-83.6990426186,270.931854248,0.000144,0.0,0.0,0.0,0.000169,0.0,0.0,0.0,0.002116,2
1668538460405266231,375104,1668538460483643861,gps,2,1,42.3009001983,-83.6990421054,270.932891846,0.000144,0.0,0.0,0.0,0.000169,0.0,0.0,0.0,0.002116,2
1668538460415238066,375105,1668538460493651174,gps,2,1,42.3009001985,-83.6990415898,270.934295654,0.000144,0.0,0.0,0.0,0.000169,0.0,0.0,0.0,0.002116,2
1668538460425386537,375106,1668538460503702260,gps,2,1,42.3009002004,-83.6990410733,270.935699463,0.000144,0.0,0.0,0.0,0.000169,0.0,0.0,0.0,0.002116,2
1668538460435169995,375107,1668538460513744684,gps,2,1,42.3009002019,-83.6990405587,270.936920166,0.000144,0.0,0.0,0.0,0.000169,0.0,0.0,0.0,0.002116,2
1668538460445214177,375108,1668538460523664389,gps,2,1,42.3009002017,-83.6990400414,270.938476562,0.000144,0.0,0.0,0.0,0.000169,0.0,0.0,0.0,0.002116,2
1668538460455191367,375109,1668538460533763303,gps,2,1,42.3009002026,-83.6990395235,270.939910889,0.000144,0.0,0.0,0.0,0.000169,0.0,0.0,0.0,0.002116,2
1668538460465578293,375110,1668538460543897136,gps,2,1,42.3009002037,-83.6990390064,270.941345215,0.000144,0.0,0.0,0.0,0.000169,0.0,0.0,0.0,0.002116,2
1668538460475066187,375111,1668538460553695473,gps,2,1,42.3009002084,-83.6990384794,270.942047119,0.000144,0.0,0.0,0.0,0.000169,0.0,0.0,0.0,0.002116,2
1668538460485437160,375112,1668538460563665982,gps,2,1,42.3009002095,-83.6990379605,270.943511963,0.000144,0.0,0.0,0.0,0.000169,0.0,0.0,0.0,0.002116,2
1668538460495426038,375113,1668538460573710593,gps,2,1,42.3009002108,-83.6990374423,270.944885254,0.000144,0.0,0.0,0.0,0.000169,0.0,0.0,0.0,0.002116,2
1668538460505635883,375114,1668538460583725124,gps,2,1,42.3009002157,-83.6990369145,270.945617676,0.000144,0.0,0.0,0.0,0.000169,0.0,0.0,0.0,0.002116,2
1668538460515496196,375115,1668538460593672084,gps,2,1,42.3009002177,-83.6990363945,270.946960449,0.000144,0.0,0.0,0.0,0.000169,0.0,0.0,0.0,0.002116,2
1668538460525304033,375116,1668538460603706444,gps,2,1,42.3009002189,-83.6990358756,270.948394775,0.000144,0.0,0.0,0.0,0.000169,0.0,0.0,0.0,0.002116,2
1668538460535197187,375117,1668538460613651708,gps,2,1,42.3009002245,-83.699035347,270.949005127,0.000144,0.0,0.0,0.0,0.000169,0.0,0.0,0.0,0.002116,2
1668538460545474763,375118,1668538460623651436,gps,2,1,42.3009002273,-83.6990348259,270.95022583,0.000144,0.0,0.0,0.0,0.000169,0.0,0.0,0.0,0.002116,2
1668538460555170786,375119,1668538460633742365,gps,2,1,42.3009002293,-83.6990343059,270.951538086,0.000144,0.0,0.0,0.0,0.000169,0.0,0.0,0.0,0.002116,2
1668538460565168169,375120,1668538460643640774,gps,2,1,42.3009002355,-83.6990337776,270.952148438,0.000144,0.0,0.0,0.0,0.000169,0.0,0.0,0.0,0.002116,2
1668538460575238323,375121,1668538460653647617,gps,2,1,42.300900239,-83.6990332558,270.95324707,0.000144,0.0,0.0,0.0,0.000169,0.0,0.0,0.0,0.002116,2
1668538460585250500,375122,1668538460663706571,gps,2,1,42.3009002418,-83.6990327346,270.954437256,0.000144,0.0,0.0,0.0,0.000169,0.0,0.0,0.0,0.002116,2
1668538460595307831,375123,1668538460673650729,gps,2,1,42.3009002487,-83.6990322059,270.954925537,0.000144,0.0,0.0,0.0,0.000169,0.0,0.0,0.0,0.002116,2
1668538460605296425,375124,1668538460683650465,gps,2,1,42.3009002527,-83.6990316836,270.955932617,0.000144,0.0,0.0,0.0,0.000169,0.0,0.0,0.0,0.002116,2
1668538460615492280,375125,1668538460693730869,gps,2,1,42.3009002563,-83.6990311616,270.95703125,0.000144,0.0,0.0,0.0,0.000169,0.0,0.0,0.0,0.002116,2
1668538460625029691,375126,1668538460703653236,gps,2,1,42.3009002634,-83.6990306325,270.957489014,0.000144,0.0,0.0,0.0,0.000169,0.0,0.0,0.0,0.002116,2
1668538460635746846,375127,1668538460713789912,gps,2,1,42.3009002676,-83.6990301092,270.958404541,0.000144,0.0,0.0,0.0,0.000169,0.0,0.0,0.0,0.002116,2
1668538460645542690,375128,1668538460723810420,gps,2,1,42.3009002719,-83.6990295867,270.959381104,0.000144,0.0,0.0,0.0,0.000169,0.0,0.0,0.0,0.002116,2
1668538460655416673,375129,1668538460733656005,gps,2,1,42.300900279,-83.6990290569,270.95980835,0.000144,0.0,0.0,0.0,0.000169,0.0,0.0,0.0,0.002116,2
1668538460665036230,375130,1668538460743669052,gps,2,1,42.3009002833,-83.6990285327,270.960754395,0.000144,0.0,0.0,0.0,0.000169,0.0,0.0,0.0,0.002116,2
1668538460675461828,375131,1668538460753740522,gps,2,1,42.3009002875,-83.6990280095,270.961669922,0.000144,0.0,0.0,0.0,0.000169,0.0,0.0,0.0,0.002116,2
1668538460685314890,375132,1668538460763651297,gps,2,1,42.3009002945,-83.699027479,270.962127686,0.000144,0.0,0.0,0.0,0.000169,0.0,0.0,0.0,0.002116,2
1668538460695368404,375133,1668538460773729326,gps,2,1,42.3009002989,-83.699026954,270.963043213,0.000144,0.0,0.0,0.0,0.000169,0.0,0.0,0.0,0.002116,2
1668538460705352303,375134,1668538460783666218,gps,2,1,42.3009003033,-83.6990264298,270.963989258,0.000144,0.0,0.0,0.0,0.000169,0.0,0.0,0.0,0.002116,2
1668538460715283877,375135,1668538460793736806,gps,2,1,42.3009003102,-83.6990258988,270.964447021,0.000144,0.0,0.0,0.0,0.000169,0.0,0.0,0.0,0.002116,2
1668538460725365751,375136,1668538460803656553,gps,2,1,42.3009003146,-83.699025373,270.965393066,0.000144,0.0,0.0,0.0,0.000169,0.0,0.0,0.0,0.002116,2
1668538460735302085,375137,1668538460813748638,gps,2,1,42.300900319,-83.699024848,270.966308594,0.000144,0.0,0.0,0.0,0.000169,0.0,0.0,0.0,0.002116,2
1668538460745207462,375138,1668538460823641255,gps,2,1,42.3009003261,-83.6990243163,270.966796875,0.000144,0.0,0.0,0.0,0.000169,0.0,0.0,0.0,0.002116,2
1668538460755159573,375139,1668538460833652230,gps,2,1,42.3009003309,-83.6990237895,270.967773438,0.000144,0.0,0.0,0.0,0.000169,0.0,0.0,0.0,0.002116,2
1668538460765648422,375140,1668538460843737535,gps,2,1,42.3009003352,-83.6990232638,270.968719482,0.000144,0.0,0.0,0.0,0.000169,0.0,0.0,0.0,0.002116,2
1668538460775548564,375141,1668538460853649830,gps,2,1,42.3009003424,-83.6990227313,270.969268799,0.000144,0.0,0.0,0.0,0.000169,0.0,0.0,0.0,0.002116,2
1668538460785589912,375142,1668538460863651297,gps,2,1,42.3009003474,-83.6990222038,270.970336914,0.000144,0.0,0.0,0.0,0.000169,0.0,0.0,0.0,0.002116,2
1668538460795529624,375143,1668538460873739402,gps,2,1,42.3009003521,-83.6990216769,270.971313477,0.000144,0.0,0.0,0.0,0.000169,0.0,0.0,0.0,0.002116,2
1668538460805432120,375144,1668538460883651230,gps,2,1,42.300900359,-83.6990211439,270.971984863,0.000144,0.0,0.0,0.0,0.000169,0.0,0.0,0.0,0.002116,2
1668538460815350339,375145,1668538460893753687,gps,2,1,42.3009003638,-83.6990206157,270.973114014,0.000144,0.0,0.0,0.0,0.000169,0.0,0.0,0.0,0.002116,2
1668538460825373834,375146,1668538460903659317,gps,2,1,42.3009003686,-83.6990200879,270.974182129,0.000144,0.0,0.0,0.0,0.000169,0.0,0.0,0.0,0.002116,2
1668538460835311133,375147,1668538460913638253,gps,2,1,42.3009003751,-83.6990195543,270.974914551,0.000144,0.0,0.0,0.0,0.000169,0.0,0.0,0.0,0.002116,2
1668538460845316916,375148,1668538460923631391,gps,2,1,42.3009003793,-83.6990190252,270.976013184,0.000144,0.0,0.0,0.0,0.000169,0.0,0.0,0.0,0.002116,2
1668538460855374882,375149,1668538460933695947,gps,2,1,42.3009003838,-83.6990184967,270.977142334,0.000144,0.0,0.0,0.0,0.000169,0.0,0.0,0.0,0.002116,2
1668538460865169003,375150,1668538460943638829,gps,2,1,42.3009003895,-83.6990179624,270.977874756,0.000144,0.0,0.0,0.0,0.000169,0.0,0.0,0.0,0.002116,2
1668538460875219935,375151,1668538460953644666,gps,2,1,42.3009003928,-83.6990174323,270.979003906,0.000144,0.0,0.0,0.0,0.000169,0.0,0.0,0.0,0.002116,2
1668538460885155794,375152,1668538460963705691,gps,2,1,42.3009003971,-83.6990169031,270.980133057,0.000144,0.0,0.0,0.0,0.000169,0.0,0.0,0.0,0.002116,2
1668538460895559271,375153,1668538460973733046,gps,2,1,42.3009004019,-83.6990163679,270.980865479,0.000144,0.0,0.0,0.0,0.000169,0.0,0.0,0.0,0.002116,2
1668538460905133277,375154,1668538460983636016,gps,2,1,42.3009004044,-83.699015837,270.981964111,0.000144,0.0,0.0,0.0,0.000169,0.0,0.0,0.0,0.002116,2
1668538460915388302,375155,1668538460993713360,gps,2,1,42.3009004078,-83.6990153069,270.983062744,0.000144,0.0,0.0,0.0,0.000169,0.0,0.0,0.0,0.002116,2
1668538460925472986,375156,1668538461003716899,gps,2,1,42.3009004118,-83.6990147703,270.984100342,0.000144,0.0,0.0,0.0,0.000169,0.0,0.0,0.0,0.002116,2
1668538460935460859,375157,1668538461013721683,gps,2,1,42.3009004139,-83.6990142385,270.985168457,0.000144,0.0,0.0,0.0,0.000169,0.0,0.0,0.0,0.002116,2
1668538460945362578,375158,1668538461023729912,gps,2,1,42.3009004163,-83.6990137075,270.98626709,0.000144,0.0,0.0,0.0,0.000169,0.0,0.0,0.0,0.002116,2
1668538460955336519,375159,1668538461033696285,gps,2,1,42.3009004199,-83.6990131701,270.987243652,0.000144,0.0,0.0,0.0,0.000169,0.0,0.0,0.0,0.002116,2
1668538460965345868,375160,1668538461043804854,gps,2,1,42.3009004219,-83.6990126375,270.98828125,0.000144,0.0,0.0,0.0,0.000169,0.0,0.0,0.0,0.002116,2
1668538460975317353,375161,1668538461053712936,gps,2,1,42.300900424,-83.6990121055,270.989318848,0.000144,0.0,0.0,0.0,0.000169,0.0,0.0,0.0,0.002116,2
1668538460985456657,375162,1668538461063708851,gps,2,1,42.3009004276,-83.6990115675,270.99029541,0.000144,0.0,0.0,0.0,0.000169,0.0,0.0,0.0,0.002116,2
1668538460995268705,375163,1668538461073657032,gps,2,1,42.3009004299,-83.6990110342,270.991333008,0.000144,0.0,0.0,0.0,0.000169,0.0,0.0,0.0,0.002116,2
1668538461005216141,375164,1668538461083697739,gps,2,1,42.3009004318,-83.6990105015,270.992340088,0.000144,0.0,0.0,0.0,0.000169,0.0,0.0,0.0,0.002116,2
1668538461015156911,375165,1668538461093638568,gps,2,1,42.3009004358,-83.699009963,270.99331665,0.000144,0.0,0.0,0.0,0.000169,0.0,0.0,0.0,0.002116,2
1668538461025174304,375166,1668538461103722826,gps,2,1,42.3009004388,-83.6990094291,270.994354248,0.000144,0.0,0.0,0.0,0.000169,0.0,0.0,0.0,0.002116,2
1668538461035118569,375167,1668538461113649176,gps,2,1,42.3009004413,-83.6990088956,270.995391846,0.000144,0.0,0.0,0.0,0.000169,0.0,0.0,0.0,0.002116,2
1668538461045165755,375168,1668538461123637853,gps,2,1,42.3009004461,-83.6990083562,270.996337891,0.000144,0.0,0.0,0.0,0.000169,0.0,0.0,0.0,0.002116,2
1668538461055032252,375169,1668538461133646459,gps,2,1,42.3009004499,-83.6990078215,270.997375488,0.000144,0.0,0.0,0.0,0.000169,0.0,0.0,0.0,0.002116,2
1668538461065041719,375170,1668538461143699178,gps,2,1,42.3009004529,-83.6990072875,270.998413086,0.000144,0.0,0.0,0.0,0.000169,0.0,0.0,0.0,0.002116,2
1668538461075387650,375171,1668538461153630986,gps,2,1,42.3009004584,-83.6990067477,270.999389648,0.000144,0.0,0.0,0.0,0.000169,0.0,0.0,0.0,0.002116,2
1668538461085491932,375172,1668538461163633980,gps,2,1,42.3009004629,-83.6990062127,271.000488281,0.000144,0.0,0.0,0.0,0.000169,0.0,0.0,0.0,0.002116,2
1668538461095381504,375173,1668538461173702803,gps,2,1,42.3009004666,-83.6990056781,271.001556396,0.000144,0.0,0.0,0.0,0.000169,0.0,0.0,0.0,0.002116,2
1668538461105331846,375174,1668538461183638279,gps,2,1,42.3009004726,-83.6990051379,271.002563477,0.000144,0.0,0.0,0.0,0.000169,0.0,0.0,0.0,0.002116,2
1668538461115284488,375175,1668538461193671217,gps,2,1,42.3009004772,-83.6990046023,271.003723145,0.000144,0.0,0.0,0.0,0.000169,0.0,0.0,0.0,0.002116,2
1668538461125441893,375176,1668538461203707399,gps,2,1,42.3009004818,-83.6990040673,271.004821777,8.1e-05,0.0,0.0,0.0,0.0001,0.0,0.0,0.0,0.002025,2
1668538461135323957,375177,1668538461213644591,gps,2,1,42.300900488,-83.6990035269,271.005889893,8.1e-05,0.0,0.0,0.0,0.0001,0.0,0.0,0.0,0.002025,2
1668538461145341699,375178,1668538461223707594,gps,2,1,42.3009004929,-83.6990029911,271.007019043,8.1e-05,0.0,0.0,0.0,0.0001,0.0,0.0,0.0,0.002025,2
1668538461155312247,375179,1668538461233696053,gps,2,1,42.3009004979,-83.6990024554,271.008148193,8.1e-05,0.0,0.0,0.0,0.0001,0.0,0.0,0.0,0.002025,2
1668538461165265603,375180,1668538461243620356,gps,2,1,42.300900504,-83.6990019146,271.009216309,8.1e-05,0.0,0.0,0.0,0.0001,0.0,0.0,0.0,0.002025,2
1668538461175172220,375181,1668538461253729032,gps,2,1,42.300900509,-83.6990013782,271.010345459,8.1e-05,0.0,0.0,0.0,0.0001,0.0,0.0,0.0,0.002025,2
1668538461185029365,375182,1668538461263642344,gps,2,1,42.3009005141,-83.6990008424,271.011535645,8.1e-05,0.0,0.0,0.0,0.0001,0.0,0.0,0.0,0.002025,2
1668538461195019411,375183,1668538461273626540,gps,2,1,42.3009005201,-83.6990003014,271.01260376,8.1e-05,0.0,0.0,0.0,0.0001,0.0,0.0,0.0,0.002025,2
1668538461205427270,375184,1668538461283642467,gps,2,1,42.3009005248,-83.6989997646,271.013793945,8.1e-05,0.0,0.0,0.0,0.0001,0.0,0.0,0.0,0.002025,2
1668538461215444522,375185,1668538461293857117,gps,2,1,42.3009005294,-83.6989992282,271.014953613,8.1e-05,0.0,0.0,0.0,0.0001,0.0,0.0,0.0,0.002025,2
1668538461225454353,375186,1668538461303668837,gps,2,1,42.3009005353,-83.6989986867,271.016113281,8.1e-05,0.0,0.0,0.0,0.0001,0.0,0.0,0.0,0.002025,2
1668538461235194172,375187,1668538461313667456,gps,2,1,42.3009005396,-83.6989981493,271.017364502,8.1e-05,0.0,0.0,0.0,0.0001,0.0,0.0,0.0,0.002025,2
1668538461245249543,375188,1668538461323692544,gps,2,1,42.3009005441,-83.6989976124,271.018554688,8.1e-05,0.0,0.0,0.0,0.0001,0.0,0.0,0.0,0.002025,2
1668538461255271040,375189,1668538461333643301,gps,2,1,42.3009005497,-83.6989970706,271.019744873,8.1e-05,0.0,0.0,0.0,0.0001,0.0,0.0,0.0,0.002025,2
1668538461265181561,375190,1668538461343646459,gps,2,1,42.3009005539,-83.6989965326,271.021087646,8.1e-05,0.0,0.0,0.0,0.0001,0.0,0.0,0.0,0.002025,2
1668538461275323751,375191,1668538461353704923,gps,2,1,42.3009005585,-83.6989959953,271.022369385,8.1e-05,0.0,0.0,0.0,0.0001,0.0,0.0,0.0,0.002025,2
1668538461285292952,375192,1668538461363614148,gps,2,1,42.300900564,-83.698995453,271.023620605,8.1e-05,0.0,0.0,0.0,0.0001,0.0,0.0,0.0,0.002025,2
1668538461295226857,375193,1668538461373623618,gps,2,1,42.3009005682,-83.6989949146,271.024963379,8.1e-05,0.0,0.0,0.0,0.0001,0.0,0.0,0.0,0.002025,2
1668538461305205983,375194,1668538461383711241,gps,2,1,42.3009005727,-83.6989943767,271.026306152,8.1e-05,0.0,0.0,0.0,0.0001,0.0,0.0,0.0,0.002025,2
1668538461315068736,375195,1668538461393625750,gps,2,1,42.300900577,-83.6989938352,271.027740479,8.1e-05,0.0,0.0,0.0,0.0001,0.0,0.0,0.0,0.002025,2
1668538461325123914,375196,1668538461403697918,gps,2,1,42.3009005812,-83.6989932962,271.029083252,8.1e-05,0.0,0.0,0.0,0.0001,0.0,0.0,0.0,0.002025,2
1668538461335566256,375197,1668538461413711648,gps,2,1,42.3009005856,-83.6989927577,271.030456543,8.1e-05,0.0,0.0,0.0,0.0001,0.0,0.0,0.0,0.002025,2
1668538461345453623,375198,1668538461423631047,gps,2,1,42.30090059,-83.6989922156,271.031860352,8.1e-05,0.0,0.0,0.0,0.0001,0.0,0.0,0.0,0.002025,2
1668538461355500109,375199,1668538461433640196,gps,2,1,42.3009005943,-83.6989916762,271.033203125,8.1e-05,0.0,0.0,0.0,0.0001,0.0,0.0,0.0,0.002025,2
1668538461365319014,375200,1668538461443713341,gps,2,1,42.3009005987,-83.6989911373,271.034576416,8.1e-05,0.0,0.0,0.0,0.0001,0.0,0.0,0.0,0.002025,2
1668538461375566159,375201,1668538461453653687,gps,2,1,42.300900603,-83.6989905949,271.035980225,8.1e-05,0.0,0.0,0.0,0.0001,0.0,0.0,0.0,0.002025,2
1668538461385401613,375202,1668538461463722807,gps,2,1,42.3009006075,-83.6989900552,271.037322998,8.1e-05,0.0,0.0,0.0,0.0001,0.0,0.0,0.0,0.002025,2
1668538461395480525,375203,1668538461473797960,gps,2,1,42.3009006118,-83.6989895156,271.038665771,8.1e-05,0.0,0.0,0.0,0.0001,0.0,0.0,0.0,0.002025,2
1668538461405347227,375204,1668538461483627289,gps,2,1,42.3009006162,-83.6989889728,271.04006958,8.1e-05,0.0,0.0,0.0,0.0001,0.0,0.0,0.0,0.002025,2
1668538461415300158,375205,1668538461493676416,gps,2,1,42.3009006207,-83.6989884324,271.041412354,8.1e-05,0.0,0.0,0.0,0.0001,0.0,0.0,0.0,0.002025,2
1668538461425419802,375206,1668538461503726432,gps,2,1,42.300900625,-83.6989878926,271.042755127,8.1e-05,0.0,0.0,0.0,0.0001,0.0,0.0,0.0,0.002025,2
1668538461435351735,375207,1668538461513738188,gps,2,1,42.3009006293,-83.6989873495,271.044158936,8.1e-05,0.0,0.0,0.0,0.0001,0.0,0.0,0.0,0.002025,2
1668538461445470411,375208,1668538461523639984,gps,2,1,42.3009006336,-83.6989868087,271.045501709,8.1e-05,0.0,0.0,0.0,0.0001,0.0,0.0,0.0,0.002025,2
1668538461455585623,375209,1668538461533758219,gps,2,1,42.3009006377,-83.6989862683,271.046813965,8.1e-05,0.0,0.0,0.0,0.0001,0.0,0.0,0.0,0.002025,2
1668538461465634961,375210,1668538461543840066,gps,2,1,42.3009006383,-83.6989857292,271.048919678,8.1e-05,0.0,0.0,0.0,0.0001,0.0,0.0,0.0,0.002025,2
1668538461475620915,375211,1668538461553727149,gps,2,1,42.3009006423,-83.698985188,271.050262451,8.1e-05,0.0,0.0,0.0,0.0001,0.0,0.0,0.0,0.002025,2
1668538461485509379,375212,1668538461563635464,gps,2,1,42.3009006465,-83.6989846474,271.051605225,8.1e-05,0.0,0.0,0.0,0.0001,0.0,0.0,0.0,0.002025,2
1668538461495542393,375213,1668538461573617741,gps,2,1,42.300900647,-83.6989841078,271.053588867,8.1e-05,0.0,0.0,0.0,0.0001,0.0,0.0,0.0,0.002025,2
1668538461505417161,375214,1668538461583729584,gps,2,1,42.3009006508,-83.6989835666,271.054901123,8.1e-05,0.0,0.0,0.0,0.0001,0.0,0.0,0.0,0.002025,2
1668538461515264998,375215,1668538461593656378,gps,2,1,42.3009006548,-83.6989830256,271.056213379,8.1e-05,0.0,0.0,0.0,0.0001,0.0,0.0,0.0,0.002025,2
1668538461525364383,375216,1668538461603635205,gps,2,1,42.3009006552,-83.6989824857,271.058135986,8.1e-05,0.0,0.0,0.0,0.0001,0.0,0.0,0.0,0.002025,2
1668538461535339035,375217,1668538461613634870,gps,2,1,42.3009006587,-83.6989819442,271.059387207,8.1e-05,0.0,0.0,0.0,0.0001,0.0,0.0,0.0,0.002025,2
1668538461545425882,375218,1668538461623710389,gps,2,1,42.3009006624,-83.6989814028,271.060668945,8.1e-05,0.0,0.0,0.0,0.0001,0.0,0.0,0.0,0.002025,2
1668538461555313339,375219,1668538461633619769,gps,2,1,42.300900663,-83.6989808626,271.062530518,8.1e-05,0.0,0.0,0.0,0.0001,0.0,0.0,0.0,0.002025,2
1668538461565407579,375220,1668538461643625003,gps,2,1,42.3009006665,-83.6989803205,271.063720703,8.1e-05,0.0,0.0,0.0,0.0001,0.0,0.0,0.0,0.002025,2
1668538461575386620,375221,1668538461653684553,gps,2,1,42.3009006701,-83.6989797789,271.064941406,8.1e-05,0.0,0.0,0.0,0.0001,0.0,0.0,0.0,0.002025,2
1668538461585179563,375222,1668538461663619701,gps,2,1,42.3009006709,-83.6989792381,271.066741943,8.1e-05,0.0,0.0,0.0,0.0001,0.0,0.0,0.0,0.002025,2
1668538461595441810,375223,1668538461673628686,gps,2,1,42.3009006749,-83.6989786955,271.067871094,8.1e-05,0.0,0.0,0.0,0.0001,0.0,0.0,0.0,0.002025,2
1668538461605112764,375224,1668538461683687076,gps,2,1,42.3009006784,-83.6989781537,271.069061279,8.1e-05,0.0,0.0,0.0,0.0001,0.0,0.0,0.0,0.002025,2
1668538461615067989,375225,1668538461693641679,gps,2,1,42.3009006799,-83.6989776124,271.070800781,8.1e-05,0.0,0.0,0.0,0.0001,0.0,0.0,0.0,0.002025,2
1668538461625488870,375226,1668538461703699975,gps,2,1,42.3009006844,-83.6989770693,271.071899414,8.1e-05,0.0,0.0,0.0,0.0001,0.0,0.0,0.0,0.002025,2
1668538461635484974,375227,1668538461713640968,gps,2,1,42.3009006886,-83.6989765266,271.073059082,8.1e-05,0.0,0.0,0.0,0.0001,0.0,0.0,0.0,0.002025,2
1668538461645355038,375228,1668538461723733707,gps,2,1,42.3009006907,-83.6989759844,271.074737549,8.1e-05,0.0,0.0,0.0,0.0001,0.0,0.0,0.0,0.002025,2
1668538461655468097,375229,1668538461733695703,gps,2,1,42.300900696,-83.6989754406,271.075836182,8.1e-05,0.0,0.0,0.0,0.0001,0.0,0.0,0.0,0.002025,2
1668538461665386553,375230,1668538461743635534,gps,2,1,42.3009007007,-83.6989748974,271.076965332,8.1e-05,0.0,0.0,0.0,0.0001,0.0,0.0,0.0,0.002025,2
1668538461675491133,375231,1668538461753643505,gps,2,1,42.3009007035,-83.6989743546,271.078582764,8.1e-05,0.0,0.0,0.0,0.0001,0.0,0.0,0.0,0.002025,2
1668538461685339811,375232,1668538461763647789,gps,2,1,42.3009007092,-83.6989738102,271.079711914,8.1e-05,0.0,0.0,0.0,0.0001,0.0,0.0,0.0,0.002025,2
1668538461695517958,375233,1668538461773676957,gps,2,1,42.3009007144,-83.6989732662,271.080810547,8.1e-05,0.0,0.0,0.0,0.0001,0.0,0.0,0.0,0.002025,2
1668538461705256600,375234,1668538461783609160,gps,2,1,42.3009007176,-83.6989727226,271.082427979,8.1e-05,0.0,0.0,0.0,0.0001,0.0,0.0,0.0,0.002025,2
1668538461715264025,375235,1668538461793738846,gps,2,1,42.3009007234,-83.6989721777,271.083557129,8.1e-05,0.0,0.0,0.0,0.0001,0.0,0.0,0.0,0.002025,2
1668538461725274501,375236,1668538461803672264,gps,2,1,42.300900729,-83.6989716331,271.084625244,8.1e-05,0.0,0.0,0.0,0.0001,0.0,0.0,0.0,0.002025,2
1668538461735255887,375237,1668538461813626550,gps,2,1,42.3009007323,-83.6989710891,271.086273193,8.1e-05,0.0,0.0,0.0,0.0001,0.0,0.0,0.0,0.002025,2
1668538461745116113,375238,1668538461823681830,gps,2,1,42.3009007379,-83.6989705435,271.087402344,8.1e-05,0.0,0.0,0.0,0.0001,0.0,0.0,0.0,0.002025,2
1668538461755618069,375239,1668538461833638474,gps,2,1,42.3009007434,-83.6989699985,271.088562012,8.1e-05,0.0,0.0,0.0,0.0001,0.0,0.0,0.0,0.002025,2
1668538461765021106,375240,1668538461843614594,gps,2,1,42.3009007464,-83.698969454,271.090209961,8.1e-05,0.0,0.0,0.0,0.0001,0.0,0.0,0.0,0.002025,2
1668538461775288546,375241,1668538461853735353,gps,2,1,42.3009007515,-83.698968908,271.091430664,8.1e-05,0.0,0.0,0.0,0.0001,0.0,0.0,0.0,0.002025,2
1668538461785479438,375242,1668538461863630725,gps,2,1,42.300900757,-83.6989683621,271.092590332,8.1e-05,0.0,0.0,0.0,0.0001,0.0,0.0,0.0,0.002025,2
1668538461795568828,375243,1668538461873633987,gps,2,1,42.3009007574,-83.6989678168,271.094268799,8.1e-05,0.0,0.0,0.0,0.0001,0.0,0.0,0.0,0.002025,2
1668538461805329599,375244,1668538461883632918,gps,2,1,42.3009007617,-83.6989672703,271.095550537,8.1e-05,0.0,0.0,0.0,0.0001,0.0,0.0,0.0,0.002025,2
1668538461815310569,375245,1668538461893698352,gps,2,1,42.3009007666,-83.6989667243,271.096740723,8.1e-05,0.0,0.0,0.0,0.0001,0.0,0.0,0.0,0.002025,2
1668538461825387870,375246,1668538461903626154,gps,2,1,42.3009007665,-83.6989661786,271.098449707,8.1e-05,0.0,0.0,0.0,0.0001,0.0,0.0,0.0,0.002025,2
1668538461835313927,375247,1668538461913645788,gps,2,1,42.3009007702,-83.6989656316,271.099731445,8.1e-05,0.0,0.0,0.0,0.0001,0.0,0.0,0.0,0.002025,2
1668538461845363647,375248,1668538461923682248,gps,2,1,42.3009007744,-83.6989650851,271.100982666,8.1e-05,0.0,0.0,0.0,0.0001,0.0,0.0,0.0,0.002025,2
1668538461855316104,375249,1668538461933615166,gps,2,1,42.3009007738,-83.698964539,271.102661133,8.1e-05,0.0,0.0,0.0,0.0001,0.0,0.0,0.0,0.002025,2
1668538461865229957,375250,1668538461943612504,gps,2,1,42.300900777,-83.6989639919,271.103942871,8.1e-05,0.0,0.0,0.0,0.0001,0.0,0.0,0.0,0.002025,2
1668538461875262724,375251,1668538461953675029,gps,2,1,42.3009007806,-83.6989634448,271.105194092,8.1e-05,0.0,0.0,0.0,0.0001,0.0,0.0,0.0,0.002025,2
1668538461885183730,375252,1668538461963647522,gps,2,1,42.3009007796,-83.6989628982,271.106872559,8.1e-05,0.0,0.0,0.0,0.0001,0.0,0.0,0.0,0.002025,2
1668538461895682158,375253,1668538461973783858,gps,2,1,42.3009007824,-83.6989623505,271.108123779,8.1e-05,0.0,0.0,0.0,0.0001,0.0,0.0,0.0,0.002025,2
1668538461905445940,375254,1668538461983643634,gps,2,1,42.3009007855,-83.6989618031,271.109405518,8.1e-05,0.0,0.0,0.0,0.0001,0.0,0.0,0.0,0.002025,2
1668538461915558070,375255,1668538461993675868,gps,2,1,42.3009007843,-83.6989612561,271.111022949,8.1e-05,0.0,0.0,0.0,0.0001,0.0,0.0,0.0,0.002025,2
1668538461925440923,375256,1668538462003759524,gps,2,1,42.300900787,-83.6989607081,271.11227417,8.1e-05,0.0,0.0,0.0,0.0001,0.0,0.0,0.0,0.002025,2
1668538461935307453,375257,1668538462013694176,gps,2,1,42.3009007898,-83.6989601605,271.113494873,8.1e-05,0.0,0.0,0.0,0.0001,0.0,0.0,0.0,0.002025,2
1668538461945372624,375258,1668538462023708815,gps,2,1,42.3009007811,-83.6989596145,271.115753174,8.1e-05,0.0,0.0,0.0,0.0001,0.0,0.0,0.0,0.002025,2
1668538461955298165,375259,1668538462033695188,gps,2,1,42.3009007837,-83.6989590664,271.117004395,8.1e-05,0.0,0.0,0.0,0.0001,0.0,0.0,0.0,0.002025,2
1668538461965421222,375260,1668538462043803009,gps,2,1,42.3009007863,-83.6989585183,271.11819458,8.1e-05,0.0,0.0,0.0,0.0001,0.0,0.0,0.0,0.002025,2
1668538461975449321,375261,1668538462053678735,gps,2,1,42.300900778,-83.698957972,271.120422363,8.1e-05,0.0,0.0,0.0,0.0001,0.0,0.0,0.0,0.002025,2
1668538461985384582,375262,1668538462063720154,gps,2,1,42.3009007805,-83.6989574233,271.121612549,8.1e-05,0.0,0.0,0.0,0.0001,0.0,0.0,0.0,0.002025,2
1668538461995342818,375263,1668538462073680209,gps,2,1,42.3009007833,-83.6989568749,271.12286377,8.1e-05,0.0,0.0,0.0,0.0001,0.0,0.0,0.0,0.002025,2
1668538462005304409,375264,1668538462083655426,gps,2,1,42.3009007754,-83.698956328,271.125,8.1e-05,0.0,0.0,0.0,0.0001,0.0,0.0,0.0,0.002025,2
1668538462015267732,375265,1668538462093717658,gps,2,1,42.3009007781,-83.6989557788,271.126190186,8.1e-05,0.0,0.0,0.0,0.0001,0.0,0.0,0.0,0.002025,2
1668538462025348576,375266,1668538462103695408,gps,2,1,42.3009007808,-83.6989552302,271.127380371,8.1e-05,0.0,0.0,0.0,0.0001,0.0,0.0,0.0,0.002025,2
1668538462035254388,375267,1668538462113679046,gps,2,1,42.3009007732,-83.6989546828,271.129486084,8.1e-05,0.0,0.0,0.0,0.0001,0.0,0.0,0.0,0.002025,2
1668538462045663544,375268,1668538462123706244,gps,2,1,42.3009007761,-83.6989541332,271.130645752,8.1e-05,0.0,0.0,0.0,0.0001,0.0,0.0,0.0,0.002025,2
1668538462055465376,375269,1668538462133679212,gps,2,1,42.3009007786,-83.698953584,271.131835938,8.1e-05,0.0,0.0,0.0,0.0001,0.0,0.0,0.0,0.002025,2
1668538462065468988,375270,1668538462143689132,gps,2,1,42.3009007716,-83.6989530361,271.133911133,8.1e-05,0.0,0.0,0.0,0.0001,0.0,0.0,0.0,0.002025,2
1668538462075423986,375271,1668538462153721064,gps,2,1,42.3009007741,-83.6989524864,271.135070801,8.1e-05,0.0,0.0,0.0,0.0001,0.0,0.0,0.0,0.002025,2
1668538462085579339,375272,1668538462163701577,gps,2,1,42.3009007768,-83.6989519364,271.136260986,8.1e-05,0.0,0.0,0.0,0.0001,0.0,0.0,0.0,0.002025,2
1668538462095550896,375273,1668538462173712271,gps,2,1,42.3009007698,-83.6989513881,271.138275146,8.1e-05,0.0,0.0,0.0,0.0001,0.0,0.0,0.0,0.002025,2
1668538462105405878,375274,1668538462183720613,gps,2,1,42.3009007721,-83.6989508377,271.139434814,8.1e-05,0.0,0.0,0.0,0.0001,0.0,0.0,0.0,0.002025,2
1668538462115341148,375275,1668538462193704218,gps,2,1,42.3009007746,-83.6989502878,271.140655518,8.1e-05,0.0,0.0,0.0,0.0001,0.0,0.0,0.0,0.002025,2
1668538462125331440,375276,1668538462203628612,gps,2,1,42.3009007676,-83.6989497391,271.142669678,0.000144,0.0,0.0,0.0,0.000169,0.0,0.0,0.0,0.002116,2
1668538462135323864,375277,1668538462213615576,gps,2,1,42.3009007698,-83.6989491885,271.143920898,0.000144,0.0,0.0,0.0,0.000169,0.0,0.0,0.0,0.002116,2
1668538462145234641,375278,1668538462223789398,gps,2,1,42.300900772,-83.698948638,271.145141602,0.000144,0.0,0.0,0.0,0.000169,0.0,0.0,0.0,0.002116,2
1668538462155377286,375279,1668538462233620180,gps,2,1,42.3009007651,-83.698948089,271.147186279,0.000144,0.0,0.0,0.0,0.000169,0.0,0.0,0.0,0.002116,2
1668538462165291116,375280,1668538462243653704,gps,2,1,42.300900767,-83.6989475379,271.14855957,0.000144,0.0,0.0,0.0,0.000169,0.0,0.0,0.0,0.002116,2
1668538462175238764,375281,1668538462253700726,gps,2,1,42.300900769,-83.6989469875,271.149810791,0.000144,0.0,0.0,0.0,0.000169,0.0,0.0,0.0,0.002116,2
1668538462185117206,375282,1668538462263629745,gps,2,1,42.3009007621,-83.698946438,271.151916504,0.000144,0.0,0.0,0.0,0.000169,0.0,0.0,0.0,0.002116,2
1668538462195087995,375283,1668538462273620607,gps,2,1,42.3009007638,-83.6989458867,271.153259277,0.000144,0.0,0.0,0.0,0.000169,0.0,0.0,0.0,0.002116,2
1668538462205505202,375284,1668538462283673585,gps,2,1,42.3009007657,-83.698945336,271.154602051,0.000144,0.0,0.0,0.0,0.000169,0.0,0.0,0.0,0.002116,2
1668538462215343231,375285,1668538462293725000,gps,2,1,42.3009007591,-83.6989447862,271.156646729,0.000144,0.0,0.0,0.0,0.000169,0.0,0.0,0.0,0.002116,2
1668538462225553883,375286,1668538462303633756,gps,2,1,42.3009007606,-83.6989442347,271.157989502,0.000144,0.0,0.0,0.0,0.000169,0.0,0.0,0.0,0.002116,2
1668538462235416542,375287,1668538462313719645,gps,2,1,42.3009007625,-83.6989436832,271.159301758,0.000144,0.0,0.0,0.0,0.000169,0.0,0.0,0.0,0.002116,2
1668538462245398280,375288,1668538462323618183,gps,2,1,42.3009007561,-83.698943133,271.1612854,0.000144,0.0,0.0,0.0,0.000169,0.0,0.0,0.0,0.002116,2
1668538462255347783,375289,1668538462333629126,gps,2,1,42.3009007577,-83.6989425813,271.162506104,0.000144,0.0,0.0,0.0,0.000169,0.0,0.0,0.0,0.002116,2
1668538462265339098,375290,1668538462343730489,gps,2,1,42.3009007595,-83.6989420292,271.163818359,0.000144,0.0,0.0,0.0,0.000169,0.0,0.0,0.0,0.002116,2
1668538462275379778,375291,1668538462353629804,gps,2,1,42.3009007532,-83.6989414788,271.165679932,0.000144,0.0,0.0,0.0,0.000169,0.0,0.0,0.0,0.002116,2
1668538462285251768,375292,1668538462363614231,gps,2,1,42.3009007549,-83.6989409264,271.1668396,0.000144,0.0,0.0,0.0,0.000169,0.0,0.0,0.0,0.002116,2
1668538462295399007,375293,1668538462373676468,gps,2,1,42.3009007564,-83.6989403743,271.168029785,0.000144,0.0,0.0,0.0,0.000169,0.0,0.0,0.0,0.002116,2
