%time,field.header.seq,field.header.stamp,field.header.frame_id,field.status.status,field.status.service,field.latitude,field.longitude,field.altitude,field.position_covariance0,field.position_covariance1,field.position_covariance2,field.position_covariance3,field.position_covariance4,field.position_covariance5,field.position_covariance6,field.position_covariance7,field.position_covariance8,field.position_covariance_type
1668536787614675494,207825,1668536787764557202,gps,2,1,42.3009729534,-83.6979642678,272.107086182,0.000121,0.0,0.0,0.0,0.000121,0.0,0.0,0.0,0.004356,2
1668536787624964319,207826,1668536787774672441,gps,2,1,42.300972954,-83.6979642675,272.107055664,0.000121,0.0,0.0,0.0,0.000121,0.0,0.0,0.0,0.004356,2
1668536787635023522,207827,1668536787784589293,gps,2,1,42.3009729546,-83.6979642671,272.107055664,0.000121,0.0,0.0,0.0,0.000121,0.0,0.0,0.0,0.004356,2
1668536787644737549,207828,1668536787794537954,gps,2,1,42.3009729536,-83.6979642677,272.106872559,0.000121,0.0,0.0,0.0,0.000121,0.0,0.0,0.0,0.004356,2
1668536787654737071,207829,1668536787804613386,gps,2,1,42.3009729542,-83.6979642675,272.106842041,0.000121,0.0,0.0,0.0,0.000121,0.0,0.0,0.0,0.004356,2
1668536787664744154,207830,1668536787814558803,gps,2,1,42.3009729545,-83.6979642671,272.106842041,0.000121,0.0,0.0,0.0,0.000121,0.0,0.0,0.0,0.004356,2
1668536787674897107,207831,1668536787824562715,gps,2,1,42.3009729535,-83.6979642676,272.106658936,0.000121,0.0,0.0,0.0,0.000121,0.0,0.0,0.0,0.004356,2
1668536787684617436,207832,1668536787834623116,gps,2,1,42.3009729539,-83.6979642672,272.106658936,0.000121,0.0,0.0,0.0,0.000121,0.0,0.0,0.0,0.004356,2
1668536787694846467,207833,1668536787844568979,gps,2,1,42.3009729542,-83.6979642671,272.106658936,0.000121,0.0,0.0,0.0,0.000121,0.0,0.0,0.0,0.004356,2
1668536787704629954,207834,1668536787854569522,gps,2,1,42.3009729532,-83.6979642674,272.10647583,0.000121,0.0,0.0,0.0,0.000121,0.0,0.0,0.0,0.004356,2
1668536787714638883,207835,1668536787864574368,gps,2,1,42.3009729536,-83.6979642669,272.106506348,0.000121,0.0,0.0,0.0,0.000121,0.0,0.0,0.0,0.004356,2
1668536787724836990,207836,1668536787874645930,gps,2,1,42.3009729539,-83.697964267,272.10647583,0.000121,0.0,0.0,0.0,0.000121,0.0,0.0,0.0,0.004356,2
1668536787735006671,207837,1668536787884624020,gps,2,1,42.300972953,-83.6979642671,272.106292725,0.000121,0.0,0.0,0.0,0.000121,0.0,0.0,0.0,0.004356,2
1668536787744942547,207838,1668536787894641416,gps,2,1,42.3009729534,-83.6979642669,272.106292725,0.000121,0.0,0.0,0.0,0.000121,0.0,0.0,0.0,0.004356,2
1668536787754805653,207839,1668536787904649529,gps,2,1,42.3009729538,-83.6979642664,272.106292725,0.000121,0.0,0.0,0.0,0.000121,0.0,0.0,0.0,0.004356,2
1668536787764667618,207840,1668536787914571413,gps,2,1,42.3009729529,-83.6979642665,272.106109619,0.000121,0.0,0.0,0.0,0.000121,0.0,0.0,0.0,0.004356,2
1668536787774779040,207841,1668536787924651616,gps,2,1,42.3009729533,-83.6979642661,272.106109619,0.000121,0.0,0.0,0.0,0.000121,0.0,0.0,0.0,0.004356,2
1668536787784819943,207842,1668536787934574269,gps,2,1,42.3009729539,-83.6979642654,272.106079102,0.000121,0.0,0.0,0.0,0.000121,0.0,0.0,0.0,0.004356,2
1668536787794901054,207843,1668536787944562712,gps,2,1,42.3009729532,-83.6979642654,272.105926514,0.000121,0.0,0.0,0.0,0.000121,0.0,0.0,0.0,0.004356,2
1668536787804691578,207844,1668536787954629560,gps,2,1,42.3009729538,-83.6979642645,272.105895996,0.000121,0.0,0.0,0.0,0.000121,0.0,0.0,0.0,0.004356,2
1668536787814601295,207845,1668536787964563208,gps,2,1,42.3009729542,-83.6979642639,272.105895996,0.000121,0.0,0.0,0.0,0.000121,0.0,0.0,0.0,0.004356,2
1668536787824714747,207846,1668536787974695188,gps,2,1,42.3009729537,-83.6979642639,272.105743408,0.000121,0.0,0.0,0.0,0.000121,0.0,0.0,0.0,0.004356,2
1668536787834718287,207847,1668536787984691520,gps,2,1,42.3009729543,-83.6979642633,272.105712891,0.000121,0.0,0.0,0.0,0.000121,0.0,0.0,0.0,0.004356,2
1668536787844573173,207848,1668536787994590605,gps,2,1,42.3009729547,-83.6979642625,272.105712891,0.000121,0.0,0.0,0.0,0.000121,0.0,0.0,0.0,0.004356,2
1668536787854602079,207849,1668536788004576710,gps,2,1,42.3009729543,-83.6979642627,272.105560303,0.000121,0.0,0.0,0.0,0.000121,0.0,0.0,0.0,0.004356,2
1668536787864857553,207850,1668536788014653158,gps,2,1,42.3009729548,-83.6979642622,272.105560303,0.000121,0.0,0.0,0.0,0.000121,0.0,0.0,0.0,0.004356,2
1668536787874853951,207851,1668536788024567100,gps,2,1,42.3009729552,-83.697964262,272.105529785,0.000121,0.0,0.0,0.0,0.000121,0.0,0.0,0.0,0.004356,2
1668536787884758763,207852,1668536788034585358,gps,2,1,42.3009729548,-83.6979642621,272.105377197,0.000121,0.0,0.0,0.0,0.000121,0.0,0.0,0.0,0.004356,2
1668536787895185066,207853,1668536788044648158,gps,2,1,42.3009729552,-83.6979642615,272.105377197,0.000121,0.0,0.0,0.0,0.000121,0.0,0.0,0.0,0.004356,2
1668536787904832555,207854,1668536788054572887,gps,2,1,42.3009729558,-83.6979642614,272.105377197,0.000121,0.0,0.0,0.0,0.000121,0.0,0.0,0.0,0.004356,2
1668536787914774324,207855,1668536788064615510,gps,2,1,42.3009729554,-83.6979642614,272.105224609,0.000121,0.0,0.0,0.0,0.000121,0.0,0.0,0.0,0.004356,2
1668536787924737717,207856,1668536788074713472,gps,2,1,42.3009729559,-83.6979642611,272.105255127,0.000121,0.0,0.0,0.0,0.000121,0.0,0.0,0.0,0.004356,2
1668536787934973586,207857,1668536788084642905,gps,2,1,42.3009729564,-83.6979642605,272.105224609,0.000121,0.0,0.0,0.0,0.000121,0.0,0.0,0.0,0.004356,2
1668536787944788964,207858,1668536788094572163,gps,2,1,42.3009729565,-83.6979642621,272.105255127,0.000121,0.0,0.0,0.0,0.000121,0.0,0.0,0.0,0.004356,2
1668536787954645281,207859,1668536788104615120,gps,2,1,42.300972957,-83.6979642618,272.105255127,0.000121,0.0,0.0,0.0,0.000121,0.0,0.0,0.0,0.004356,2
1668536787964756693,207860,1668536788114701014,gps,2,1,42.3009729575,-83.6979642611,272.105255127,0.000121,0.0,0.0,0.0,0.000121,0.0,0.0,0.0,0.004356,2
1668536787974696972,207861,1668536788124564832,gps,2,1,42.3009729576,-83.6979642626,272.105285645,0.000121,0.0,0.0,0.0,0.000121,0.0,0.0,0.0,0.004356,2
1668536787984643728,207862,1668536788134657079,gps,2,1,42.3009729581,-83.6979642621,272.105285645,0.000121,0.0,0.0,0.0,0.000121,0.0,0.0,0.0,0.004356,2
1668536787994629232,207863,1668536788144707734,gps,2,1,42.3009729585,-83.6979642615,272.105285645,0.000121,0.0,0.0,0.0,0.000121,0.0,0.0,0.0,0.004356,2
1668536788005021726,207864,1668536788154743733,gps,2,1,42.3009729586,-83.6979642629,272.105316162,0.000121,0.0,0.0,0.0,0.000121,0.0,0.0,0.0,0.004356,2
1668536788014913021,207865,1668536788164665849,gps,2,1,42.3009729591,-83.6979642622,272.105285645,0.000121,0.0,0.0,0.0,0.000121,0.0,0.0,0.0,0.004356,2
1668536788024960116,207866,1668536788174588330,gps,2,1,42.3009729595,-83.6979642616,272.105285645,0.000121,0.0,0.0,0.0,0.000121,0.0,0.0,0.0,0.004356,2
1668536788034821473,207867,1668536788184574655,gps,2,1,42.3009729596,-83.697964263,272.105316162,0.000121,0.0,0.0,0.0,0.000121,0.0,0.0,0.0,0.004356,2
1668536788044886923,207868,1668536788194667870,gps,2,1,42.3009729601,-83.6979642625,272.105316162,0.000121,0.0,0.0,0.0,0.000121,0.0,0.0,0.0,0.004356,2
1668536788055026129,207869,1668536788204608501,gps,2,1,42.3009729605,-83.6979642621,272.105316162,0.000121,0.0,0.0,0.0,0.000121,0.0,0.0,0.0,0.004356,2
1668536788064709450,207870,1668536788214590981,gps,2,1,42.3009729606,-83.6979642634,272.105316162,0.000121,0.0,0.0,0.0,0.000121,0.0,0.0,0.0,0.004356,2
1668536788074764157,207871,1668536788224743783,gps,2,1,42.3009729611,-83.6979642629,272.105316162,0.000121,0.0,0.0,0.0,0.000121,0.0,0.0,0.0,0.004356,2
1668536788084582417,207872,1668536788234593485,gps,2,1,42.3009729616,-83.6979642628,272.105285645,0.000121,0.0,0.0,0.0,0.000121,0.0,0.0,0.0,0.004356,2
1668536788094804151,207873,1668536788244572147,gps,2,1,42.3009729617,-83.6979642639,272.105316162,0.000121,0.0,0.0,0.0,0.000121,0.0,0.0,0.0,0.004356,2
1668536788104901112,207874,1668536788254591731,gps,2,1,42.3009729621,-83.6979642633,272.105316162,0.000121,0.0,0.0,0.0,0.000121,0.0,0.0,0.0,0.004356,2
1668536788114579342,207875,1668536788264640908,gps,2,1,42.3009729627,-83.6979642629,272.105285645,0.000121,0.0,0.0,0.0,0.000121,0.0,0.0,0.0,0.004356,2
1668536788124572229,207876,1668536788274601980,gps,2,1,42.3009729629,-83.6979642639,272.105316162,0.000169,0.0,0.0,0.0,0.000196,0.0,0.0,0.0,0.004489,2
1668536788134622034,207877,1668536788284597256,gps,2,1,42.3009729634,-83.6979642635,272.105316162,0.000169,0.0,0.0,0.0,0.000196,0.0,0.0,0.0,0.004489,2
1668536788144734450,207878,1668536788294653517,gps,2,1,42.300972964,-83.6979642626,272.105285645,0.000169,0.0,0.0,0.0,0.000196,0.0,0.0,0.0,0.004489,2
1668536788154551147,207879,1668536788304589467,gps,2,1,42.3009729641,-83.6979642637,272.105316162,0.000169,0.0,0.0,0.0,0.000196,0.0,0.0,0.0,0.004489,2
1668536788164947313,207880,1668536788314641241,gps,2,1,42.3009729647,-83.6979642632,272.105285645,0.000169,0.0,0.0,0.0,0.000196,0.0,0.0,0.0,0.004489,2
1668536788174732227,207881,1668536788324650608,gps,2,1,42.3009729653,-83.6979642624,272.105285645,0.000169,0.0,0.0,0.0,0.000196,0.0,0.0,0.0,0.004489,2
1668536788184539322,207882,1668536788334598208,gps,2,1,42.3009729654,-83.6979642635,272.105316162,0.000169,0.0,0.0,0.0,0.000196,0.0,0.0,0.0,0.004489,2
1668536788194974283,207883,1668536788344652823,gps,2,1,42.300972966,-83.6979642628,272.105316162,0.000169,0.0,0.0,0.0,0.000196,0.0,0.0,0.0,0.004489,2
1668536788204741889,207884,1668536788354585085,gps,2,1,42.3009729664,-83.6979642622,272.105316162,0.000169,0.0,0.0,0.0,0.000196,0.0,0.0,0.0,0.004489,2
1668536788214751341,207885,1668536788364599529,gps,2,1,42.3009729665,-83.6979642633,272.10534668,0.000169,0.0,0.0,0.0,0.000196,0.0,0.0,0.0,0.004489,2
1668536788224907118,207886,1668536788374654942,gps,2,1,42.3009729671,-83.6979642627,272.105316162,0.000169,0.0,0.0,0.0,0.000196,0.0,0.0,0.0,0.004489,2
1668536788234989078,207887,1668536788384580765,gps,2,1,42.3009729675,-83.6979642623,272.10534668,0.000169,0.0,0.0,0.0,0.000196,0.0,0.0,0.0,0.004489,2
1668536788244764305,207888,1668536788394639690,gps,2,1,42.3009729677,-83.6979642634,272.10534668,0.000169,0.0,0.0,0.0,0.000196,0.0,0.0,0.0,0.004489,2
1668536788254798290,207889,1668536788404673004,gps,2,1,42.3009729682,-83.697964263,272.10534668,0.000169,0.0,0.0,0.0,0.000196,0.0,0.0,0.0,0.004489,2
1668536788264597602,207890,1668536788414644410,gps,2,1,42.3009729687,-83.6979642628,272.10534668,0.000169,0.0,0.0,0.0,0.000196,0.0,0.0,0.0,0.004489,2
1668536788275025646,207891,1668536788424576886,gps,2,1,42.3009729689,-83.6979642638,272.105377197,0.000169,0.0,0.0,0.0,0.000196,0.0,0.0,0.0,0.004489,2
1668536788284614543,207892,1668536788434584588,gps,2,1,42.3009729693,-83.6979642635,272.105377197,0.000169,0.0,0.0,0.0,0.000196,0.0,0.0,0.0,0.004489,2
1668536788294639901,207893,1668536788444660178,gps,2,1,42.3009729699,-83.6979642632,272.10534668,0.000169,0.0,0.0,0.0,0.000196,0.0,0.0,0.0,0.004489,2
1668536788304525120,207894,1668536788454590890,gps,2,1,42.3009729702,-83.6979642642,272.10534668,0.000169,0.0,0.0,0.0,0.000196,0.0,0.0,0.0,0.004489,2
1668536788314822623,207895,1668536788464587054,gps,2,1,42.3009729707,-83.6979642638,272.10534668,0.000169,0.0,0.0,0.0,0.000196,0.0,0.0,0.0,0.004489,2
1668536788325154080,207896,1668536788474724747,gps,2,1,42.3009729714,-83.6979642633,272.105285645,0.000169,0.0,0.0,0.0,0.000196,0.0,0.0,0.0,0.004489,2
1668536788335021377,207897,1668536788484585436,gps,2,1,42.3009729716,-83.6979642642,272.105316162,0.000169,0.0,0.0,0.0,0.000196,0.0,0.0,0.0,0.004489,2
1668536788344932672,207898,1668536788494605901,gps,2,1,42.3009729721,-83.6979642638,272.105285645,0.000169,0.0,0.0,0.0,0.000196,0.0,0.0,0.0,0.004489,2
1668536788354941614,207899,1668536788504666781,gps,2,1,42.3009729727,-83.6979642631,272.105255127,0.000169,0.0,0.0,0.0,0.000196,0.0,0.0,0.0,0.004489,2
1668536788364712445,207900,1668536788514596013,gps,2,1,42.300972973,-83.697964264,272.105285645,0.000169,0.0,0.0,0.0,0.000196,0.0,0.0,0.0,0.004489,2
1668536788374626691,207901,1668536788524591607,gps,2,1,42.3009729735,-83.6979642634,272.105255127,0.000169,0.0,0.0,0.0,0.000196,0.0,0.0,0.0,0.004489,2
1668536788384619335,207902,1668536788534657109,gps,2,1,42.300972974,-83.6979642627,272.105255127,0.000169,0.0,0.0,0.0,0.000196,0.0,0.0,0.0,0.004489,2
1668536788394719088,207903,1668536788544567767,gps,2,1,42.3009729742,-83.6979642636,272.105255127,0.000169,0.0,0.0,0.0,0.000196,0.0,0.0,0.0,0.004489,2
1668536788404890875,207904,1668536788554589920,gps,2,1,42.3009729748,-83.6979642629,272.105255127,0.000169,0.0,0.0,0.0,0.000196,0.0,0.0,0.0,0.004489,2
1668536788414629351,207905,1668536788564744990,gps,2,1,42.3009729752,-83.6979642624,272.105255127,0.000169,0.0,0.0,0.0,0.000196,0.0,0.0,0.0,0.004489,2
1668536788424665249,207906,1668536788574650618,gps,2,1,42.3009729757,-83.6979642649,272.105194092,0.000169,0.0,0.0,0.0,0.000196,0.0,0.0,0.0,0.004489,2
1668536788434532686,207907,1668536788584616419,gps,2,1,42.3009729763,-83.6979642643,272.105194092,0.000169,0.0,0.0,0.0,0.000196,0.0,0.0,0.0,0.004489,2
1668536788444926722,207908,1668536788594692138,gps,2,1,42.3009729767,-83.6979642639,272.105194092,0.000169,0.0,0.0,0.0,0.000196,0.0,0.0,0.0,0.004489,2
1668536788455012440,207909,1668536788604674615,gps,2,1,42.3009729773,-83.6979642664,272.105163574,0.000169,0.0,0.0,0.0,0.000196,0.0,0.0,0.0,0.004489,2
1668536788464943714,207910,1668536788614686284,gps,2,1,42.3009729779,-83.697964266,272.105163574,0.000169,0.0,0.0,0.0,0.000196,0.0,0.0,0.0,0.004489,2
1668536788474667036,207911,1668536788624656463,gps,2,1,42.3009729785,-83.6979642656,272.105133057,0.000169,0.0,0.0,0.0,0.000196,0.0,0.0,0.0,0.004489,2
1668536788484874413,207912,1668536788634616292,gps,2,1,42.3009729791,-83.6979642679,272.105102539,0.000169,0.0,0.0,0.0,0.000196,0.0,0.0,0.0,0.004489,2
1668536788494962949,207913,1668536788644635585,gps,2,1,42.3009729796,-83.6979642676,272.105072021,0.000169,0.0,0.0,0.0,0.000196,0.0,0.0,0.0,0.004489,2
1668536788504684972,207914,1668536788654720362,gps,2,1,42.3009729804,-83.6979642671,272.105041504,0.000169,0.0,0.0,0.0,0.000196,0.0,0.0,0.0,0.004489,2
1668536788514622603,207915,1668536788664578579,gps,2,1,42.300972981,-83.6979642694,272.105010986,0.000169,0.0,0.0,0.0,0.000196,0.0,0.0,0.0,0.004489,2
1668536788524813643,207916,1668536788674622810,gps,2,1,42.3009729816,-83.697964269,272.104980469,0.000169,0.0,0.0,0.0,0.000196,0.0,0.0,0.0,0.004489,2
1668536788534841569,207917,1668536788684684101,gps,2,1,42.3009729823,-83.6979642683,272.104949951,0.000169,0.0,0.0,0.0,0.000196,0.0,0.0,0.0,0.004489,2
1668536788544551314,207918,1668536788694609416,gps,2,1,42.3009729829,-83.6979642706,272.104919434,0.000169,0.0,0.0,0.0,0.000196,0.0,0.0,0.0,0.004489,2
1668536788554557997,207919,1668536788704598926,gps,2,1,42.3009729835,-83.6979642701,272.104888916,0.000169,0.0,0.0,0.0,0.000196,0.0,0.0,0.0,0.004489,2
1668536788564590586,207920,1668536788714654987,gps,2,1,42.3009729842,-83.6979642694,272.104888916,0.000169,0.0,0.0,0.0,0.000196,0.0,0.0,0.0,0.004489,2
1668536788574759691,207921,1668536788724577572,gps,2,1,42.3009729844,-83.6979642715,272.104858398,0.000169,0.0,0.0,0.0,0.000196,0.0,0.0,0.0,0.004489,2
1668536788584579526,207922,1668536788734650261,gps,2,1,42.300972985,-83.6979642709,272.104827881,0.000169,0.0,0.0,0.0,0.000196,0.0,0.0,0.0,0.004489,2
1668536788594878991,207923,1668536788744595455,gps,2,1,42.3009729855,-83.6979642705,272.104827881,0.000169,0.0,0.0,0.0,0.000196,0.0,0.0,0.0,0.004489,2
1668536788604649828,207924,1668536788754611282,gps,2,1,42.3009729857,-83.6979642725,272.104797363,0.000169,0.0,0.0,0.0,0.000196,0.0,0.0,0.0,0.004489,2
1668536788614742908,207925,1668536788764668217,gps,2,1,42.3009729862,-83.6979642719,272.104797363,0.000169,0.0,0.0,0.0,0.000196,0.0,0.0,0.0,0.004489,2
1668536788624889177,207926,1668536788774671633,gps,2,1,42.3009729867,-83.6979642717,272.104797363,0.000169,0.0,0.0,0.0,0.000196,0.0,0.0,0.0,0.004489,2
1668536788634791501,207927,1668536788784584097,gps,2,1,42.3009729869,-83.6979642736,272.104766846,0.000169,0.0,0.0,0.0,0.000196,0.0,0.0,0.0,0.004489,2
1668536788644678306,207928,1668536788794598687,gps,2,1,42.3009729874,-83.6979642731,272.104766846,0.000169,0.0,0.0,0.0,0.000196,0.0,0.0,0.0,0.004489,2
1668536788654863397,207929,1668536788804650006,gps,2,1,42.3009729879,-83.6979642728,272.104736328,0.000169,0.0,0.0,0.0,0.000196,0.0,0.0,0.0,0.004489,2
1668536788664761183,207930,1668536788814590481,gps,2,1,42.3009729881,-83.6979642747,272.104705811,0.000169,0.0,0.0,0.0,0.000196,0.0,0.0,0.0,0.004489,2
1668536788674700054,207931,1668536788824622262,gps,2,1,42.3009729887,-83.6979642744,272.104705811,0.000169,0.0,0.0,0.0,0.000196,0.0,0.0,0.0,0.004489,2
1668536788684863088,207932,1668536788834661991,gps,2,1,42.3009729893,-83.697964274,272.104705811,0.000169,0.0,0.0,0.0,0.000196,0.0,0.0,0.0,0.004489,2
1668536788694602676,207933,1668536788844613129,gps,2,1,42.3009729895,-83.6979642758,272.104675293,0.000169,0.0,0.0,0.0,0.000196,0.0,0.0,0.0,0.004489,2
1668536788705043776,207934,1668536788854647786,gps,2,1,42.3009729902,-83.6979642755,272.104644775,0.000169,0.0,0.0,0.0,0.000196,0.0,0.0,0.0,0.004489,2
1668536788714644859,207935,1668536788864601319,gps,2,1,42.3009729908,-83.6979642749,272.104644775,0.000169,0.0,0.0,0.0,0.000196,0.0,0.0,0.0,0.004489,2
1668536788724553447,207936,1668536788874598115,gps,2,1,42.3009729911,-83.6979642766,272.104614258,0.000169,0.0,0.0,0.0,0.000196,0.0,0.0,0.0,0.004489,2
1668536788735130344,207937,1668536788884605392,gps,2,1,42.3009729917,-83.6979642763,272.10458374,0.000169,0.0,0.0,0.0,0.000196,0.0,0.0,0.0,0.004489,2
1668536788744765810,207938,1668536788894657479,gps,2,1,42.3009729924,-83.6979642756,272.10458374,0.000169,0.0,0.0,0.0,0.000196,0.0,0.0,0.0,0.004489,2
1668536788754965245,207939,1668536788904683864,gps,2,1,42.3009729927,-83.6979642774,272.104553223,0.000169,0.0,0.0,0.0,0.000196,0.0,0.0,0.0,0.004489,2
1668536788764699641,207940,1668536788914590423,gps,2,1,42.3009729933,-83.6979642771,272.104522705,0.000169,0.0,0.0,0.0,0.000196,0.0,0.0,0.0,0.004489,2
1668536788775053338,207941,1668536788924670492,gps,2,1,42.3009729939,-83.6979642767,272.104522705,0.000169,0.0,0.0,0.0,0.000196,0.0,0.0,0.0,0.004489,2
1668536788784716290,207942,1668536788934573562,gps,2,1,42.3009729943,-83.6979642786,272.104492188,0.000169,0.0,0.0,0.0,0.000196,0.0,0.0,0.0,0.004489,2
1668536788794864424,207943,1668536788944582911,gps,2,1,42.3009729949,-83.6979642785,272.104492188,0.000169,0.0,0.0,0.0,0.000196,0.0,0.0,0.0,0.004489,2
1668536788804909689,207944,1668536788954667647,gps,2,1,42.3009729955,-83.6979642784,272.104492188,0.000169,0.0,0.0,0.0,0.000196,0.0,0.0,0.0,0.004489,2
1668536788814590023,207945,1668536788964599412,gps,2,1,42.3009729961,-83.6979642807,272.104431152,0.000169,0.0,0.0,0.0,0.000196,0.0,0.0,0.0,0.004489,2
1668536788825257661,207946,1668536788974656842,gps,2,1,42.3009729967,-83.6979642809,272.104431152,0.000169,0.0,0.0,0.0,0.000196,0.0,0.0,0.0,0.004489,2
1668536788834709788,207947,1668536788984594085,gps,2,1,42.3009729974,-83.6979642812,272.104400635,0.000169,0.0,0.0,0.0,0.000196,0.0,0.0,0.0,0.004489,2
1668536788844654816,207948,1668536788994588293,gps,2,1,42.3009729979,-83.6979642837,272.1043396,0.000169,0.0,0.0,0.0,0.000196,0.0,0.0,0.0,0.004489,2
1668536788854574077,207949,1668536789004616892,gps,2,1,42.3009729985,-83.6979642845,272.1043396,0.000169,0.0,0.0,0.0,0.000196,0.0,0.0,0.0,0.004489,2
1668536788865200325,207950,1668536789014657686,gps,2,1,42.3009729992,-83.6979642849,272.104309082,0.000169,0.0,0.0,0.0,0.000196,0.0,0.0,0.0,0.004489,2
1668536788875020181,207951,1668536789024604972,gps,2,1,42.3009729997,-83.6979642877,272.104248047,0.000169,0.0,0.0,0.0,0.000196,0.0,0.0,0.0,0.004489,2
1668536788884740395,207952,1668536789034608124,gps,2,1,42.3009730004,-83.697964289,272.104248047,0.000169,0.0,0.0,0.0,0.000196,0.0,0.0,0.0,0.004489,2
1668536788894873194,207953,1668536789044664088,gps,2,1,42.3009730011,-83.6979642896,272.104217529,0.000169,0.0,0.0,0.0,0.000196,0.0,0.0,0.0,0.004489,2
1668536788904783404,207954,1668536789054604948,gps,2,1,42.3009730016,-83.6979642928,272.104156494,0.000169,0.0,0.0,0.0,0.000196,0.0,0.0,0.0,0.004489,2
1668536788914715063,207955,1668536789064613909,gps,2,1,42.3009730023,-83.6979642943,272.104125977,0.000169,0.0,0.0,0.0,0.000196,0.0,0.0,0.0,0.004489,2
1668536788924752021,207956,1668536789074719994,gps,2,1,42.3009730029,-83.6979642953,272.104125977,0.000169,0.0,0.0,0.0,0.000196,0.0,0.0,0.0,0.004489,2
1668536788934938340,207957,1668536789084711560,gps,2,1,42.3009730034,-83.6979642988,272.104064941,0.000169,0.0,0.0,0.0,0.000196,0.0,0.0,0.0,0.004489,2
1668536788944869451,207958,1668536789094621508,gps,2,1,42.3009730041,-83.6979643005,272.104034424,0.000169,0.0,0.0,0.0,0.000196,0.0,0.0,0.0,0.004489,2
1668536788954812995,207959,1668536789104711628,gps,2,1,42.3009730047,-83.697964302,272.104034424,0.000169,0.0,0.0,0.0,0.000196,0.0,0.0,0.0,0.004489,2
1668536788964711759,207960,1668536789114667067,gps,2,1,42.3009730046,-83.6979643081,272.103820801,0.000169,0.0,0.0,0.0,0.000196,0.0,0.0,0.0,0.004489,2
1668536788974540252,207961,1668536789124663123,gps,2,1,42.3009730052,-83.6979643102,272.103790283,0.000169,0.0,0.0,0.0,0.000196,0.0,0.0,0.0,0.004489,2
1668536788984543179,207962,1668536789134664328,gps,2,1,42.3009730058,-83.6979643122,272.103790283,0.000169,0.0,0.0,0.0,0.000196,0.0,0.0,0.0,0.004489,2
1668536788994791124,207963,1668536789144707870,gps,2,1,42.3009730057,-83.6979643186,272.10357666,0.000169,0.0,0.0,0.0,0.000196,0.0,0.0,0.0,0.004489,2
1668536789004896707,207964,1668536789154764754,gps,2,1,42.3009730062,-83.6979643212,272.10357666,0.000169,0.0,0.0,0.0,0.000196,0.0,0.0,0.0,0.004489,2
1668536789014959071,207965,1668536789164672835,gps,2,1,42.3009730069,-83.6979643239,272.103546143,0.000169,0.0,0.0,0.0,0.000196,0.0,0.0,0.0,0.004489,2
1668536789024622658,207966,1668536789174611622,gps,2,1,42.3009730068,-83.6979643306,272.10333252,0.000169,0.0,0.0,0.0,0.000196,0.0,0.0,0.0,0.004489,2
1668536789035041230,207967,1668536789184602888,gps,2,1,42.3009730073,-83.697964334,272.10333252,0.000169,0.0,0.0,0.0,0.000196,0.0,0.0,0.0,0.004489,2
1668536789044700553,207968,1668536789194683192,gps,2,1,42.300973008,-83.697964337,272.103302002,0.000169,0.0,0.0,0.0,0.000196,0.0,0.0,0.0,0.004489,2
1668536789054863634,207969,1668536789204621745,gps,2,1,42.3009730077,-83.6979643442,272.103088379,0.000169,0.0,0.0,0.0,0.000196,0.0,0.0,0.0,0.004489,2
1668536789064812881,207970,1668536789214595958,gps,2,1,42.3009730083,-83.6979643483,272.103057861,0.000169,0.0,0.0,0.0,0.000196,0.0,0.0,0.0,0.004489,2
1668536789075010648,207971,1668536789224663623,gps,2,1,42.300973009,-83.6979643516,272.103027344,0.000169,0.0,0.0,0.0,0.000196,0.0,0.0,0.0,0.004489,2
1668536789084776998,207972,1668536789234587284,gps,2,1,42.3009730087,-83.6979643594,272.102844238,0.000169,0.0,0.0,0.0,0.000196,0.0,0.0,0.0,0.004489,2
1668536789094883399,207973,1668536789244671523,gps,2,1,42.3009730095,-83.6979643641,272.102813721,0.000169,0.0,0.0,0.0,0.000196,0.0,0.0,0.0,0.004489,2
1668536789104553350,207974,1668536789254624401,gps,2,1,42.30097301,-83.697964368,272.102783203,0.000169,0.0,0.0,0.0,0.000196,0.0,0.0,0.0,0.004489,2
1668536789114996517,207975,1668536789264617955,gps,2,1,42.3009730098,-83.6979643763,272.102600098,0.000169,0.0,0.0,0.0,0.000196,0.0,0.0,0.0,0.004489,2
1668536789124569778,207976,1668536789274663842,gps,2,1,42.3009730105,-83.6979643816,272.102539062,0.000169,0.0,0.0,0.0,0.000169,0.0,0.0,0.0,0.004489,2
1668536789134597361,207977,1668536789284613470,gps,2,1,42.300973011,-83.6979643863,272.102539062,0.000169,0.0,0.0,0.0,0.000169,0.0,0.0,0.0,0.004489,2
1668536789144508532,207978,1668536789294609782,gps,2,1,42.3009730108,-83.6979643954,272.102355957,0.000169,0.0,0.0,0.0,0.000169,0.0,0.0,0.0,0.004489,2
1668536789154450145,207979,1668536789304671175,gps,2,1,42.3009730115,-83.6979644015,272.102325439,0.000169,0.0,0.0,0.0,0.000169,0.0,0.0,0.0,0.004489,2
1668536789164970318,207980,1668536789314612800,gps,2,1,42.300973012,-83.6979644071,272.102325439,0.000169,0.0,0.0,0.0,0.000169,0.0,0.0,0.0,0.004489,2
1668536789174966222,207981,1668536789324631514,gps,2,1,42.3009730119,-83.6979644171,272.102142334,0.000169,0.0,0.0,0.0,0.000169,0.0,0.0,0.0,0.004489,2
1668536789184949015,207982,1668536789334614236,gps,2,1,42.3009730125,-83.6979644246,272.102111816,0.000169,0.0,0.0,0.0,0.000169,0.0,0.0,0.0,0.004489,2
1668536789195024105,207983,1668536789344661728,gps,2,1,42.3009730131,-83.6979644313,272.102081299,0.000169,0.0,0.0,0.0,0.000169,0.0,0.0,0.0,0.004489,2
1668536789204591201,207984,1668536789354614518,gps,2,1,42.300973013,-83.6979644424,272.101898193,0.000169,0.0,0.0,0.0,0.000169,0.0,0.0,0.0,0.004489,2
1668536789214731601,207985,1668536789364658836,gps,2,1,42.3009730136,-83.6979644513,272.101867676,0.000169,0.0,0.0,0.0,0.000169,0.0,0.0,0.0,0.004489,2
1668536789224791256,207986,1668536789374604631,gps,2,1,42.3009730143,-83.6979644592,272.101806641,0.000169,0.0,0.0,0.0,0.000169,0.0,0.0,0.0,0.004489,2
1668536789234591584,207987,1668536789384603873,gps,2,1,42.3009730142,-83.6979644715,272.101623535,0.000169,0.0,0.0,0.0,0.000169,0.0,0.0,0.0,0.004489,2
1668536789244682053,207988,1668536789394691122,gps,2,1,42.3009730147,-83.6979644819,272.101593018,0.000169,0.0,0.0,0.0,0.000169,0.0,0.0,0.0,0.004489,2
1668536789254790766,207989,1668536789404701344,gps,2,1,42.3009730156,-83.6979644909,272.101531982,0.000169,0.0,0.0,0.0,0.000169,0.0,0.0,0.0,0.004489,2
1668536789264453341,207990,1668536789414610587,gps,2,1,42.3009730155,-83.6979645045,272.101348877,0.000169,0.0,0.0,0.0,0.000169,0.0,0.0,0.0,0.004489,2
1668536789274967235,207991,1668536789424696095,gps,2,1,42.3009730161,-83.6979645161,272.101287842,0.000169,0.0,0.0,0.0,0.000169,0.0,0.0,0.0,0.004489,2
1668536789284768760,207992,1668536789434630503,gps,2,1,42.3009730168,-83.6979645265,272.101257324,0.000169,0.0,0.0,0.0,0.000169,0.0,0.0,0.0,0.004489,2
1668536789294770946,207993,1668536789444620228,gps,2,1,42.3009730167,-83.6979645415,272.101074219,0.000169,0.0,0.0,0.0,0.000169,0.0,0.0,0.0,0.004489,2
1668536789304625224,207994,1668536789454676572,gps,2,1,42.3009730174,-83.6979645544,272.101013184,0.000169,0.0,0.0,0.0,0.000169,0.0,0.0,0.0,0.004489,2
1668536789314757691,207995,1668536789464611385,gps,2,1,42.3009730178,-83.697964566,272.100982666,0.000169,0.0,0.0,0.0,0.000169,0.0,0.0,0.0,0.004489,2
1668536789324888723,207996,1668536789474612885,gps,2,1,42.3009730177,-83.6979645822,272.100830078,0.000169,0.0,0.0,0.0,0.000169,0.0,0.0,0.0,0.004489,2
1668536789334702554,207997,1668536789484691049,gps,2,1,42.3009730184,-83.6979645963,272.100769043,0.000169,0.0,0.0,0.0,0.000169,0.0,0.0,0.0,0.004489,2
1668536789344601744,207998,1668536789494632377,gps,2,1,42.3009730186,-83.6979646094,272.100769043,0.000169,0.0,0.0,0.0,0.000169,0.0,0.0,0.0,0.004489,2
1668536789354519253,207999,1668536789504598239,gps,2,1,42.3009730185,-83.6979646268,272.100585938,0.000169,0.0,0.0,0.0,0.000169,0.0,0.0,0.0,0.004489,2
1668536789364609701,208000,1668536789514706227,gps,2,1,42.300973019,-83.6979646423,272.10055542,0.000169,0.0,0.0,0.0,0.000169,0.0,0.0,0.0,0.004489,2
1668536789374637523,208001,1668536789524608175,gps,2,1,42.3009730194,-83.6979646569,272.100524902,0.000169,0.0,0.0,0.0,0.000169,0.0,0.0,0.0,0.004489,2
1668536789384591471,208002,1668536789534599824,gps,2,1,42.3009730194,-83.6979646757,272.100372314,0.000169,0.0,0.0,0.0,0.000169,0.0,0.0,0.0,0.004489,2
1668536789394502415,208003,1668536789544704201,gps,2,1,42.3009730198,-83.6979646929,272.100311279,0.000169,0.0,0.0,0.0,0.000169,0.0,0.0,0.0,0.004489,2
1668536789404396206,208004,1668536789554614094,gps,2,1,42.3009730205,-83.6979647087,272.100250244,0.000169,0.0,0.0,0.0,0.000169,0.0,0.0,0.0,0.004489,2
1668536789415041983,208005,1668536789564669072,gps,2,1,42.3009730205,-83.6979647288,272.100097656,0.000169,0.0,0.0,0.0,0.000169,0.0,0.0,0.0,0.004489,2
1668536789425001270,208006,1668536789574765199,gps,2,1,42.3009730211,-83.6979647474,272.100067139,0.000169,0.0,0.0,0.0,0.000169,0.0,0.0,0.0,0.004489,2
1668536789434446395,208007,1668536789584671555,gps,2,1,42.300973022,-83.6979647648,272.099975586,0.000169,0.0,0.0,0.0,0.000169,0.0,0.0,0.0,0.004489,2
1668536789444800031,208008,1668536789594659667,gps,2,1,42.3009730209,-83.6979647871,272.099822998,0.000169,0.0,0.0,0.0,0.000169,0.0,0.0,0.0,0.004489,2
1668536789454597152,208009,1668536789604665375,gps,2,1,42.3009730217,-83.6979648072,272.099731445,0.000169,0.0,0.0,0.0,0.000169,0.0,0.0,0.0,0.004489,2
1668536789464840947,208010,1668536789614706750,gps,2,1,42.3009730225,-83.6979648258,272.09967041,0.000169,0.0,0.0,0.0,0.000169,0.0,0.0,0.0,0.004489,2
1668536789474717850,208011,1668536789624677307,gps,2,1,42.3009730214,-83.6979648494,272.099517822,0.000169,0.0,0.0,0.0,0.000169,0.0,0.0,0.0,0.004489,2
1668536789484619834,208012,1668536789634633022,gps,2,1,42.3009730223,-83.697964871,272.09942627,0.000169,0.0,0.0,0.0,0.000169,0.0,0.0,0.0,0.004489,2
1668536789494639075,208013,1668536789644661149,gps,2,1,42.3009730229,-83.6979648911,272.099365234,0.000169,0.0,0.0,0.0,0.000169,0.0,0.0,0.0,0.004489,2
1668536789504597723,208014,1668536789654701241,gps,2,1,42.3009730219,-83.6979649163,272.099212646,0.000169,0.0,0.0,0.0,0.000169,0.0,0.0,0.0,0.004489,2
1668536789514572197,208015,1668536789664621406,gps,2,1,42.3009730227,-83.6979649392,272.099151611,0.000169,0.0,0.0,0.0,0.000169,0.0,0.0,0.0,0.004489,2
1668536789524633758,208016,1668536789674699303,gps,2,1,42.3009730231,-83.697964961,272.099090576,0.000169,0.0,0.0,0.0,0.000169,0.0,0.0,0.0,0.004489,2
1668536789534542135,208017,1668536789684605693,gps,2,1,42.3009730223,-83.6979649875,272.098907471,0.000169,0.0,0.0,0.0,0.000169,0.0,0.0,0.0,0.004489,2
1668536789544704459,208018,1668536789694698284,gps,2,1,42.3009730228,-83.6979650121,272.098846436,0.000169,0.0,0.0,0.0,0.000169,0.0,0.0,0.0,0.004489,2
1668536789554333968,208019,1668536789704615965,gps,2,1,42.3009730233,-83.6979650354,272.098815918,0.000169,0.0,0.0,0.0,0.000169,0.0,0.0,0.0,0.004489,2
1668536789564650130,208020,1668536789714606826,gps,2,1,42.3009730222,-83.6979650633,272.098632812,0.000169,0.0,0.0,0.0,0.000169,0.0,0.0,0.0,0.004489,2
1668536789575003231,208021,1668536789724617428,gps,2,1,42.3009730226,-83.6979650893,272.098602295,0.000169,0.0,0.0,0.0,0.000169,0.0,0.0,0.0,0.004489,2
1668536789584871995,208022,1668536789734674674,gps,2,1,42.3009730233,-83.6979651144,272.098510742,0.000169,0.0,0.0,0.0,0.000169,0.0,0.0,0.0,0.004489,2
1668536789594788605,208023,1668536789744665301,gps,2,1,42.3009730222,-83.6979651439,272.098358154,0.000169,0.0,0.0,0.0,0.000169,0.0,0.0,0.0,0.004489,2
1668536789604576044,208024,1668536789754637502,gps,2,1,42.3009730226,-83.6979651718,272.098297119,0.000169,0.0,0.0,0.0,0.000169,0.0,0.0,0.0,0.004489,2
1668536789614688973,208025,1668536789764686052,gps,2,1,42.3009730235,-83.6979651983,272.098205566,0.000169,0.0,0.0,0.0,0.000169,0.0,0.0,0.0,0.004489,2
1668536789624729468,208026,1668536789774622078,gps,2,1,42.3009730223,-83.6979652293,272.098052979,0.000169,0.0,0.0,0.0,0.000169,0.0,0.0,0.0,0.004489,2
1668536789634522516,208027,1668536789784643437,gps,2,1,42.300973023,-83.6979652589,272.097991943,0.000169,0.0,0.0,0.0,0.000169,0.0,0.0,0.0,0.004489,2
1668536789644863102,208028,1668536789794672074,gps,2,1,42.3009730237,-83.6979652869,272.097900391,0.000169,0.0,0.0,0.0,0.000169,0.0,0.0,0.0,0.004489,2
1668536789654728894,208029,1668536789804606653,gps,2,1,42.3009730225,-83.6979653195,272.097747803,0.000169,0.0,0.0,0.0,0.000169,0.0,0.0,0.0,0.004489,2
1668536789664616722,208030,1668536789814610434,gps,2,1,42.3009730233,-83.6979653507,272.097686768,0.000169,0.0,0.0,0.0,0.000169,0.0,0.0,0.0,0.004489,2
1668536789674758251,208031,1668536789824685877,gps,2,1,42.3009730236,-83.6979653803,272.097595215,0.000169,0.0,0.0,0.0,0.000169,0.0,0.0,0.0,0.004489,2
1668536789684521613,208032,1668536789834620907,gps,2,1,42.3009730226,-83.6979654146,272.097442627,0.000169,0.0,0.0,0.0,0.000169,0.0,0.0,0.0,0.004489,2
1668536789695087697,208033,1668536789844622924,gps,2,1,42.3009730232,-83.6979654473,272.097351074,0.000169,0.0,0.0,0.0,0.000169,0.0,0.0,0.0,0.004489,2
1668536789704936289,208034,1668536789854682875,gps,2,1,42.3009730234,-83.6979654785,272.097290039,0.000169,0.0,0.0,0.0,0.000169,0.0,0.0,0.0,0.004489,2
1668536789714770997,208035,1668536789864623655,gps,2,1,42.3009730225,-83.6979655144,272.097137451,0.000169,0.0,0.0,0.0,0.000169,0.0,0.0,0.0,0.004489,2
1668536789724927096,208036,1668536789874648030,gps,2,1,42.3009730229,-83.6979655487,272.097076416,0.000169,0.0,0.0,0.0,0.000169,0.0,0.0,0.0,0.004489,2
1668536789734883514,208037,1668536789884685471,gps,2,1,42.3009730233,-83.6979655818,272.096984863,0.000169,0.0,0.0,0.0,0.000169,0.0,0.0,0.0,0.004489,2
1668536789744740476,208038,1668536789894623196,gps,2,1,42.3009730225,-83.6979656192,272.096832275,0.000169,0.0,0.0,0.0,0.000169,0.0,0.0,0.0,0.004489,2
1668536789754683266,208039,1668536789904710808,gps,2,1,42.3009730228,-83.697965655,272.09677124,0.000169,0.0,0.0,0.0,0.000169,0.0,0.0,0.0,0.004489,2
1668536789764698790,208040,1668536789914692803,gps,2,1,42.3009730234,-83.69796569,272.096679688,0.000169,0.0,0.0,0.0,0.000169,0.0,0.0,0.0,0.004489,2
1668536789774859517,208041,1668536789924609595,gps,2,1,42.3009730226,-83.6979657289,272.0965271,0.000169,0.0,0.0,0.0,0.000169,0.0,0.0,0.0,0.004489,2
1668536789784673413,208042,1668536789934617450,gps,2,1,42.300973023,-83.6979657666,272.096466064,0.000169,0.0,0.0,0.0,0.000169,0.0,0.0,0.0,0.004489,2
1668536789794754763,208043,1668536789944688631,gps,2,1,42.3009730238,-83.6979658031,272.096374512,0.000169,0.0,0.0,0.0,0.000169,0.0,0.0,0.0,0.004489,2
1668536789804643466,208044,1668536789954615958,gps,2,1,42.3009730229,-83.6979658436,272.096221924,0.000169,0.0,0.0,0.0,0.000169,0.0,0.0,0.0,0.004489,2
1668536789814601996,208045,1668536789964624912,gps,2,1,42.3009730236,-83.6979658832,272.096130371,0.000169,0.0,0.0,0.0,0.000169,0.0,0.0,0.0,0.004489,2
1668536789824574869,208046,1668536789974680436,gps,2,1,42.3009730242,-83.6979659211,272.096008301,0.000169,0.0,0.0,0.0,0.000169,0.0,0.0,0.0,0.004489,2
1668536789834464616,208047,1668536789984614598,gps,2,1,42.3009730233,-83.6979659633,272.095855713,0.000169,0.0,0.0,0.0,0.000169,0.0,0.0,0.0,0.004489,2
1668536789844411788,208048,1668536789994625362,gps,2,1,42.3009730241,-83.6979660046,272.09576416,0.000169,0.0,0.0,0.0,0.000169,0.0,0.0,0.0,0.004489,2
1668536789854519047,208049,1668536790004690546,gps,2,1,42.3009730244,-83.6979660441,272.095672607,0.000169,0.0,0.0,0.0,0.000169,0.0,0.0,0.0,0.004489,2
1668536789864749412,208050,1668536790014625068,gps,2,1,42.3009730236,-83.697966088,272.09552002,0.000169,0.0,0.0,0.0,0.000169,0.0,0.0,0.0,0.004489,2
1668536789874886251,208051,1668536790024632061,gps,2,1,42.3009730242,-83.6979661308,272.095397949,0.000169,0.0,0.0,0.0,0.000169,0.0,0.0,0.0,0.004489,2
1668536789884645039,208052,1668536790034698570,gps,2,1,42.3009730243,-83.6979661721,272.095306396,0.000169,0.0,0.0,0.0,0.000169,0.0,0.0,0.0,0.004489,2
1668536789894589741,208053,1668536790044622074,gps,2,1,42.3009730237,-83.6979662175,272.095123291,0.000169,0.0,0.0,0.0,0.000169,0.0,0.0,0.0,0.004489,2
1668536789904603288,208054,1668536790054641590,gps,2,1,42.300973024,-83.697966262,272.095031738,0.000169,0.0,0.0,0.0,0.000169,0.0,0.0,0.0,0.004489,2
1668536789914847737,208055,1668536790064772166,gps,2,1,42.3009730244,-83.6979663052,272.094940186,0.000169,0.0,0.0,0.0,0.000169,0.0,0.0,0.0,0.004489,2
1668536789924792566,208056,1668536790074711831,gps,2,1,42.3009730225,-83.697966349,272.095031738,0.000169,0.0,0.0,0.0,0.000169,0.0,0.0,0.0,0.004489,2
1668536789934716112,208057,1668536790084791140,gps,2,1,42.3009730227,-83.6979663952,272.094940186,0.000169,0.0,0.0,0.0,0.000169,0.0,0.0,0.0,0.004489,2
1668536789944579714,208058,1668536790094657852,gps,2,1,42.3009730235,-83.6979664403,272.094818115,0.000169,0.0,0.0,0.0,0.000169,0.0,0.0,0.0,0.004489,2
1668536789954655136,208059,1668536790104675610,gps,2,1,42.3009730216,-83.6979664859,272.094909668,0.000169,0.0,0.0,0.0,0.000169,0.0,0.0,0.0,0.004489,2
1668536789964471466,208060,1668536790114690219,gps,2,1,42.300973022,-83.697966534,272.094787598,0.000169,0.0,0.0,0.0,0.000169,0.0,0.0,0.0,0.004489,2
1668536789974747606,208061,1668536790124743998,gps,2,1,42.3009730229,-83.6979665808,272.094665527,0.000169,0.0,0.0,0.0,0.000169,0.0,0.0,0.0,0.004489,2
1668536789984878794,208062,1668536790134695373,gps,2,1,42.300973021,-83.6979666282,272.09475708,0.000169,0.0,0.0,0.0,0.000169,0.0,0.0,0.0,0.004489,2
1668536789995028608,208063,1668536790144798043,gps,2,1,42.3009730216,-83.6979666782,272.09463501,0.000169,0.0,0.0,0.0,0.000169,0.0,0.0,0.0,0.004489,2
1668536790004787599,208064,1668536790154817917,gps,2,1,42.3009730223,-83.6979667267,272.094512939,0.000169,0.0,0.0,0.0,0.000169,0.0,0.0,0.0,0.004489,2
1668536790014739110,208065,1668536790164635171,gps,2,1,42.3009730205,-83.6979667759,272.094573975,0.000169,0.0,0.0,0.0,0.000169,0.0,0.0,0.0,0.004489,2
1668536790024885734,208066,1668536790174722176,gps,2,1,42.3009730212,-83.6979668277,272.094451904,0.000169,0.0,0.0,0.0,0.000169,0.0,0.0,0.0,0.004489,2
1668536790034682791,208067,1668536790184637909,gps,2,1,42.3009730215,-83.6979668776,272.094329834,0.000169,0.0,0.0,0.0,0.000169,0.0,0.0,0.0,0.004489,2
1668536790044702529,208068,1668536790194637186,gps,2,1,42.3009730198,-83.6979669289,272.094421387,0.000169,0.0,0.0,0.0,0.000169,0.0,0.0,0.0,0.004489,2
1668536790054862231,208069,1668536790204687302,gps,2,1,42.3009730204,-83.6979669823,272.094299316,0.000169,0.0,0.0,0.0,0.000169,0.0,0.0,0.0,0.004489,2
1668536790064624818,208070,1668536790214634425,gps,2,1,42.3009730205,-83.6979670339,272.094177246,0.000169,0.0,0.0,0.0,0.000169,0.0,0.0,0.0,0.004489,2
1668536790074742509,208071,1668536790224626250,gps,2,1,42.3009730189,-83.6979670871,272.094238281,0.000169,0.0,0.0,0.0,0.000169,0.0,0.0,0.0,0.004489,2
1668536790084559313,208072,1668536790234635761,gps,2,1,42.3009730192,-83.6979671421,272.094116211,0.000169,0.0,0.0,0.0,0.000169,0.0,0.0,0.0,0.004489,2
1668536790094772419,208073,1668536790244694490,gps,2,1,42.3009730196,-83.6979671957,272.094024658,0.000169,0.0,0.0,0.0,0.000169,0.0,0.0,0.0,0.004489,2
1668536790104512733,208074,1668536790254640701,gps,2,1,42.3009730179,-83.6979672506,272.094055176,0.000169,0.0,0.0,0.0,0.000169,0.0,0.0,0.0,0.004489,2
1668536790114408888,208075,1668536790264649857,gps,2,1,42.3009730181,-83.6979673073,272.093933105,0.000169,0.0,0.0,0.0,0.000169,0.0,0.0,0.0,0.004489,2
1668536790124803115,208076,1668536790274699664,gps,2,1,42.3009730187,-83.6979673629,272.093811035,0.000121,0.0,0.0,0.0,0.000121,0.0,0.0,0.0,0.004356,2
1668536790134997239,208077,1668536790284646422,gps,2,1,42.300973017,-83.6979674195,272.093841553,0.000121,0.0,0.0,0.0,0.000121,0.0,0.0,0.0,0.004356,2
1668536790144761606,208078,1668536790294647551,gps,2,1,42.3009730173,-83.697967478,272.093719482,0.000121,0.0,0.0,0.0,0.000121,0.0,0.0,0.0,0.004356,2
1668536790155019822,208079,1668536790304703040,gps,2,1,42.300973018,-83.6979675355,272.093597412,0.000121,0.0,0.0,0.0,0.000121,0.0,0.0,0.0,0.004356,2
1668536790164796689,208080,1668536790314643293,gps,2,1,42.3009730164,-83.697967594,272.093597412,0.000121,0.0,0.0,0.0,0.000121,0.0,0.0,0.0,0.004356,2
1668536790174976514,208081,1668536790324713212,gps,2,1,42.3009730169,-83.6979676545,272.093475342,0.000121,0.0,0.0,0.0,0.000121,0.0,0.0,0.0,0.004356,2
1668536790184697378,208082,1668536790334650298,gps,2,1,42.3009730175,-83.6979677134,272.093322754,0.000121,0.0,0.0,0.0,0.000121,0.0,0.0,0.0,0.004356,2
1668536790195241701,208083,1668536790344630679,gps,2,1,42.300973016,-83.6979677736,272.093322754,0.000121,0.0,0.0,0.0,0.000121,0.0,0.0,0.0,0.004356,2
1668536790204704614,208084,1668536790354635749,gps,2,1,42.3009730167,-83.697967836,272.093170166,0.000121,0.0,0.0,0.0,0.000121,0.0,0.0,0.0,0.004356,2
1668536790214608778,208085,1668536790364691825,gps,2,1,42.3009730171,-83.6979678965,272.093048096,0.000121,0.0,0.0,0.0,0.000121,0.0,0.0,0.0,0.004356,2
1668536790224875858,208086,1668536790374646598,gps,2,1,42.3009730158,-83.6979679586,272.093017578,0.000121,0.0,0.0,0.0,0.000121,0.0,0.0,0.0,0.004356,2
1668536790234878056,208087,1668536790384640853,gps,2,1,42.3009730165,-83.6979680225,272.09286499,0.000121,0.0,0.0,0.0,0.000121,0.0,0.0,0.0,0.004356,2
1668536790244558343,208088,1668536790394717950,gps,2,1,42.3009730167,-83.6979680848,272.09274292,0.000121,0.0,0.0,0.0,0.000121,0.0,0.0,0.0,0.004356,2
1668536790255096164,208089,1668536790404745663,gps,2,1,42.3009730156,-83.6979681488,272.092712402,0.000121,0.0,0.0,0.0,0.000121,0.0,0.0,0.0,0.004356,2
1668536790264978597,208090,1668536790414650512,gps,2,1,42.3009730161,-83.6979682144,272.092559814,0.000121,0.0,0.0,0.0,0.000121,0.0,0.0,0.0,0.004356,2
1668536790274577519,208091,1668536790424714327,gps,2,1,42.3009730165,-83.6979682785,272.092437744,0.000121,0.0,0.0,0.0,0.000121,0.0,0.0,0.0,0.004356,2
1668536790284899138,208092,1668536790434642317,gps,2,1,42.3009730153,-83.6979683442,272.092407227,0.000121,0.0,0.0,0.0,0.000121,0.0,0.0,0.0,0.004356,2
1668536790294733715,208093,1668536790444647804,gps,2,1,42.3009730157,-83.6979684115,272.092254639,0.000121,0.0,0.0,0.0,0.000121,0.0,0.0,0.0,0.004356,2
1668536790304830353,208094,1668536790454718826,gps,2,1,42.3009730163,-83.6979684777,272.092102051,0.000121,0.0,0.0,0.0,0.000121,0.0,0.0,0.0,0.004356,2
1668536790314738081,208095,1668536790464658810,gps,2,1,42.3009730152,-83.6979685452,272.092071533,0.000121,0.0,0.0,0.0,0.000121,0.0,0.0,0.0,0.004356,2
1668536790324783889,208096,1668536790474655191,gps,2,1,42.3009730154,-83.6979686144,272.091918945,0.000121,0.0,0.0,0.0,0.000121,0.0,0.0,0.0,0.004356,2
1668536790334702645,208097,1668536790484699313,gps,2,1,42.3009730162,-83.6979686823,272.09173584,0.000121,0.0,0.0,0.0,0.000121,0.0,0.0,0.0,0.004356,2
1668536790344891253,208098,1668536790494648610,gps,2,1,42.3009730149,-83.6979687514,272.091705322,0.000121,0.0,0.0,0.0,0.000121,0.0,0.0,0.0,0.004356,2
1668536790354646508,208099,1668536790504643701,gps,2,1,42.3009730152,-83.6979688225,272.091522217,0.000121,0.0,0.0,0.0,0.000121,0.0,0.0,0.0,0.004356,2
1668536790364601361,208100,1668536790514707290,gps,2,1,42.3009730159,-83.6979688921,272.091339111,0.000121,0.0,0.0,0.0,0.000121,0.0,0.0,0.0,0.004356,2
1668536790374861326,208101,1668536790524644186,gps,2,1,42.3009730145,-83.6979689631,272.091278076,0.000121,0.0,0.0,0.0,0.000121,0.0,0.0,0.0,0.004356,2
1668536790384534527,208102,1668536790534645590,gps,2,1,42.3009730149,-83.6979690361,272.091094971,0.000121,0.0,0.0,0.0,0.000121,0.0,0.0,0.0,0.004356,2
1668536790394803017,208103,1668536790544713636,gps,2,1,42.3009730151,-83.6979691072,272.090911865,0.000121,0.0,0.0,0.0,0.000121,0.0,0.0,0.0,0.004356,2
1668536790404835095,208104,1668536790554648036,gps,2,1,42.3009730137,-83.69796918,272.090881348,0.000121,0.0,0.0,0.0,0.000121,0.0,0.0,0.0,0.004356,2
1668536790414661284,208105,1668536790564703985,gps,2,1,42.3009730141,-83.6979692548,272.090698242,0.000121,0.0,0.0,0.0,0.000121,0.0,0.0,0.0,0.004356,2
1668536790424920456,208106,1668536790574756014,gps,2,1,42.3009730139,-83.6979693277,272.090515137,0.000121,0.0,0.0,0.0,0.000121,0.0,0.0,0.0,0.004356,2
1668536790435162976,208107,1668536790584760201,gps,2,1,42.3009730126,-83.6979694024,272.090484619,0.000121,0.0,0.0,0.0,0.000121,0.0,0.0,0.0,0.004356,2
1668536790444726122,208108,1668536790594676928,gps,2,1,42.3009730128,-83.6979694787,272.090301514,0.000121,0.0,0.0,0.0,0.000121,0.0,0.0,0.0,0.004356,2
1668536790455053927,208109,1668536790604753815,gps,2,1,42.3009730127,-83.6979695535,272.090148926,0.000121,0.0,0.0,0.0,0.000121,0.0,0.0,0.0,0.004356,2
1668536790464801915,208110,1668536790614762537,gps,2,1,42.3009730105,-83.69796963,272.090362549,0.000121,0.0,0.0,0.0,0.000121,0.0,0.0,0.0,0.004356,2
1668536790474874157,208111,1668536790624803074,gps,2,1,42.3009730105,-83.6979697081,272.090209961,0.000121,0.0,0.0,0.0,0.000121,0.0,0.0,0.0,0.004356,2
1668536790484734063,208112,1668536790634661599,gps,2,1,42.3009730107,-83.6979697847,272.090057373,0.000121,0.0,0.0,0.0,0.000121,0.0,0.0,0.0,0.004356,2
1668536790495019239,208113,1668536790644642878,gps,2,1,42.3009730086,-83.697969863,272.090270996,0.000121,0.0,0.0,0.0,0.000121,0.0,0.0,0.0,0.004356,2
1668536790504739606,208114,1668536790654840520,gps,2,1,42.3009730086,-83.6979699428,272.090118408,0.000121,0.0,0.0,0.0,0.000121,0.0,0.0,0.0,0.004356,2
1668536790514674408,208115,1668536790664685244,gps,2,1,42.3009730091,-83.6979700216,272.089935303,0.000121,0.0,0.0,0.0,0.000121,0.0,0.0,0.0,0.004356,2
1668536790524799241,208116,1668536790674659862,gps,2,1,42.300973007,-83.6979701016,272.090118408,0.000121,0.0,0.0,0.0,0.000121,0.0,0.0,0.0,0.004356,2
1668536790534493098,208117,1668536790684646987,gps,2,1,42.3009730072,-83.6979701833,272.08996582,0.000121,0.0,0.0,0.0,0.000121,0.0,0.0,0.0,0.004356,2
1668536790544659318,208118,1668536790694727263,gps,2,1,42.3009730078,-83.6979702637,272.089752197,0.000121,0.0,0.0,0.0,0.000121,0.0,0.0,0.0,0.004356,2
1668536790554402629,208119,1668536790704646013,gps,2,1,42.3009730058,-83.6979703455,272.089935303,0.000121,0.0,0.0,0.0,0.000121,0.0,0.0,0.0,0.004356,2
1668536790565101864,208120,1668536790714647667,gps,2,1,42.3009730064,-83.6979704292,272.089752197,0.000121,0.0,0.0,0.0,0.000121,0.0,0.0,0.0,0.004356,2
1668536790574516933,208121,1668536790724710802,gps,2,1,42.3009730066,-83.6979705111,272.089569092,0.000121,0.0,0.0,0.0,0.000121,0.0,0.0,0.0,0.004356,2
1668536790584937732,208122,1668536790734646738,gps,2,1,42.3009730047,-83.6979705948,272.08972168,0.000121,0.0,0.0,0.0,0.000121,0.0,0.0,0.0,0.004356,2
1668536790594914342,208123,1668536790744710741,gps,2,1,42.3009730052,-83.6979706803,272.089538574,0.000121,0.0,0.0,0.0,0.000121,0.0,0.0,0.0,0.004356,2
1668536790604788319,208124,1668536790754660507,gps,2,1,42.3009730052,-83.6979707637,272.089355469,0.000121,0.0,0.0,0.0,0.000121,0.0,0.0,0.0,0.004356,2
1668536790614740992,208125,1668536790764668327,gps,2,1,42.3009730035,-83.6979708494,272.089508057,0.000121,0.0,0.0,0.0,0.000121,0.0,0.0,0.0,0.004356,2
1668536790624957872,208126,1668536790774737033,gps,2,1,42.3009730037,-83.6979709365,272.089294434,0.000121,0.0,0.0,0.0,0.000121,0.0,0.0,0.0,0.004356,2
1668536790634933693,208127,1668536790784649296,gps,2,1,42.3009730037,-83.697971022,272.089141846,0.000121,0.0,0.0,0.0,0.000121,0.0,0.0,0.0,0.004356,2
1668536790644728021,208128,1668536790794655764,gps,2,1,42.3009730021,-83.6979711095,272.089233398,0.000121,0.0,0.0,0.0,0.000121,0.0,0.0,0.0,0.004356,2
1668536790655100808,208129,1668536790804702689,gps,2,1,42.300973002,-83.6979711984,272.089050293,0.000121,0.0,0.0,0.0,0.000121,0.0,0.0,0.0,0.004356,2
1668536790664660136,208130,1668536790814651489,gps,2,1,42.3009730022,-83.697971286,272.088867188,0.000121,0.0,0.0,0.0,0.000121,0.0,0.0,0.0,0.004356,2
1668536790674939008,208131,1668536790824676800,gps,2,1,42.3009730006,-83.6979713754,272.08895874,0.000121,0.0,0.0,0.0,0.000121,0.0,0.0,0.0,0.004356,2
1668536790684698077,208132,1668536790834731528,gps,2,1,42.3009730005,-83.6979714662,272.088775635,0.000121,0.0,0.0,0.0,0.000121,0.0,0.0,0.0,0.004356,2
1668536790694684859,208133,1668536790844730026,gps,2,1,42.3009730009,-83.6979715559,272.088562012,0.000121,0.0,0.0,0.0,0.000121,0.0,0.0,0.0,0.004356,2
1668536790704646216,208134,1668536790854658792,gps,2,1,42.3009729992,-83.6979716471,272.088623047,0.000121,0.0,0.0,0.0,0.000121,0.0,0.0,0.0,0.004356,2
1668536790714534443,208135,1668536790864658856,gps,2,1,42.3009729993,-83.6979717401,272.088409424,0.000121,0.0,0.0,0.0,0.000121,0.0,0.0,0.0,0.004356,2
1668536790725037113,208136,1668536790874716068,gps,2,1,42.3009729997,-83.6979718316,272.088195801,0.000121,0.0,0.0,0.0,0.000121,0.0,0.0,0.0,0.004356,2
1668536790735127375,208137,1668536790884671617,gps,2,1,42.3009729979,-83.6979719248,272.088226318,0.000121,0.0,0.0,0.0,0.000121,0.0,0.0,0.0,0.004356,2
1668536790745106352,208138,1668536790894713831,gps,2,1,42.3009729981,-83.6979720198,272.088012695,0.000121,0.0,0.0,0.0,0.000121,0.0,0.0,0.0,0.004356,2
1668536790754935851,208139,1668536790904767827,gps,2,1,42.3009729982,-83.6979721131,272.087768555,0.000121,0.0,0.0,0.0,0.000121,0.0,0.0,0.0,0.004356,2
1668536790764639952,208140,1668536790914673234,gps,2,1,42.3009729964,-83.6979722082,272.08782959,0.000121,0.0,0.0,0.0,0.000121,0.0,0.0,0.0,0.004356,2
1668536790775048390,208141,1668536790924720983,gps,2,1,42.3009729965,-83.6979723052,272.087585449,0.000121,0.0,0.0,0.0,0.000121,0.0,0.0,0.0,0.004356,2
1668536790784765662,208142,1668536790934661196,gps,2,1,42.3009729962,-83.6979724001,272.087371826,0.000121,0.0,0.0,0.0,0.000121,0.0,0.0,0.0,0.004356,2
1668536790794782213,208143,1668536790944662545,gps,2,1,42.3009729945,-83.6979724977,272.087341309,0.000121,0.0,0.0,0.0,0.000121,0.0,0.0,0.0,0.004356,2
1668536790804693490,208144,1668536790954652143,gps,2,1,42.3009729943,-83.6979725967,272.087097168,0.000121,0.0,0.0,0.0,0.000121,0.0,0.0,0.0,0.004356,2
1668536790814909804,208145,1668536790964721388,gps,2,1,42.3009729937,-83.6979726935,272.086914062,0.000121,0.0,0.0,0.0,0.000121,0.0,0.0,0.0,0.004356,2
1668536790824840095,208146,1668536790974692289,gps,2,1,42.3009729919,-83.6979727931,272.086853027,0.000121,0.0,0.0,0.0,0.000121,0.0,0.0,0.0,0.004356,2
1668536790834570806,208147,1668536790984656996,gps,2,1,42.3009729913,-83.6979728938,272.086608887,0.000121,0.0,0.0,0.0,0.000121,0.0,0.0,0.0,0.004356,2
1668536790844567977,208148,1668536790994720532,gps,2,1,42.3009729909,-83.697972993,272.086395264,0.000121,0.0,0.0,0.0,0.000121,0.0,0.0,0.0,0.004356,2
1668536790855216134,208149,1668536791004672132,gps,2,1,42.3009729891,-83.6979730945,272.086334229,0.000121,0.0,0.0,0.0,0.000121,0.0,0.0,0.0,0.004356,2
1668536790864649840,208150,1668536791014663661,gps,2,1,42.3009729885,-83.6979731968,272.086151123,0.000121,0.0,0.0,0.0,0.000121,0.0,0.0,0.0,0.004356,2
1668536790874835878,208151,1668536791024715956,gps,2,1,42.3009729884,-83.6979732979,272.085906982,0.000121,0.0,0.0,0.0,0.000121,0.0,0.0,0.0,0.004356,2
1668536790884805036,208152,1668536791034672859,gps,2,1,42.3009729868,-83.6979734007,272.085876465,0.000121,0.0,0.0,0.0,0.000121,0.0,0.0,0.0,0.004356,2
1668536790895041452,208153,1668536791044720330,gps,2,1,42.3009729865,-83.6979735042,272.085693359,0.000121,0.0,0.0,0.0,0.000121,0.0,0.0,0.0,0.004356,2
1668536790904572384,208154,1668536791054663631,gps,2,1,42.3009729866,-83.6979736072,272.085479736,0.000121,0.0,0.0,0.0,0.000121,0.0,0.0,0.0,0.004356,2
1668536790914902670,208155,1668536791064697449,gps,2,1,42.3009729851,-83.697973711,272.085479736,0.000121,0.0,0.0,0.0,0.000121,0.0,0.0,0.0,0.004356,2
1668536790924835851,208156,1668536791074800881,gps,2,1,42.3009729853,-83.6979738156,272.085296631,0.000121,0.0,0.0,0.0,0.000121,0.0,0.0,0.0,0.004356,2
1668536790935197357,208157,1668536791084806929,gps,2,1,42.3009729854,-83.6979739193,272.085113525,0.000121,0.0,0.0,0.0,0.000121,0.0,0.0,0.0,0.004356,2
1668536790944770758,208158,1668536791094709383,gps,2,1,42.3009729844,-83.6979740274,272.084899902,0.000121,0.0,0.0,0.0,0.000121,0.0,0.0,0.0,0.004356,2
1668536790954607632,208159,1668536791104745076,gps,2,1,42.3009729847,-83.6979741328,272.084747314,0.000121,0.0,0.0,0.0,0.000121,0.0,0.0,0.0,0.004356,2
1668536790965145670,208160,1668536791114734675,gps,2,1,42.3009729846,-83.6979742372,272.084564209,0.000121,0.0,0.0,0.0,0.000121,0.0,0.0,0.0,0.004356,2
1668536790974857097,208161,1668536791124665908,gps,2,1,42.3009729836,-83.697974346,272.084411621,0.000121,0.0,0.0,0.0,0.000121,0.0,0.0,0.0,0.004356,2
1668536790984609960,208162,1668536791134723170,gps,2,1,42.3009729838,-83.6979744518,272.084289551,0.000121,0.0,0.0,0.0,0.000121,0.0,0.0,0.0,0.004356,2
1668536790994951552,208163,1668536791144815220,gps,2,1,42.3009729835,-83.6979745569,272.08416748,0.000121,0.0,0.0,0.0,0.000121,0.0,0.0,0.0,0.004356,2
1668536791005165771,208164,1668536791154790431,gps,2,1,42.3009729827,-83.6979746663,272.08404541,0.000121,0.0,0.0,0.0,0.000121,0.0,0.0,0.0,0.004356,2
1668536791014795586,208165,1668536791164675161,gps,2,1,42.3009729827,-83.697974773,272.083953857,0.000121,0.0,0.0,0.0,0.000121,0.0,0.0,0.0,0.004356,2
1668536791025021498,208166,1668536791174732825,gps,2,1,42.3009729825,-83.6979748788,272.083892822,0.000121,0.0,0.0,0.0,0.000121,0.0,0.0,0.0,0.004356,2
1668536791035124605,208167,1668536791184667148,gps,2,1,42.3009729818,-83.6979749892,272.083770752,0.000121,0.0,0.0,0.0,0.000121,0.0,0.0,0.0,0.004356,2
1668536791044927317,208168,1668536791194670149,gps,2,1,42.3009729817,-83.6979750971,272.083679199,0.000121,0.0,0.0,0.0,0.000121,0.0,0.0,0.0,0.004356,2
1668536791054954247,208169,1668536791204752409,gps,2,1,42.300972982,-83.6979752045,272.083618164,0.000121,0.0,0.0,0.0,0.000121,0.0,0.0,0.0,0.004356,2
1668536791064698834,208170,1668536791214655168,gps,2,1,42.3009729804,-83.6979753157,272.083526611,0.000121,0.0,0.0,0.0,0.000121,0.0,0.0,0.0,0.004356,2
1668536791074827679,208171,1668536791224661085,gps,2,1,42.3009729804,-83.6979754249,272.083496094,0.000121,0.0,0.0,0.0,0.000121,0.0,0.0,0.0,0.004356,2
1668536791084663293,208172,1668536791234720897,gps,2,1,42.300972981,-83.6979755334,272.083374023,0.000121,0.0,0.0,0.0,0.000121,0.0,0.0,0.0,0.004356,2
1668536791094526457,208173,1668536791244653801,gps,2,1,42.3009729794,-83.6979756458,272.083282471,0.000121,0.0,0.0,0.0,0.000121,0.0,0.0,0.0,0.004356,2
1668536791104707203,208174,1668536791254680064,gps,2,1,42.3009729798,-83.6979757567,272.083190918,0.000121,0.0,0.0,0.0,0.000121,0.0,0.0,0.0,0.004356,2
1668536791114695879,208175,1668536791264726253,gps,2,1,42.3009729802,-83.6979758662,272.083099365,0.000121,0.0,0.0,0.0,0.000121,0.0,0.0,0.0,0.004356,2
1668536791124614063,208176,1668536791274680394,gps,2,1,42.3009729786,-83.69797598,272.083007812,0.000169,0.0,0.0,0.0,0.000196,0.0,0.0,0.0,0.004489,2
1668536791134589515,208177,1668536791284683326,gps,2,1,42.3009729792,-83.6979760925,272.082855225,0.000169,0.0,0.0,0.0,0.000196,0.0,0.0,0.0,0.004489,2
1668536791144913739,208178,1668536791294743849,gps,2,1,42.3009729792,-83.6979762035,272.082763672,0.000169,0.0,0.0,0.0,0.000196,0.0,0.0,0.0,0.004489,2
1668536791154500303,208179,1668536791304681731,gps,2,1,42.3009729778,-83.6979763188,272.082611084,0.000169,0.0,0.0,0.0,0.000196,0.0,0.0,0.0,0.004489,2
1668536791164776332,208180,1668536791314680524,gps,2,1,42.3009729781,-83.6979764329,272.082427979,0.000169,0.0,0.0,0.0,0.000196,0.0,0.0,0.0,0.004489,2
1668536791175159323,208181,1668536791324747144,gps,2,1,42.300972978,-83.6979765453,272.082305908,0.000169,0.0,0.0,0.0,0.000196,0.0,0.0,0.0,0.004489,2
1668536791184755251,208182,1668536791334741519,gps,2,1,42.3009729766,-83.6979766623,272.082122803,0.000169,0.0,0.0,0.0,0.000196,0.0,0.0,0.0,0.004489,2
1668536791194893381,208183,1668536791344668938,gps,2,1,42.3009729766,-83.697976778,272.08190918,0.000169,0.0,0.0,0.0,0.000196,0.0,0.0,0.0,0.004489,2
1668536791204745295,208184,1668536791354730571,gps,2,1,42.3009729767,-83.697976892,272.081756592,0.000169,0.0,0.0,0.0,0.000196,0.0,0.0,0.0,0.004489,2
1668536791215065400,208185,1668536791364668342,gps,2,1,42.3009729753,-83.6979770107,272.081542969,0.000169,0.0,0.0,0.0,0.000196,0.0,0.0,0.0,0.004489,2
1668536791224813774,208186,1668536791374671699,gps,2,1,42.3009729752,-83.6979771279,272.081298828,0.000169,0.0,0.0,0.0,0.000196,0.0,0.0,0.0,0.004489,2
1668536791234739738,208187,1668536791384761866,gps,2,1,42.3009729756,-83.6979772441,272.081085205,0.000169,0.0,0.0,0.0,0.000196,0.0,0.0,0.0,0.004489,2
1668536791244549040,208188,1668536791394688205,gps,2,1,42.3009729741,-83.6979773645,272.080810547,0.000169,0.0,0.0,0.0,0.000196,0.0,0.0,0.0,0.004489,2
1668536791254697199,208189,1668536791404773910,gps,2,1,42.3009729742,-83.6979774837,272.080535889,0.000169,0.0,0.0,0.0,0.000196,0.0,0.0,0.0,0.004489,2
1668536791265018397,208190,1668536791414747398,gps,2,1,42.3009729746,-83.6979776016,272.080291748,0.000169,0.0,0.0,0.0,0.000196,0.0,0.0,0.0,0.004489,2
1668536791274749108,208191,1668536791424681386,gps,2,1,42.300972973,-83.6979777235,272.079986572,0.000169,0.0,0.0,0.0,0.000196,0.0,0.0,0.0,0.004489,2
1668536791284592826,208192,1668536791434684732,gps,2,1,42.3009729733,-83.6979778446,272.079681396,0.000169,0.0,0.0,0.0,0.000196,0.0,0.0,0.0,0.004489,2
1668536791294930024,208193,1668536791444764366,gps,2,1,42.3009729734,-83.6979779644,272.079376221,0.000169,0.0,0.0,0.0,0.000196,0.0,0.0,0.0,0.004489,2
1668536791304690747,208194,1668536791454680209,gps,2,1,42.3009729713,-83.6979780879,272.079071045,0.000169,0.0,0.0,0.0,0.000196,0.0,0.0,0.0,0.004489,2
1668536791314741845,208195,1668536791464694168,gps,2,1,42.3009729716,-83.6979782109,272.078735352,0.000169,0.0,0.0,0.0,0.000196,0.0,0.0,0.0,0.004489,2
1668536791325065211,208196,1668536791474754430,gps,2,1,42.3009729714,-83.6979783319,272.078430176,0.000169,0.0,0.0,0.0,0.000196,0.0,0.0,0.0,0.004489,2
1668536791334766325,208197,1668536791484709305,gps,2,1,42.3009729694,-83.6979784569,272.078063965,0.000169,0.0,0.0,0.0,0.000196,0.0,0.0,0.0,0.004489,2
1668536791344941710,208198,1668536791494706700,gps,2,1,42.3009729695,-83.6979785815,272.077728271,0.000169,0.0,0.0,0.0,0.000196,0.0,0.0,0.0,0.004489,2
1668536791354557472,208199,1668536791504745037,gps,2,1,42.3009729694,-83.6979787043,272.077423096,0.000169,0.0,0.0,0.0,0.000196,0.0,0.0,0.0,0.004489,2
1668536791364604401,208200,1668536791514715042,gps,2,1,42.3009729675,-83.6979788311,272.077056885,0.000169,0.0,0.0,0.0,0.000196,0.0,0.0,0.0,0.004489,2
1668536791374604583,208201,1668536791524677473,gps,2,1,42.3009729674,-83.6979789571,272.076721191,0.000169,0.0,0.0,0.0,0.000196,0.0,0.0,0.0,0.004489,2
1668536791384566820,208202,1668536791534744842,gps,2,1,42.3009729677,-83.6979790817,272.076385498,0.000169,0.0,0.0,0.0,0.000196,0.0,0.0,0.0,0.004489,2
1668536791394695667,208203,1668536791544682865,gps,2,1,42.3009729658,-83.69797921,272.076019287,0.000169,0.0,0.0,0.0,0.000196,0.0,0.0,0.0,0.004489,2
1668536791404635100,208204,1668536791554693452,gps,2,1,42.300972966,-83.6979793377,272.075683594,0.000169,0.0,0.0,0.0,0.000196,0.0,0.0,0.0,0.004489,2
1668536791415018698,208205,1668536791564809623,gps,2,1,42.3009729664,-83.6979794642,272.0753479,0.000169,0.0,0.0,0.0,0.000196,0.0,0.0,0.0,0.004489,2
1668536791424908132,208206,1668536791574761346,gps,2,1,42.3009729599,-83.6979795921,272.075256348,0.000169,0.0,0.0,0.0,0.000196,0.0,0.0,0.0,0.004489,2
1668536791434878102,208207,1668536791584821294,gps,2,1,42.3009729603,-83.6979797215,272.074920654,0.000169,0.0,0.0,0.0,0.000196,0.0,0.0,0.0,0.004489,2
1668536791444858287,208208,1668536791594761657,gps,2,1,42.3009729607,-83.6979798499,272.074554443,0.000169,0.0,0.0,0.0,0.000196,0.0,0.0,0.0,0.004489,2
1668536791455114953,208209,1668536791604730829,gps,2,1,42.3009729544,-83.6979799795,272.074462891,0.000169,0.0,0.0,0.0,0.000196,0.0,0.0,0.0,0.004489,2
1668536791464943629,208210,1668536791614809369,gps,2,1,42.300972955,-83.6979801109,272.074127197,0.000169,0.0,0.0,0.0,0.000196,0.0,0.0,0.0,0.004489,2
1668536791475133681,208211,1668536791624825014,gps,2,1,42.300972955,-83.6979802406,272.073791504,0.000169,0.0,0.0,0.0,0.000196,0.0,0.0,0.0,0.004489,2
1668536791484794691,208212,1668536791634734903,gps,2,1,42.3009729489,-83.697980372,272.073699951,0.000169,0.0,0.0,0.0,0.000196,0.0,0.0,0.0,0.004489,2
1668536791494846042,208213,1668536791644706930,gps,2,1,42.3009729493,-83.6979805053,272.073364258,0.000169,0.0,0.0,0.0,0.000196,0.0,0.0,0.0,0.004489,2
1668536791504724121,208214,1668536791654839586,gps,2,1,42.3009729493,-83.6979806366,272.073028564,0.000169,0.0,0.0,0.0,0.000196,0.0,0.0,0.0,0.004489,2
1668536791514794243,208215,1668536791664696757,gps,2,1,42.3009729432,-83.6979807699,272.072906494,0.000169,0.0,0.0,0.0,0.000196,0.0,0.0,0.0,0.004489,2
1668536791524604174,208216,1668536791674687519,gps,2,1,42.3009729432,-83.6979809047,272.072601318,0.000169,0.0,0.0,0.0,0.000196,0.0,0.0,0.0,0.004489,2
1668536791534720532,208217,1668536791684792852,gps,2,1,42.3009729434,-83.6979810381,272.072265625,0.000169,0.0,0.0,0.0,0.000196,0.0,0.0,0.0,0.004489,2
1668536791544857889,208218,1668536791694724781,gps,2,1,42.3009729375,-83.6979811733,272.072143555,0.000169,0.0,0.0,0.0,0.000196,0.0,0.0,0.0,0.004489,2
1668536791554637860,208219,1668536791704689046,gps,2,1,42.3009729373,-83.69798131,272.071807861,0.000169,0.0,0.0,0.0,0.000196,0.0,0.0,0.0,0.004489,2
