%time,field.header.seq,field.header.stamp,field.header.frame_id,field.status.status,field.status.service,field.latitude,field.longitude,field.altitude,field.position_covariance0,field.position_covariance1,field.position_covariance2,field.position_covariance3,field.position_covariance4,field.position_covariance5,field.position_covariance6,field.position_covariance7,field.position_covariance8,field.position_covariance_type
1668538807855287715,409849,1668538807925579590,gps,2,1,42.3003440892,-83.6985907633,270.96270752,6.4e-05,0.0,0.0,0.0,8.1e-05,0.0,0.0,0.0,0.001681,2
1668538807865488346,409850,1668538807935655626,gps,2,1,42.30034409,-83.698590764,270.96270752,6.4e-05,0.0,0.0,0.0,8.1e-05,0.0,0.0,0.0,0.001681,2
1668538807875501658,409851,1668538807945598195,gps,2,1,42.3003440883,-83.6985907651,270.96270752,6.4e-05,0.0,0.0,0.0,8.1e-05,0.0,0.0,0.0,0.001681,2
1668538807885365095,409852,1668538807955622875,gps,2,1,42.3003440892,-83.6985907658,270.96270752,6.4e-05,0.0,0.0,0.0,8.1e-05,0.0,0.0,0.0,0.001681,2
1668538807895766988,409853,1668538807965671747,gps,2,1,42.30034409,-83.6985907666,270.96270752,6.4e-05,0.0,0.0,0.0,8.1e-05,0.0,0.0,0.0,0.001681,2
1668538807905352495,409854,1668538807975601789,gps,2,1,42.3003440884,-83.6985907676,270.96270752,6.4e-05,0.0,0.0,0.0,8.1e-05,0.0,0.0,0.0,0.001681,2
1668538807915835486,409855,1668538807985667358,gps,2,1,42.3003440892,-83.6985907684,270.962677002,6.4e-05,0.0,0.0,0.0,8.1e-05,0.0,0.0,0.0,0.001681,2
1668538807925614150,409856,1668538807995744895,gps,2,1,42.3003440901,-83.6985907691,270.962677002,6.4e-05,0.0,0.0,0.0,8.1e-05,0.0,0.0,0.0,0.001681,2
1668538807935789551,409857,1668538808005657164,gps,2,1,42.3003440885,-83.6985907702,270.962677002,6.4e-05,0.0,0.0,0.0,8.1e-05,0.0,0.0,0.0,0.001681,2
1668538807945650530,409858,1668538808015729074,gps,2,1,42.3003440894,-83.6985907709,270.962677002,6.4e-05,0.0,0.0,0.0,8.1e-05,0.0,0.0,0.0,0.001681,2
1668538807955735092,409859,1668538808025688739,gps,2,1,42.3003440902,-83.6985907716,270.962646484,6.4e-05,0.0,0.0,0.0,8.1e-05,0.0,0.0,0.0,0.001681,2
1668538807965659562,409860,1668538808035603965,gps,2,1,42.300344087,-83.6985907713,270.962860107,6.4e-05,0.0,0.0,0.0,8.1e-05,0.0,0.0,0.0,0.001681,2
1668538807975690391,409861,1668538808045794192,gps,2,1,42.3003440878,-83.698590772,270.96282959,6.4e-05,0.0,0.0,0.0,8.1e-05,0.0,0.0,0.0,0.001681,2
1668538807985639208,409862,1668538808055682237,gps,2,1,42.3003440886,-83.6985907728,270.96282959,6.4e-05,0.0,0.0,0.0,8.1e-05,0.0,0.0,0.0,0.001681,2
1668538807995450922,409863,1668538808065633659,gps,2,1,42.3003440855,-83.6985907725,270.963012695,6.4e-05,0.0,0.0,0.0,8.1e-05,0.0,0.0,0.0,0.001681,2
1668538808005529259,409864,1668538808075688818,gps,2,1,42.3003440863,-83.6985907732,270.962982178,6.4e-05,0.0,0.0,0.0,8.1e-05,0.0,0.0,0.0,0.001681,2
1668538808015460439,409865,1668538808085602937,gps,2,1,42.3003440872,-83.6985907739,270.962982178,6.4e-05,0.0,0.0,0.0,8.1e-05,0.0,0.0,0.0,0.001681,2
1668538808025434246,409866,1668538808095584760,gps,2,1,42.3003440841,-83.6985907736,270.963165283,6.4e-05,0.0,0.0,0.0,8.1e-05,0.0,0.0,0.0,0.001681,2
1668538808035638787,409867,1668538808105683553,gps,2,1,42.3003440849,-83.6985907744,270.963165283,6.4e-05,0.0,0.0,0.0,8.1e-05,0.0,0.0,0.0,0.001681,2
1668538808045629356,409868,1668538808115710830,gps,2,1,42.3003440858,-83.6985907751,270.963134766,6.4e-05,0.0,0.0,0.0,8.1e-05,0.0,0.0,0.0,0.001681,2
1668538808055460605,409869,1668538808125603593,gps,2,1,42.3003440827,-83.6985907748,270.963317871,6.4e-05,0.0,0.0,0.0,8.1e-05,0.0,0.0,0.0,0.001681,2
1668538808065340242,409870,1668538808135679297,gps,2,1,42.3003440835,-83.6985907755,270.963317871,6.4e-05,0.0,0.0,0.0,8.1e-05,0.0,0.0,0.0,0.001681,2
1668538808075835224,409871,1668538808145631070,gps,2,1,42.3003440842,-83.6985907762,270.963317871,6.4e-05,0.0,0.0,0.0,8.1e-05,0.0,0.0,0.0,0.001681,2
1668538808085729432,409872,1668538808155597795,gps,2,1,42.3003440812,-83.6985907759,270.963470459,6.4e-05,0.0,0.0,0.0,8.1e-05,0.0,0.0,0.0,0.001681,2
1668538808095777213,409873,1668538808165676000,gps,2,1,42.300344082,-83.6985907767,270.963470459,6.4e-05,0.0,0.0,0.0,8.1e-05,0.0,0.0,0.0,0.001681,2
1668538808105581429,409874,1668538808175626450,gps,2,1,42.3003440827,-83.6985907774,270.963470459,6.4e-05,0.0,0.0,0.0,8.1e-05,0.0,0.0,0.0,0.001681,2
1668538808115635728,409875,1668538808185605667,gps,2,1,42.3003440798,-83.6985907772,270.963623047,6.4e-05,0.0,0.0,0.0,8.1e-05,0.0,0.0,0.0,0.001681,2
1668538808125487880,409876,1668538808195614773,gps,2,1,42.3003440806,-83.6985907779,270.963623047,0.000121,0.0,0.0,0.0,0.000144,0.0,0.0,0.0,0.001764,2
1668538808135556579,409877,1668538808205650890,gps,2,1,42.3003440813,-83.6985907787,270.963592529,0.000121,0.0,0.0,0.0,0.000144,0.0,0.0,0.0,0.001764,2
1668538808145389172,409878,1668538808215607963,gps,2,1,42.3003440785,-83.6985907785,270.963745117,0.000121,0.0,0.0,0.0,0.000144,0.0,0.0,0.0,0.001764,2
1668538808155531378,409879,1668538808225656845,gps,2,1,42.3003440792,-83.6985907793,270.963745117,0.000121,0.0,0.0,0.0,0.000144,0.0,0.0,0.0,0.001764,2
1668538808165374863,409880,1668538808235587866,gps,2,1,42.3003440799,-83.6985907801,270.9637146,0.000121,0.0,0.0,0.0,0.000144,0.0,0.0,0.0,0.001764,2
1668538808175322294,409881,1668538808245635269,gps,2,1,42.3003440772,-83.69859078,270.963867188,0.000121,0.0,0.0,0.0,0.000144,0.0,0.0,0.0,0.001764,2
1668538808185669950,409882,1668538808255673138,gps,2,1,42.300344078,-83.6985907808,270.96383667,0.000121,0.0,0.0,0.0,0.000144,0.0,0.0,0.0,0.001764,2
1668538808195606920,409883,1668538808265612374,gps,2,1,42.3003440787,-83.6985907816,270.96383667,0.000121,0.0,0.0,0.0,0.000144,0.0,0.0,0.0,0.001764,2
1668538808205611513,409884,1668538808275603559,gps,2,1,42.3003440762,-83.6985907816,270.96395874,0.000121,0.0,0.0,0.0,0.000144,0.0,0.0,0.0,0.001764,2
1668538808215824140,409885,1668538808285670564,gps,2,1,42.3003440771,-83.6985907824,270.96395874,0.000121,0.0,0.0,0.0,0.000144,0.0,0.0,0.0,0.001764,2
1668538808225700299,409886,1668538808295691639,gps,2,1,42.3003440779,-83.6985907833,270.96395874,0.000121,0.0,0.0,0.0,0.000144,0.0,0.0,0.0,0.001764,2
1668538808235625542,409887,1668538808305631130,gps,2,1,42.3003440757,-83.6985907833,270.964080811,0.000121,0.0,0.0,0.0,0.000144,0.0,0.0,0.0,0.001764,2
1668538808245583746,409888,1668538808315625824,gps,2,1,42.3003440772,-83.6985907842,270.964050293,0.000121,0.0,0.0,0.0,0.000144,0.0,0.0,0.0,0.001764,2
1668538808255618243,409889,1668538808325660092,gps,2,1,42.3003440784,-83.6985907851,270.964050293,0.000121,0.0,0.0,0.0,0.000144,0.0,0.0,0.0,0.001764,2
1668538808265522397,409890,1668538808335600860,gps,2,1,42.3003440771,-83.6985907853,270.964172363,0.000121,0.0,0.0,0.0,0.000144,0.0,0.0,0.0,0.001764,2
1668538808275352269,409891,1668538808345587192,gps,2,1,42.3003440797,-83.6985907864,270.964141846,0.000121,0.0,0.0,0.0,0.000144,0.0,0.0,0.0,0.001764,2
1668538808285664847,409892,1668538808355664519,gps,2,1,42.3003440813,-83.6985907874,270.964141846,0.000121,0.0,0.0,0.0,0.000144,0.0,0.0,0.0,0.001764,2
1668538808295641459,409893,1668538808365683009,gps,2,1,42.3003440814,-83.6985907877,270.964233398,0.000121,0.0,0.0,0.0,0.000144,0.0,0.0,0.0,0.001764,2
1668538808305490710,409894,1668538808375662144,gps,2,1,42.3003440856,-83.698590789,270.964202881,0.000121,0.0,0.0,0.0,0.000144,0.0,0.0,0.0,0.001764,2
1668538808315373437,409895,1668538808385674642,gps,2,1,42.3003440885,-83.6985907901,270.964172363,0.000121,0.0,0.0,0.0,0.000144,0.0,0.0,0.0,0.001764,2
1668538808325343912,409896,1668538808395598387,gps,2,1,42.3003440902,-83.6985907907,270.964263916,0.000121,0.0,0.0,0.0,0.000144,0.0,0.0,0.0,0.001764,2
1668538808335762993,409897,1668538808405664968,gps,2,1,42.3003440961,-83.6985907921,270.964233398,0.000121,0.0,0.0,0.0,0.000144,0.0,0.0,0.0,0.001764,2
1668538808345718217,409898,1668538808415610149,gps,2,1,42.3003441004,-83.6985907933,270.964202881,0.000121,0.0,0.0,0.0,0.000144,0.0,0.0,0.0,0.001764,2
1668538808355709078,409899,1668538808425599530,gps,2,1,42.3003441039,-83.698590794,270.964294434,0.000121,0.0,0.0,0.0,0.000144,0.0,0.0,0.0,0.001764,2
1668538808365680276,409900,1668538808435653355,gps,2,1,42.3003441114,-83.6985907954,270.964263916,0.000121,0.0,0.0,0.0,0.000144,0.0,0.0,0.0,0.001764,2
1668538808375862245,409901,1668538808445607601,gps,2,1,42.3003441176,-83.6985907968,270.964233398,0.000121,0.0,0.0,0.0,0.000144,0.0,0.0,0.0,0.001764,2
1668538808385536821,409902,1668538808455610565,gps,2,1,42.3003441227,-83.6985907976,270.964324951,0.000121,0.0,0.0,0.0,0.000144,0.0,0.0,0.0,0.001764,2
1668538808395455333,409903,1668538808465608444,gps,2,1,42.3003441316,-83.6985907992,270.964324951,0.000121,0.0,0.0,0.0,0.000144,0.0,0.0,0.0,0.001764,2
1668538808405651868,409904,1668538808475679981,gps,2,1,42.3003441395,-83.6985908006,270.964294434,0.000121,0.0,0.0,0.0,0.000144,0.0,0.0,0.0,0.001764,2
1668538808415542786,409905,1668538808485625011,gps,2,1,42.3003441461,-83.6985908015,270.964385986,0.000121,0.0,0.0,0.0,0.000144,0.0,0.0,0.0,0.001764,2
1668538808425660508,409906,1668538808495655784,gps,2,1,42.3003441566,-83.6985908032,270.964385986,0.000121,0.0,0.0,0.0,0.000144,0.0,0.0,0.0,0.001764,2
1668538808435426494,409907,1668538808505679235,gps,2,1,42.3003441658,-83.6985908048,270.964355469,0.000121,0.0,0.0,0.0,0.000144,0.0,0.0,0.0,0.001764,2
1668538808445390961,409908,1668538808515636946,gps,2,1,42.3003441741,-83.6985908058,270.964477539,0.000121,0.0,0.0,0.0,0.000144,0.0,0.0,0.0,0.001764,2
1668538808455440615,409909,1668538808525662777,gps,2,1,42.3003441863,-83.6985908077,270.964447021,0.000121,0.0,0.0,0.0,0.000144,0.0,0.0,0.0,0.001764,2
1668538808465842630,409910,1668538808535751013,gps,2,1,42.3003441971,-83.6985908093,270.964447021,0.000121,0.0,0.0,0.0,0.000144,0.0,0.0,0.0,0.001764,2
1668538808475840404,409911,1668538808545738749,gps,2,1,42.3003442047,-83.6985908081,270.964813232,0.000121,0.0,0.0,0.0,0.000144,0.0,0.0,0.0,0.001764,2
1668538808485660005,409912,1668538808555640732,gps,2,1,42.3003442187,-83.6985908102,270.964813232,0.000121,0.0,0.0,0.0,0.000144,0.0,0.0,0.0,0.001764,2
1668538808495700720,409913,1668538808565680403,gps,2,1,42.3003442312,-83.6985908121,270.964813232,0.000121,0.0,0.0,0.0,0.000144,0.0,0.0,0.0,0.001764,2
1668538808505341950,409914,1668538808575588848,gps,2,1,42.3003442409,-83.6985908111,270.965179443,0.000121,0.0,0.0,0.0,0.000144,0.0,0.0,0.0,0.001764,2
1668538808515708243,409915,1668538808585598308,gps,2,1,42.3003442568,-83.6985908134,270.965179443,0.000121,0.0,0.0,0.0,0.000144,0.0,0.0,0.0,0.001764,2
1668538808525571459,409916,1668538808595654825,gps,2,1,42.300344271,-83.6985908155,270.965179443,0.000121,0.0,0.0,0.0,0.000144,0.0,0.0,0.0,0.001764,2
1668538808535736849,409917,1668538808605604804,gps,2,1,42.3003442827,-83.6985908149,270.965515137,0.000121,0.0,0.0,0.0,0.000144,0.0,0.0,0.0,0.001764,2
1668538808545543138,409918,1668538808615682974,gps,2,1,42.3003443006,-83.6985908174,270.965515137,0.000121,0.0,0.0,0.0,0.000144,0.0,0.0,0.0,0.001764,2
1668538808555517390,409919,1668538808625696301,gps,2,1,42.3003443168,-83.6985908197,270.965515137,0.000121,0.0,0.0,0.0,0.000144,0.0,0.0,0.0,0.001764,2
1668538808565499251,409920,1668538808635576668,gps,2,1,42.3003443306,-83.6985908193,270.96585083,0.000121,0.0,0.0,0.0,0.000144,0.0,0.0,0.0,0.001764,2
1668538808575705638,409921,1668538808645610963,gps,2,1,42.3003443502,-83.698590822,270.96585083,0.000121,0.0,0.0,0.0,0.000144,0.0,0.0,0.0,0.001764,2
1668538808585385640,409922,1668538808655660170,gps,2,1,42.3003443685,-83.6985908245,270.96585083,0.000121,0.0,0.0,0.0,0.000144,0.0,0.0,0.0,0.001764,2
1668538808595333548,409923,1668538808665639052,gps,2,1,42.3003443844,-83.6985908244,270.966186523,0.000121,0.0,0.0,0.0,0.000144,0.0,0.0,0.0,0.001764,2
1668538808605434949,409924,1668538808675634589,gps,2,1,42.3003444061,-83.6985908273,270.966186523,0.000121,0.0,0.0,0.0,0.000144,0.0,0.0,0.0,0.001764,2
1668538808615753308,409925,1668538808685670127,gps,2,1,42.3003444261,-83.69859083,270.966217041,0.000121,0.0,0.0,0.0,0.000144,0.0,0.0,0.0,0.001764,2
1668538808625733229,409926,1668538808695598433,gps,2,1,42.3003444441,-83.6985908302,270.966522217,0.000121,0.0,0.0,0.0,0.000144,0.0,0.0,0.0,0.001764,2
1668538808635795322,409927,1668538808705601989,gps,2,1,42.3003444678,-83.6985908332,270.966552734,0.000121,0.0,0.0,0.0,0.000144,0.0,0.0,0.0,0.001764,2
1668538808645755520,409928,1668538808715647123,gps,2,1,42.3003444898,-83.6985908362,270.966583252,0.000121,0.0,0.0,0.0,0.000144,0.0,0.0,0.0,0.001764,2
1668538808655707032,409929,1668538808725586419,gps,2,1,42.30034451,-83.6985908367,270.966888428,0.000121,0.0,0.0,0.0,0.000144,0.0,0.0,0.0,0.001764,2
1668538808665629644,409930,1668538808735588844,gps,2,1,42.3003445358,-83.69859084,270.966949463,0.000121,0.0,0.0,0.0,0.000144,0.0,0.0,0.0,0.001764,2
1668538808675582934,409931,1668538808745659037,gps,2,1,42.3003445598,-83.6985908431,270.96697998,0.000121,0.0,0.0,0.0,0.000144,0.0,0.0,0.0,0.001764,2
1668538808685521192,409932,1668538808755593384,gps,2,1,42.3003445823,-83.698590844,270.967285156,0.000121,0.0,0.0,0.0,0.000144,0.0,0.0,0.0,0.001764,2
1668538808695434154,409933,1668538808765579779,gps,2,1,42.3003446102,-83.6985908476,270.967315674,0.000121,0.0,0.0,0.0,0.000144,0.0,0.0,0.0,0.001764,2
1668538808705623356,409934,1668538808775647099,gps,2,1,42.3003446363,-83.6985908509,270.967376709,0.000121,0.0,0.0,0.0,0.000144,0.0,0.0,0.0,0.001764,2
1668538808715501709,409935,1668538808785574307,gps,2,1,42.300344661,-83.6985908521,270.967681885,0.000121,0.0,0.0,0.0,0.000144,0.0,0.0,0.0,0.001764,2
1668538808725552701,409936,1668538808795710711,gps,2,1,42.3003446911,-83.6985908559,270.96774292,0.000121,0.0,0.0,0.0,0.000144,0.0,0.0,0.0,0.001764,2
1668538808735518006,409937,1668538808805653988,gps,2,1,42.3003447194,-83.6985908595,270.967773438,0.000121,0.0,0.0,0.0,0.000144,0.0,0.0,0.0,0.001764,2
1668538808745691611,409938,1668538808815595596,gps,2,1,42.3003447464,-83.6985908611,270.968109131,0.000121,0.0,0.0,0.0,0.000144,0.0,0.0,0.0,0.001764,2
1668538808755394711,409939,1668538808825598997,gps,2,1,42.3003447787,-83.6985908652,270.968170166,0.000121,0.0,0.0,0.0,0.000144,0.0,0.0,0.0,0.001764,2
1668538808765659130,409940,1668538808835644874,gps,2,1,42.3003448093,-83.698590869,270.968231201,0.000121,0.0,0.0,0.0,0.000144,0.0,0.0,0.0,0.001764,2
1668538808775843907,409941,1668538808845591300,gps,2,1,42.3003448386,-83.6985908709,270.968536377,0.000121,0.0,0.0,0.0,0.000144,0.0,0.0,0.0,0.001764,2
1668538808785666763,409942,1668538808855593739,gps,2,1,42.3003448733,-83.6985908752,270.968597412,0.000121,0.0,0.0,0.0,0.000144,0.0,0.0,0.0,0.001764,2
1668538808795391711,409943,1668538808865756309,gps,2,1,42.300344906,-83.6985908793,270.968658447,0.000121,0.0,0.0,0.0,0.000144,0.0,0.0,0.0,0.001764,2
1668538808805704535,409944,1668538808875601885,gps,2,1,42.300344938,-83.6985908814,270.968963623,0.000121,0.0,0.0,0.0,0.000144,0.0,0.0,0.0,0.001764,2
1668538808815708283,409945,1668538808885649099,gps,2,1,42.300344975,-83.698590886,270.969024658,0.000121,0.0,0.0,0.0,0.000144,0.0,0.0,0.0,0.001764,2
1668538808825450063,409946,1668538808895612094,gps,2,1,42.30034501,-83.6985908903,270.969085693,0.000121,0.0,0.0,0.0,0.000144,0.0,0.0,0.0,0.001764,2
1668538808835534310,409947,1668538808905566014,gps,2,1,42.3003450444,-83.6985908927,270.969390869,0.000121,0.0,0.0,0.0,0.000144,0.0,0.0,0.0,0.001764,2
1668538808845436681,409948,1668538808915592344,gps,2,1,42.3003450838,-83.6985908976,270.969451904,0.000121,0.0,0.0,0.0,0.000144,0.0,0.0,0.0,0.001764,2
1668538808855720394,409949,1668538808925638338,gps,2,1,42.3003451212,-83.6985909022,270.969543457,0.000121,0.0,0.0,0.0,0.000144,0.0,0.0,0.0,0.001764,2
1668538808865480440,409950,1668538808935575550,gps,2,1,42.3003451581,-83.6985909049,270.969818115,0.000121,0.0,0.0,0.0,0.000144,0.0,0.0,0.0,0.001764,2
1668538808875571756,409951,1668538808945584379,gps,2,1,42.3003451998,-83.69859091,270.969909668,0.000121,0.0,0.0,0.0,0.000144,0.0,0.0,0.0,0.001764,2
1668538808885393299,409952,1668538808955644239,gps,2,1,42.3003452396,-83.698590915,270.970001221,0.000121,0.0,0.0,0.0,0.000144,0.0,0.0,0.0,0.001764,2
1668538808895250613,409953,1668538808965611268,gps,2,1,42.300345279,-83.698590918,270.970275879,0.000121,0.0,0.0,0.0,0.000144,0.0,0.0,0.0,0.001764,2
1668538808905624049,409954,1668538808975609256,gps,2,1,42.3003453231,-83.6985909234,270.970367432,0.000121,0.0,0.0,0.0,0.000144,0.0,0.0,0.0,0.001764,2
1668538808915425955,409955,1668538808985717153,gps,2,1,42.3003453653,-83.6985909286,270.970458984,0.000121,0.0,0.0,0.0,0.000144,0.0,0.0,0.0,0.001764,2
1668538808925521912,409956,1668538808995676460,gps,2,1,42.3003454073,-83.6985909307,270.97076416,0.000121,0.0,0.0,0.0,0.000144,0.0,0.0,0.0,0.001764,2
1668538808935709786,409957,1668538809005690190,gps,2,1,42.3003454539,-83.6985909363,270.970855713,0.000121,0.0,0.0,0.0,0.000144,0.0,0.0,0.0,0.001764,2
1668538808945615682,409958,1668538809015666410,gps,2,1,42.3003454984,-83.6985909418,270.970947266,0.000121,0.0,0.0,0.0,0.000144,0.0,0.0,0.0,0.001764,2
1668538808955469316,409959,1668538809025693346,gps,2,1,42.3003455429,-83.6985909443,270.971221924,0.000121,0.0,0.0,0.0,0.000144,0.0,0.0,0.0,0.001764,2
1668538808965550321,409960,1668538809035582343,gps,2,1,42.3003455919,-83.6985909502,270.971313477,0.000121,0.0,0.0,0.0,0.000144,0.0,0.0,0.0,0.001764,2
1668538808975712690,409961,1668538809045805714,gps,2,1,42.3003456388,-83.6985909559,270.971405029,0.000121,0.0,0.0,0.0,0.000144,0.0,0.0,0.0,0.001764,2
1668538808985613734,409962,1668538809055636491,gps,2,1,42.3003456858,-83.6985909588,270.971679688,0.000121,0.0,0.0,0.0,0.000144,0.0,0.0,0.0,0.001764,2
1668538808995547624,409963,1668538809065713859,gps,2,1,42.3003457372,-83.6985909651,270.97177124,0.000121,0.0,0.0,0.0,0.000144,0.0,0.0,0.0,0.001764,2
1668538809005658792,409964,1668538809075677534,gps,2,1,42.3003457865,-83.6985909711,270.971862793,0.000121,0.0,0.0,0.0,0.000144,0.0,0.0,0.0,0.001764,2
1668538809015409415,409965,1668538809085584140,gps,2,1,42.300345836,-83.6985909744,270.972137451,0.000121,0.0,0.0,0.0,0.000144,0.0,0.0,0.0,0.001764,2
1668538809025390514,409966,1668538809095600056,gps,2,1,42.3003458899,-83.698590981,270.972229004,0.000121,0.0,0.0,0.0,0.000144,0.0,0.0,0.0,0.001764,2
1668538809035348706,409967,1668538809105656284,gps,2,1,42.3003459417,-83.6985909873,270.972351074,0.000121,0.0,0.0,0.0,0.000144,0.0,0.0,0.0,0.001764,2
1668538809045778791,409968,1668538809115666668,gps,2,1,42.3003459935,-83.6985909912,270.972595215,0.000121,0.0,0.0,0.0,0.000144,0.0,0.0,0.0,0.001764,2
1668538809055824812,409969,1668538809125643941,gps,2,1,42.3003460498,-83.6985909981,270.972686768,0.000121,0.0,0.0,0.0,0.000144,0.0,0.0,0.0,0.001764,2
1668538809065714395,409970,1668538809135585871,gps,2,1,42.3003461041,-83.6985910048,270.972808838,0.000121,0.0,0.0,0.0,0.000144,0.0,0.0,0.0,0.001764,2
1668538809075942150,409971,1668538809145593046,gps,2,1,42.3003461584,-83.698591009,270.973052979,0.000121,0.0,0.0,0.0,0.000144,0.0,0.0,0.0,0.001764,2
1668538809085586003,409972,1668538809155643869,gps,2,1,42.3003462172,-83.6985910163,270.973175049,0.000121,0.0,0.0,0.0,0.000144,0.0,0.0,0.0,0.001764,2
1668538809095696813,409973,1668538809165586985,gps,2,1,42.3003462739,-83.6985910233,270.973266602,0.000121,0.0,0.0,0.0,0.000144,0.0,0.0,0.0,0.001764,2
1668538809105567011,409974,1668538809175595900,gps,2,1,42.3003463308,-83.698591028,270.97354126,0.000121,0.0,0.0,0.0,0.000144,0.0,0.0,0.0,0.001764,2
1668538809115584438,409975,1668538809185656772,gps,2,1,42.300346392,-83.6985910356,270.97366333,0.000121,0.0,0.0,0.0,0.000144,0.0,0.0,0.0,0.001764,2
1668538809125516014,409976,1668538809195600581,gps,2,1,42.3003464512,-83.6985910429,270.973754883,6.4e-05,0.0,0.0,0.0,8.1e-05,0.0,0.0,0.0,0.001681,2
1668538809135434898,409977,1668538809205580583,gps,2,1,42.3003465106,-83.698591048,270.974029541,6.4e-05,0.0,0.0,0.0,8.1e-05,0.0,0.0,0.0,0.001681,2
1668538809145487695,409978,1668538809215586636,gps,2,1,42.3003465743,-83.6985910559,270.974151611,6.4e-05,0.0,0.0,0.0,8.1e-05,0.0,0.0,0.0,0.001681,2
1668538809155604733,409979,1668538809225641065,gps,2,1,42.3003466359,-83.6985910636,270.974304199,6.4e-05,0.0,0.0,0.0,8.1e-05,0.0,0.0,0.0,0.001681,2
1668538809165402455,409980,1668538809235584149,gps,2,1,42.3003466979,-83.6985910691,270.97454834,6.4e-05,0.0,0.0,0.0,8.1e-05,0.0,0.0,0.0,0.001681,2
1668538809175393494,409981,1668538809245610752,gps,2,1,42.300346764,-83.6985910774,270.974700928,6.4e-05,0.0,0.0,0.0,8.1e-05,0.0,0.0,0.0,0.001681,2
1668538809185749707,409982,1668538809255652018,gps,2,1,42.3003468281,-83.6985910854,270.974822998,6.4e-05,0.0,0.0,0.0,8.1e-05,0.0,0.0,0.0,0.001681,2
1668538809195744861,409983,1668538809265622532,gps,2,1,42.3003468926,-83.6985910913,270.975097656,6.4e-05,0.0,0.0,0.0,8.1e-05,0.0,0.0,0.0,0.001681,2
1668538809205770421,409984,1668538809275653946,gps,2,1,42.3003469613,-83.6985911,270.975219727,6.4e-05,0.0,0.0,0.0,8.1e-05,0.0,0.0,0.0,0.001681,2
1668538809215290590,409985,1668538809285587839,gps,2,1,42.3003470279,-83.6985911084,270.975372314,6.4e-05,0.0,0.0,0.0,8.1e-05,0.0,0.0,0.0,0.001681,2
1668538809225531893,409986,1668538809295675572,gps,2,1,42.300347095,-83.6985911147,270.975646973,6.4e-05,0.0,0.0,0.0,8.1e-05,0.0,0.0,0.0,0.001681,2
1668538809235664724,409987,1668538809305661414,gps,2,1,42.3003471663,-83.6985911237,270.975769043,6.4e-05,0.0,0.0,0.0,8.1e-05,0.0,0.0,0.0,0.001681,2
1668538809245464520,409988,1668538809315597050,gps,2,1,42.3003472354,-83.6985911324,270.975921631,6.4e-05,0.0,0.0,0.0,8.1e-05,0.0,0.0,0.0,0.001681,2
1668538809255583979,409989,1668538809325571037,gps,2,1,42.3003473051,-83.6985911392,270.976165771,6.4e-05,0.0,0.0,0.0,8.1e-05,0.0,0.0,0.0,0.001681,2
1668538809265781961,409990,1668538809335689423,gps,2,1,42.300347379,-83.6985911486,270.976287842,6.4e-05,0.0,0.0,0.0,8.1e-05,0.0,0.0,0.0,0.001681,2
1668538809275499176,409991,1668538809345574405,gps,2,1,42.3003474506,-83.6985911576,270.97644043,6.4e-05,0.0,0.0,0.0,8.1e-05,0.0,0.0,0.0,0.001681,2
1668538809285524629,409992,1668538809355588572,gps,2,1,42.300347523,-83.6985911647,270.97668457,6.4e-05,0.0,0.0,0.0,8.1e-05,0.0,0.0,0.0,0.001681,2
1668538809295923815,409993,1668538809365813776,gps,2,1,42.3003475994,-83.6985911743,270.976806641,6.4e-05,0.0,0.0,0.0,8.1e-05,0.0,0.0,0.0,0.001681,2
1668538809305608707,409994,1668538809375668009,gps,2,1,42.3003476737,-83.6985911837,270.976928711,6.4e-05,0.0,0.0,0.0,8.1e-05,0.0,0.0,0.0,0.001681,2
1668538809315365596,409995,1668538809385611612,gps,2,1,42.3003477488,-83.6985911909,270.977172852,6.4e-05,0.0,0.0,0.0,8.1e-05,0.0,0.0,0.0,0.001681,2
1668538809325334665,409996,1668538809395601565,gps,2,1,42.3003478279,-83.6985912008,270.977325439,6.4e-05,0.0,0.0,0.0,8.1e-05,0.0,0.0,0.0,0.001681,2
1668538809335772968,409997,1668538809405641535,gps,2,1,42.3003479047,-83.6985912105,270.97744751,6.4e-05,0.0,0.0,0.0,8.1e-05,0.0,0.0,0.0,0.001681,2
1668538809345738335,409998,1668538809415587419,gps,2,1,42.3003479825,-83.698591218,270.97769165,6.4e-05,0.0,0.0,0.0,8.1e-05,0.0,0.0,0.0,0.001681,2
1668538809355845944,409999,1668538809425677863,gps,2,1,42.3003480642,-83.6985912282,270.977813721,6.4e-05,0.0,0.0,0.0,8.1e-05,0.0,0.0,0.0,0.001681,2
1668538809365619375,410000,1668538809435682256,gps,2,1,42.3003481437,-83.6985912381,270.977935791,6.4e-05,0.0,0.0,0.0,8.1e-05,0.0,0.0,0.0,0.001681,2
1668538809375895669,410001,1668538809445595242,gps,2,1,42.3003482243,-83.6985912459,270.978149414,6.4e-05,0.0,0.0,0.0,8.1e-05,0.0,0.0,0.0,0.001681,2
1668538809385664207,410002,1668538809455661133,gps,2,1,42.3003483087,-83.6985912564,270.978271484,6.4e-05,0.0,0.0,0.0,8.1e-05,0.0,0.0,0.0,0.001681,2
1668538809395570547,410003,1668538809465579801,gps,2,1,42.3003483908,-83.6985912665,270.978393555,6.4e-05,0.0,0.0,0.0,8.1e-05,0.0,0.0,0.0,0.001681,2
1668538809405564178,410004,1668538809475562182,gps,2,1,42.3003484741,-83.6985912746,270.978607178,6.4e-05,0.0,0.0,0.0,8.1e-05,0.0,0.0,0.0,0.001681,2
1668538809415595151,410005,1668538809485653246,gps,2,1,42.3003485612,-83.6985912852,270.978729248,6.4e-05,0.0,0.0,0.0,8.1e-05,0.0,0.0,0.0,0.001681,2
1668538809425593606,410006,1668538809495635913,gps,2,1,42.300348646,-83.6985912957,270.978851318,6.4e-05,0.0,0.0,0.0,8.1e-05,0.0,0.0,0.0,0.001681,2
1668538809435311927,410007,1668538809505616464,gps,2,1,42.3003487308,-83.698591302,270.979125977,6.4e-05,0.0,0.0,0.0,8.1e-05,0.0,0.0,0.0,0.001681,2
1668538809445344948,410008,1668538809515689858,gps,2,1,42.3003488205,-83.6985913128,270.979248047,6.4e-05,0.0,0.0,0.0,8.1e-05,0.0,0.0,0.0,0.001681,2
1668538809455435155,410009,1668538809525581687,gps,2,1,42.300348908,-83.6985913235,270.979370117,6.4e-05,0.0,0.0,0.0,8.1e-05,0.0,0.0,0.0,0.001681,2
1668538809465747714,410010,1668538809535651054,gps,2,1,42.3003489955,-83.6985913301,270.979644775,6.4e-05,0.0,0.0,0.0,8.1e-05,0.0,0.0,0.0,0.001681,2
1668538809475955263,410011,1668538809545803390,gps,2,1,42.300349088,-83.6985913411,270.979736328,6.4e-05,0.0,0.0,0.0,8.1e-05,0.0,0.0,0.0,0.001681,2
1668538809485669598,410012,1668538809555606620,gps,2,1,42.3003491781,-83.698591352,270.979858398,6.4e-05,0.0,0.0,0.0,8.1e-05,0.0,0.0,0.0,0.001681,2
1668538809495769868,410013,1668538809565622403,gps,2,1,42.3003492684,-83.6985913589,270.980102539,6.4e-05,0.0,0.0,0.0,8.1e-05,0.0,0.0,0.0,0.001681,2
1668538809505646704,410014,1668538809575655455,gps,2,1,42.3003493634,-83.69859137,270.980224609,6.4e-05,0.0,0.0,0.0,8.1e-05,0.0,0.0,0.0,0.001681,2
1668538809515496299,410015,1668538809585581711,gps,2,1,42.3003494563,-83.6985913811,270.980316162,6.4e-05,0.0,0.0,0.0,8.1e-05,0.0,0.0,0.0,0.001681,2
1668538809525606056,410016,1668538809595577335,gps,2,1,42.3003495493,-83.6985913883,270.98059082,6.4e-05,0.0,0.0,0.0,8.1e-05,0.0,0.0,0.0,0.001681,2
1668538809535509489,410017,1668538809605661307,gps,2,1,42.3003496469,-83.6985913997,270.980682373,6.4e-05,0.0,0.0,0.0,8.1e-05,0.0,0.0,0.0,0.001681,2
1668538809545650965,410018,1668538809615656483,gps,2,1,42.3003497423,-83.6985914108,270.980804443,6.4e-05,0.0,0.0,0.0,8.1e-05,0.0,0.0,0.0,0.001681,2
1668538809555582929,410019,1668538809625575795,gps,2,1,42.300349838,-83.6985914184,270.981079102,6.4e-05,0.0,0.0,0.0,8.1e-05,0.0,0.0,0.0,0.001681,2
1668538809565553806,410020,1668538809635623838,gps,2,1,42.3003499381,-83.6985914301,270.981201172,6.4e-05,0.0,0.0,0.0,8.1e-05,0.0,0.0,0.0,0.001681,2
1668538809575571404,410021,1668538809645568122,gps,2,1,42.3003500362,-83.6985914415,270.981323242,6.4e-05,0.0,0.0,0.0,8.1e-05,0.0,0.0,0.0,0.001681,2
1668538809585380827,410022,1668538809655560745,gps,2,1,42.3003501345,-83.6985914496,270.9815979,6.4e-05,0.0,0.0,0.0,8.1e-05,0.0,0.0,0.0,0.001681,2
1668538809595402454,410023,1668538809665626124,gps,2,1,42.3003502373,-83.6985914618,270.981750488,6.4e-05,0.0,0.0,0.0,8.1e-05,0.0,0.0,0.0,0.001681,2
1668538809605470230,410024,1668538809675579490,gps,2,1,42.3003503378,-83.6985914735,270.981872559,6.4e-05,0.0,0.0,0.0,8.1e-05,0.0,0.0,0.0,0.001681,2
1668538809615293902,410025,1668538809685576439,gps,2,1,42.3003504387,-83.6985914821,270.982177734,6.4e-05,0.0,0.0,0.0,8.1e-05,0.0,0.0,0.0,0.001681,2
1668538809625963578,410026,1668538809695641728,gps,2,1,42.300350544,-83.6985914946,270.982330322,6.4e-05,0.0,0.0,0.0,8.1e-05,0.0,0.0,0.0,0.001681,2
1668538809635785123,410027,1668538809705561808,gps,2,1,42.3003506471,-83.6985915069,270.98248291,6.4e-05,0.0,0.0,0.0,8.1e-05,0.0,0.0,0.0,0.001681,2
1668538809645648433,410028,1668538809715573425,gps,2,1,42.3003507507,-83.698591516,270.982788086,6.4e-05,0.0,0.0,0.0,8.1e-05,0.0,0.0,0.0,0.001681,2
1668538809655572437,410029,1668538809725645452,gps,2,1,42.3003508586,-83.6985915291,270.982940674,6.4e-05,0.0,0.0,0.0,8.1e-05,0.0,0.0,0.0,0.001681,2
1668538809665586321,410030,1668538809735608159,gps,2,1,42.3003509643,-83.6985915417,270.983123779,6.4e-05,0.0,0.0,0.0,8.1e-05,0.0,0.0,0.0,0.001681,2
1668538809675570251,410031,1668538809745586612,gps,2,1,42.3003510706,-83.6985915514,270.983428955,6.4e-05,0.0,0.0,0.0,8.1e-05,0.0,0.0,0.0,0.001681,2
1668538809685509952,410032,1668538809755647584,gps,2,1,42.3003511812,-83.6985915649,270.983581543,6.4e-05,0.0,0.0,0.0,8.1e-05,0.0,0.0,0.0,0.001681,2
1668538809695449244,410033,1668538809765579258,gps,2,1,42.3003512895,-83.698591578,270.983764648,6.4e-05,0.0,0.0,0.0,8.1e-05,0.0,0.0,0.0,0.001681,2
1668538809705576346,410034,1668538809775566971,gps,2,1,42.3003513985,-83.6985915882,270.984069824,6.4e-05,0.0,0.0,0.0,8.1e-05,0.0,0.0,0.0,0.001681,2
1668538809715483255,410035,1668538809785641881,gps,2,1,42.3003515118,-83.6985916021,270.98425293,6.4e-05,0.0,0.0,0.0,8.1e-05,0.0,0.0,0.0,0.001681,2
1668538809725455890,410036,1668538809795689349,gps,2,1,42.3003516228,-83.6985916156,270.984405518,6.4e-05,0.0,0.0,0.0,8.1e-05,0.0,0.0,0.0,0.001681,2
1668538809735400600,410037,1668538809805585229,gps,2,1,42.3003517346,-83.6985916264,270.984710693,6.4e-05,0.0,0.0,0.0,8.1e-05,0.0,0.0,0.0,0.001681,2
1668538809745431422,410038,1668538809815627424,gps,2,1,42.3003518506,-83.6985916408,270.984924316,6.4e-05,0.0,0.0,0.0,8.1e-05,0.0,0.0,0.0,0.001681,2
1668538809755322950,410039,1668538809825575193,gps,2,1,42.3003519643,-83.6985916548,270.985107422,6.4e-05,0.0,0.0,0.0,8.1e-05,0.0,0.0,0.0,0.001681,2
1668538809765714280,410040,1668538809835581986,gps,2,1,42.3003520789,-83.6985916663,270.985443115,6.4e-05,0.0,0.0,0.0,8.1e-05,0.0,0.0,0.0,0.001681,2
1668538809775695140,410041,1668538809845651561,gps,2,1,42.3003521975,-83.6985916813,270.985656738,6.4e-05,0.0,0.0,0.0,8.1e-05,0.0,0.0,0.0,0.001681,2
1668538809785869902,410042,1668538809855600740,gps,2,1,42.300352314,-83.6985916958,270.985870361,6.4e-05,0.0,0.0,0.0,8.1e-05,0.0,0.0,0.0,0.001681,2
1668538809795535027,410043,1668538809865656169,gps,2,1,42.3003524316,-83.6985917075,270.986236572,6.4e-05,0.0,0.0,0.0,8.1e-05,0.0,0.0,0.0,0.001681,2
1668538809805506992,410044,1668538809875584895,gps,2,1,42.3003525531,-83.6985917232,270.986480713,6.4e-05,0.0,0.0,0.0,8.1e-05,0.0,0.0,0.0,0.001681,2
1668538809815520350,410045,1668538809885648323,gps,2,1,42.3003526721,-83.6985917382,270.986694336,6.4e-05,0.0,0.0,0.0,8.1e-05,0.0,0.0,0.0,0.001681,2
1668538809825477746,410046,1668538809895584371,gps,2,1,42.3003527925,-83.6985917506,270.987060547,6.4e-05,0.0,0.0,0.0,8.1e-05,0.0,0.0,0.0,0.001681,2
1668538809835455472,410047,1668538809905578197,gps,2,1,42.3003529166,-83.6985917667,270.987335205,6.4e-05,0.0,0.0,0.0,8.1e-05,0.0,0.0,0.0,0.001681,2
1668538809845403832,410048,1668538809915629615,gps,2,1,42.3003530384,-83.6985917823,270.987579346,6.4e-05,0.0,0.0,0.0,8.1e-05,0.0,0.0,0.0,0.001681,2
1668538809855442706,410049,1668538809925568115,gps,2,1,42.3003531615,-83.6985917953,270.987945557,6.4e-05,0.0,0.0,0.0,8.1e-05,0.0,0.0,0.0,0.001681,2
1668538809865396222,410050,1668538809935624796,gps,2,1,42.3003532884,-83.6985918117,270.988220215,6.4e-05,0.0,0.0,0.0,8.1e-05,0.0,0.0,0.0,0.001681,2
1668538809875408867,410051,1668538809945554258,gps,2,1,42.3003534129,-83.6985918278,270.988464355,6.4e-05,0.0,0.0,0.0,8.1e-05,0.0,0.0,0.0,0.001681,2
1668538809885290931,410052,1668538809955590195,gps,2,1,42.3003535388,-83.6985918412,270.988800049,6.4e-05,0.0,0.0,0.0,8.1e-05,0.0,0.0,0.0,0.001681,2
1668538809895748983,410053,1668538809965629953,gps,2,1,42.3003536684,-83.6985918579,270.989044189,6.4e-05,0.0,0.0,0.0,8.1e-05,0.0,0.0,0.0,0.001681,2
1668538809905673571,410054,1668538809975591541,gps,2,1,42.3003537958,-83.6985918745,270.989318848,6.4e-05,0.0,0.0,0.0,8.1e-05,0.0,0.0,0.0,0.001681,2
1668538809915571539,410055,1668538809985620235,gps,2,1,42.3003539246,-83.6985918882,270.989654541,6.4e-05,0.0,0.0,0.0,8.1e-05,0.0,0.0,0.0,0.001681,2
1668538809925582189,410056,1668538809995718403,gps,2,1,42.3003540569,-83.6985919051,270.989837646,6.4e-05,0.0,0.0,0.0,8.1e-05,0.0,0.0,0.0,0.001681,2
1668538809935444742,410057,1668538810005643061,gps,2,1,42.300354187,-83.6985919219,270.990081787,6.4e-05,0.0,0.0,0.0,8.1e-05,0.0,0.0,0.0,0.001681,2
1668538809945446723,410058,1668538810015635281,gps,2,1,42.3003543193,-83.6985919331,270.990356445,6.4e-05,0.0,0.0,0.0,8.1e-05,0.0,0.0,0.0,0.001681,2
1668538809955428996,410059,1668538810025626108,gps,2,1,42.3003544544,-83.6985919502,270.990509033,6.4e-05,0.0,0.0,0.0,8.1e-05,0.0,0.0,0.0,0.001681,2
1668538809965515145,410060,1668538810035644564,gps,2,1,42.3003545873,-83.698591967,270.990722656,6.4e-05,0.0,0.0,0.0,8.1e-05,0.0,0.0,0.0,0.001681,2
1668538809975543136,410061,1668538810045696407,gps,2,1,42.3003547224,-83.6985919786,270.990966797,6.4e-05,0.0,0.0,0.0,8.1e-05,0.0,0.0,0.0,0.001681,2
1668538809985407684,410062,1668538810055633272,gps,2,1,42.3003548604,-83.6985919959,270.991119385,6.4e-05,0.0,0.0,0.0,8.1e-05,0.0,0.0,0.0,0.001681,2
1668538809995368008,410063,1668538810065631699,gps,2,1,42.300354996,-83.6985920128,270.99130249,6.4e-05,0.0,0.0,0.0,8.1e-05,0.0,0.0,0.0,0.001681,2
1668538810005361315,410064,1668538810075582182,gps,2,1,42.3003551339,-83.6985920249,270.991516113,6.4e-05,0.0,0.0,0.0,8.1e-05,0.0,0.0,0.0,0.001681,2
1668538810015353522,410065,1668538810085573547,gps,2,1,42.3003552746,-83.6985920425,270.991668701,6.4e-05,0.0,0.0,0.0,8.1e-05,0.0,0.0,0.0,0.001681,2
1668538810025550267,410066,1668538810095633715,gps,2,1,42.300355413,-83.6985920597,270.991821289,6.4e-05,0.0,0.0,0.0,8.1e-05,0.0,0.0,0.0,0.001681,2
1668538810035191270,410067,1668538810105561959,gps,2,1,42.3003555538,-83.6985920724,270.99206543,6.4e-05,0.0,0.0,0.0,8.1e-05,0.0,0.0,0.0,0.001681,2
1668538810045857228,410068,1668538810115659235,gps,2,1,42.3003556974,-83.6985920904,270.992218018,6.4e-05,0.0,0.0,0.0,8.1e-05,0.0,0.0,0.0,0.001681,2
1668538810055789704,410069,1668538810125653366,gps,2,1,42.3003558386,-83.6985921082,270.992401123,6.4e-05,0.0,0.0,0.0,8.1e-05,0.0,0.0,0.0,0.001681,2
1668538810065254677,410070,1668538810135567573,gps,2,1,42.3003559821,-83.6985921216,270.992645264,6.4e-05,0.0,0.0,0.0,8.1e-05,0.0,0.0,0.0,0.001681,2
1668538810075238829,410071,1668538810145571460,gps,2,1,42.3003561285,-83.6985921403,270.992858887,6.4e-05,0.0,0.0,0.0,8.1e-05,0.0,0.0,0.0,0.001681,2
1668538810085519584,410072,1668538810155640205,gps,2,1,42.3003562726,-83.6985921586,270.993011475,6.4e-05,0.0,0.0,0.0,8.1e-05,0.0,0.0,0.0,0.001681,2
1668538810095474316,410073,1668538810165560897,gps,2,1,42.3003564191,-83.6985921726,270.993286133,6.4e-05,0.0,0.0,0.0,8.1e-05,0.0,0.0,0.0,0.001681,2
1668538810105435919,410074,1668538810175583517,gps,2,1,42.3003565687,-83.6985921919,270.993499756,6.4e-05,0.0,0.0,0.0,8.1e-05,0.0,0.0,0.0,0.001681,2
1668538810115518494,410075,1668538810185618739,gps,2,1,42.3003567156,-83.6985922105,270.993713379,6.4e-05,0.0,0.0,0.0,8.1e-05,0.0,0.0,0.0,0.001681,2
1668538810125377812,410076,1668538810195586158,gps,2,1,42.3003568652,-83.6985922252,270.993988037,0.000121,0.0,0.0,0.0,0.000144,0.0,0.0,0.0,0.001764,2
1668538810135449186,410077,1668538810205550807,gps,2,1,42.3003570176,-83.6985922446,270.994262695,0.000121,0.0,0.0,0.0,0.000144,0.0,0.0,0.0,0.001764,2
1668538810145329592,410078,1668538810215629002,gps,2,1,42.3003571677,-83.6985922638,270.994445801,0.000121,0.0,0.0,0.0,0.000144,0.0,0.0,0.0,0.001764,2
1668538810155373377,410079,1668538810225549317,gps,2,1,42.3003573202,-83.6985922789,270.994750977,0.000121,0.0,0.0,0.0,0.000144,0.0,0.0,0.0,0.001764,2
1668538810165294866,410080,1668538810235583222,gps,2,1,42.3003574757,-83.6985922988,270.995025635,0.000121,0.0,0.0,0.0,0.000144,0.0,0.0,0.0,0.001764,2
1668538810175685041,410081,1668538810245639815,gps,2,1,42.3003576287,-83.6985923183,270.995269775,0.000121,0.0,0.0,0.0,0.000144,0.0,0.0,0.0,0.001764,2
1668538810185648645,410082,1668538810255562853,gps,2,1,42.3003577844,-83.6985923339,270.995574951,0.000121,0.0,0.0,0.0,0.000144,0.0,0.0,0.0,0.001764,2
1668538810195715932,410083,1668538810265621805,gps,2,1,42.300357943,-83.698592354,270.995819092,0.000121,0.0,0.0,0.0,0.000144,0.0,0.0,0.0,0.001764,2
1668538810205709878,410084,1668538810275637535,gps,2,1,42.300358099,-83.698592374,270.99609375,0.000121,0.0,0.0,0.0,0.000144,0.0,0.0,0.0,0.001764,2
1668538810215693712,410085,1668538810285563906,gps,2,1,42.3003582577,-83.6985923899,270.996398926,0.000121,0.0,0.0,0.0,0.000144,0.0,0.0,0.0,0.001764,2
1668538810225486562,410086,1668538810295647587,gps,2,1,42.3003584194,-83.6985924104,270.996673584,0.000121,0.0,0.0,0.0,0.000144,0.0,0.0,0.0,0.001764,2
1668538810235539587,410087,1668538810305628018,gps,2,1,42.3003585785,-83.6985924305,270.996917725,0.000121,0.0,0.0,0.0,0.000144,0.0,0.0,0.0,0.001764,2
1668538810245379112,410088,1668538810315564447,gps,2,1,42.3003587403,-83.6985924469,270.9972229,0.000121,0.0,0.0,0.0,0.000144,0.0,0.0,0.0,0.001764,2
1668538810255474013,410089,1668538810325564045,gps,2,1,42.3003589052,-83.6985924675,270.997436523,0.000121,0.0,0.0,0.0,0.000144,0.0,0.0,0.0,0.001764,2
1668538810265522999,410090,1668538810335609278,gps,2,1,42.3003590673,-83.6985924881,270.997680664,0.000121,0.0,0.0,0.0,0.000144,0.0,0.0,0.0,0.001764,2
1668538810275544215,410091,1668538810345542321,gps,2,1,42.3003592324,-83.6985925048,270.997924805,0.000121,0.0,0.0,0.0,0.000144,0.0,0.0,0.0,0.001764,2
1668538810285496911,410092,1668538810355570870,gps,2,1,42.3003594004,-83.6985925259,270.998138428,0.000121,0.0,0.0,0.0,0.000144,0.0,0.0,0.0,0.001764,2
1668538810295834348,410093,1668538810365769826,gps,2,1,42.3003595657,-83.6985925467,270.998352051,0.000121,0.0,0.0,0.0,0.000144,0.0,0.0,0.0,0.001764,2
1668538810305491126,410094,1668538810375627755,gps,2,1,42.3003597339,-83.6985925633,270.998535156,0.000121,0.0,0.0,0.0,0.000144,0.0,0.0,0.0,0.001764,2
1668538810315533335,410095,1668538810385616379,gps,2,1,42.3003599051,-83.6985925849,270.998718262,0.000121,0.0,0.0,0.0,0.000144,0.0,0.0,0.0,0.001764,2
1668538810325487360,410096,1668538810395567252,gps,2,1,42.3003600736,-83.698592606,270.998901367,0.000121,0.0,0.0,0.0,0.000144,0.0,0.0,0.0,0.001764,2
1668538810335599394,410097,1668538810405559098,gps,2,1,42.300360245,-83.6985926233,270.999053955,0.000121,0.0,0.0,0.0,0.000144,0.0,0.0,0.0,0.001764,2
1668538810345669555,410098,1668538810415577117,gps,2,1,42.3003604193,-83.6985926456,270.999206543,0.000121,0.0,0.0,0.0,0.000144,0.0,0.0,0.0,0.001764,2
1668538810355625388,410099,1668538810425620891,gps,2,1,42.300360591,-83.6985926672,270.999359131,0.000121,0.0,0.0,0.0,0.000144,0.0,0.0,0.0,0.001764,2
1668538810365518047,410100,1668538810435558011,gps,2,1,42.3003607656,-83.6985926853,270.999542236,0.000121,0.0,0.0,0.0,0.000144,0.0,0.0,0.0,0.001764,2
1668538810375593240,410101,1668538810445579631,gps,2,1,42.3003609432,-83.6985927081,270.999694824,0.000121,0.0,0.0,0.0,0.000144,0.0,0.0,0.0,0.001764,2
1668538810385513882,410102,1668538810455627298,gps,2,1,42.3003611181,-83.6985927303,270.999816895,0.000121,0.0,0.0,0.0,0.000144,0.0,0.0,0.0,0.001764,2
1668538810395583954,410103,1668538810465550680,gps,2,1,42.3003612959,-83.6985927492,271.0,0.000121,0.0,0.0,0.0,0.000144,0.0,0.0,0.0,0.001764,2
1668538810405607593,410104,1668538810475553328,gps,2,1,42.3003614766,-83.6985927725,271.000152588,0.000121,0.0,0.0,0.0,0.000144,0.0,0.0,0.0,0.001764,2
1668538810415554188,410105,1668538810485699739,gps,2,1,42.3003616548,-83.6985927955,271.000274658,0.000121,0.0,0.0,0.0,0.000144,0.0,0.0,0.0,0.001764,2
1668538810425485992,410106,1668538810495570873,gps,2,1,42.3003618339,-83.6985928121,271.000274658,0.000121,0.0,0.0,0.0,0.000144,0.0,0.0,0.0,0.001764,2
1668538810435594355,410107,1668538810505606160,gps,2,1,42.300362018,-83.698592836,271.000427246,0.000121,0.0,0.0,0.0,0.000144,0.0,0.0,0.0,0.001764,2
1668538810445875391,410108,1668538810515694412,gps,2,1,42.3003621992,-83.6985928594,271.000579834,0.000121,0.0,0.0,0.0,0.000144,0.0,0.0,0.0,0.001764,2
1668538810455387099,410109,1668538810525560950,gps,2,1,42.3003623816,-83.6985928766,271.000579834,0.000121,0.0,0.0,0.0,0.000144,0.0,0.0,0.0,0.001764,2
1668538810465967756,410110,1668538810535672939,gps,2,1,42.3003625688,-83.6985929009,271.000762939,0.000121,0.0,0.0,0.0,0.000144,0.0,0.0,0.0,0.001764,2
1668538810475681309,410111,1668538810545750758,gps,2,1,42.3003627534,-83.6985929246,271.000946045,0.000121,0.0,0.0,0.0,0.000144,0.0,0.0,0.0,0.001764,2
1668538810485625926,410112,1668538810555570466,gps,2,1,42.3003629389,-83.6985929425,271.000976562,0.000121,0.0,0.0,0.0,0.000144,0.0,0.0,0.0,0.001764,2
1668538810495505794,410113,1668538810565565455,gps,2,1,42.300363129,-83.6985929671,271.001220703,0.000121,0.0,0.0,0.0,0.000144,0.0,0.0,0.0,0.001764,2
1668538810505805383,410114,1668538810575634449,gps,2,1,42.3003633168,-83.6985929913,271.001373291,0.000121,0.0,0.0,0.0,0.000144,0.0,0.0,0.0,0.001764,2
1668538810515531902,410115,1668538810585555666,gps,2,1,42.3003635053,-83.6985930096,271.001464844,0.000121,0.0,0.0,0.0,0.000144,0.0,0.0,0.0,0.001764,2
1668538810525523102,410116,1668538810595562822,gps,2,1,42.3003636985,-83.6985930344,271.001708984,0.000121,0.0,0.0,0.0,0.000144,0.0,0.0,0.0,0.001764,2
1668538810535618019,410117,1668538810605617564,gps,2,1,42.300363889,-83.6985930592,271.001922607,0.000121,0.0,0.0,0.0,0.000144,0.0,0.0,0.0,0.001764,2
1668538810545604226,410118,1668538810615637387,gps,2,1,42.300364081,-83.6985930786,271.00201416,0.000121,0.0,0.0,0.0,0.000144,0.0,0.0,0.0,0.001764,2
1668538810555565792,410119,1668538810625526856,gps,2,1,42.300364277,-83.6985931039,271.002288818,0.000121,0.0,0.0,0.0,0.000144,0.0,0.0,0.0,0.001764,2
1668538810565516417,410120,1668538810635601372,gps,2,1,42.3003644706,-83.6985931288,271.002532959,0.000121,0.0,0.0,0.0,0.000144,0.0,0.0,0.0,0.001764,2
1668538810575445973,410121,1668538810645524399,gps,2,1,42.3003646654,-83.6985931486,271.002655029,0.000121,0.0,0.0,0.0,0.000144,0.0,0.0,0.0,0.001764,2
1668538810585343513,410122,1668538810655546246,gps,2,1,42.3003648645,-83.6985931739,271.00289917,0.000121,0.0,0.0,0.0,0.000144,0.0,0.0,0.0,0.001764,2
1668538810595850145,410123,1668538810665601971,gps,2,1,42.3003650612,-83.698593199,271.003143311,0.000121,0.0,0.0,0.0,0.000144,0.0,0.0,0.0,0.001764,2
1668538810605397417,410124,1668538810675542272,gps,2,1,42.3003652593,-83.698593219,271.003234863,0.000121,0.0,0.0,0.0,0.000144,0.0,0.0,0.0,0.001764,2
1668538810615791635,410125,1668538810685616767,gps,2,1,42.3003654618,-83.6985932444,271.003417969,0.000121,0.0,0.0,0.0,0.000144,0.0,0.0,0.0,0.001764,2
1668538810625756588,410126,1668538810695562531,gps,2,1,42.3003656612,-83.6985932696,271.003662109,0.000121,0.0,0.0,0.0,0.000144,0.0,0.0,0.0,0.001764,2
1668538810635567396,410127,1668538810705544431,gps,2,1,42.3003658626,-83.6985932898,271.003753662,0.000121,0.0,0.0,0.0,0.000144,0.0,0.0,0.0,0.001764,2
1668538810645689715,410128,1668538810715605134,gps,2,1,42.3003660678,-83.6985933155,271.003936768,0.000121,0.0,0.0,0.0,0.000144,0.0,0.0,0.0,0.001764,2
1668538810655546300,410129,1668538810725536740,gps,2,1,42.3003662708,-83.6985933412,271.004150391,0.000121,0.0,0.0,0.0,0.000144,0.0,0.0,0.0,0.001764,2
1668538810665535614,410130,1668538810735566694,gps,2,1,42.3003664752,-83.6985933622,271.004211426,0.000121,0.0,0.0,0.0,0.000144,0.0,0.0,0.0,0.001764,2
1668538810675481047,410131,1668538810745579017,gps,2,1,42.3003666836,-83.6985933887,271.004394531,0.000121,0.0,0.0,0.0,0.000144,0.0,0.0,0.0,0.001764,2
1668538810685601689,410132,1668538810755627511,gps,2,1,42.3003668892,-83.6985934148,271.004608154,0.000121,0.0,0.0,0.0,0.000144,0.0,0.0,0.0,0.001764,2
1668538810695452887,410133,1668538810765549833,gps,2,1,42.3003670965,-83.6985934367,271.004730225,0.000121,0.0,0.0,0.0,0.000144,0.0,0.0,0.0,0.001764,2
1668538810705578213,410134,1668538810775557297,gps,2,1,42.3003673076,-83.6985934641,271.004943848,0.000121,0.0,0.0,0.0,0.000144,0.0,0.0,0.0,0.001764,2
1668538810715462192,410135,1668538810785609845,gps,2,1,42.3003675163,-83.6985934909,271.005157471,0.000121,0.0,0.0,0.0,0.000144,0.0,0.0,0.0,0.001764,2
1668538810725836104,410136,1668538810795650076,gps,2,1,42.3003677266,-83.6985935137,271.005310059,0.000121,0.0,0.0,0.0,0.000144,0.0,0.0,0.0,0.001764,2
1668538810735315714,410137,1668538810805540138,gps,2,1,42.3003679407,-83.6985935415,271.005584717,0.000121,0.0,0.0,0.0,0.000144,0.0,0.0,0.0,0.001764,2
1668538810745697004,410138,1668538810815608318,gps,2,1,42.3003681522,-83.6985935693,271.005828857,0.000121,0.0,0.0,0.0,0.000144,0.0,0.0,0.0,0.001764,2
1668538810755734283,410139,1668538810825537015,gps,2,1,42.3003683653,-83.6985935928,271.006011963,0.000121,0.0,0.0,0.0,0.000144,0.0,0.0,0.0,0.001764,2
1668538810765769604,410140,1668538810835599496,gps,2,1,42.3003685819,-83.6985936215,271.006347656,0.000121,0.0,0.0,0.0,0.000144,0.0,0.0,0.0,0.001764,2
1668538810775807276,410141,1668538810845549341,gps,2,1,42.3003687965,-83.6985936493,271.006622314,0.000121,0.0,0.0,0.0,0.000144,0.0,0.0,0.0,0.001764,2
1668538810785768342,410142,1668538810855547652,gps,2,1,42.3003690125,-83.6985936733,271.006835938,0.000121,0.0,0.0,0.0,0.000144,0.0,0.0,0.0,0.001764,2
1668538810795637888,410143,1668538810865718172,gps,2,1,42.300369232,-83.6985937022,271.007171631,0.000121,0.0,0.0,0.0,0.000144,0.0,0.0,0.0,0.001764,2
1668538810805764615,410144,1668538810875572442,gps,2,1,42.3003694492,-83.6985937308,271.007476807,0.000121,0.0,0.0,0.0,0.000144,0.0,0.0,0.0,0.001764,2
1668538810815403661,410145,1668538810885542992,gps,2,1,42.3003696677,-83.6985937549,271.007720947,0.000121,0.0,0.0,0.0,0.000144,0.0,0.0,0.0,0.001764,2
1668538810825559610,410146,1668538810895608616,gps,2,1,42.3003698902,-83.6985937842,271.008056641,0.000121,0.0,0.0,0.0,0.000144,0.0,0.0,0.0,0.001764,2
1668538810835451482,410147,1668538810905529752,gps,2,1,42.3003701103,-83.6985938131,271.008361816,0.000121,0.0,0.0,0.0,0.000144,0.0,0.0,0.0,0.001764,2
1668538810845446183,410148,1668538810915541969,gps,2,1,42.3003703319,-83.6985938379,271.008605957,0.000121,0.0,0.0,0.0,0.000144,0.0,0.0,0.0,0.001764,2
1668538810855464284,410149,1668538810925538731,gps,2,1,42.3003705574,-83.6985938681,271.008911133,0.000121,0.0,0.0,0.0,0.000144,0.0,0.0,0.0,0.001764,2
1668538810865418329,410150,1668538810935599096,gps,2,1,42.3003707803,-83.6985938973,271.009216309,0.000121,0.0,0.0,0.0,0.000144,0.0,0.0,0.0,0.001764,2
1668538810875379901,410151,1668538810945540910,gps,2,1,42.3003710048,-83.6985939229,271.009460449,0.000121,0.0,0.0,0.0,0.000144,0.0,0.0,0.0,0.001764,2
1668538810885278214,410152,1668538810955574276,gps,2,1,42.300371233,-83.6985939538,271.009765625,0.000121,0.0,0.0,0.0,0.000144,0.0,0.0,0.0,0.001764,2
1668538810895702044,410153,1668538810965612849,gps,2,1,42.3003714589,-83.6985939839,271.010070801,0.000121,0.0,0.0,0.0,0.000144,0.0,0.0,0.0,0.001764,2
1668538810905797557,410154,1668538810975571664,gps,2,1,42.3003716862,-83.6985940104,271.010314941,0.000121,0.0,0.0,0.0,0.000144,0.0,0.0,0.0,0.001764,2
1668538810915650973,410155,1668538810985693121,gps,2,1,42.3003719172,-83.698594042,271.010650635,0.000121,0.0,0.0,0.0,0.000144,0.0,0.0,0.0,0.001764,2
1668538810925569965,410156,1668538810995599772,gps,2,1,42.3003721457,-83.6985940726,271.010955811,0.000121,0.0,0.0,0.0,0.000144,0.0,0.0,0.0,0.001764,2
1668538810935516989,410157,1668538811005615043,gps,2,1,42.3003723755,-83.6985940999,271.011230469,0.000121,0.0,0.0,0.0,0.000144,0.0,0.0,0.0,0.001764,2
1668538810945743070,410158,1668538811015689510,gps,2,1,42.3003726093,-83.6985941317,271.011566162,0.000121,0.0,0.0,0.0,0.000144,0.0,0.0,0.0,0.001764,2
1668538810955646391,410159,1668538811025597158,gps,2,1,42.3003728406,-83.6985941632,271.011901855,0.000121,0.0,0.0,0.0,0.000144,0.0,0.0,0.0,0.001764,2
1668538810965658935,410160,1668538811035538644,gps,2,1,42.3003730733,-83.6985941909,271.012176514,0.000121,0.0,0.0,0.0,0.000144,0.0,0.0,0.0,0.001764,2
1668538810975608684,410161,1668538811045763861,gps,2,1,42.30037331,-83.698594223,271.012481689,0.000121,0.0,0.0,0.0,0.000144,0.0,0.0,0.0,0.001764,2
1668538810985438483,410162,1668538811055583818,gps,2,1,42.3003735442,-83.698594255,271.012817383,0.000121,0.0,0.0,0.0,0.000144,0.0,0.0,0.0,0.001764,2
1668538810995407540,410163,1668538811065650764,gps,2,1,42.3003737798,-83.6985942829,271.013092041,0.000121,0.0,0.0,0.0,0.000144,0.0,0.0,0.0,0.001764,2
1668538811005573811,410164,1668538811075523765,gps,2,1,42.3003740192,-83.6985943151,271.013366699,0.000121,0.0,0.0,0.0,0.000144,0.0,0.0,0.0,0.001764,2
1668538811015412806,410165,1668538811085486807,gps,2,1,42.3003742563,-83.6985943472,271.013671875,0.000121,0.0,0.0,0.0,0.000144,0.0,0.0,0.0,0.001764,2
1668538811025336875,410166,1668538811095488868,gps,2,1,42.3003744948,-83.6985943753,271.013885498,0.000121,0.0,0.0,0.0,0.000144,0.0,0.0,0.0,0.001764,2
1668538811035372600,410167,1668538811105510023,gps,2,1,42.3003747371,-83.6985944075,271.014099121,0.000121,0.0,0.0,0.0,0.000144,0.0,0.0,0.0,0.001764,2
1668538811045794845,410168,1668538811115723790,gps,2,1,42.3003749769,-83.6985944396,271.014343262,0.000121,0.0,0.0,0.0,0.000144,0.0,0.0,0.0,0.001764,2
1668538811055374747,410169,1668538811125572602,gps,2,1,42.3003752182,-83.6985944681,271.014526367,0.000121,0.0,0.0,0.0,0.000144,0.0,0.0,0.0,0.001764,2
1668538811065695044,410170,1668538811135568227,gps,2,1,42.300375463,-83.6985945008,271.014770508,0.000121,0.0,0.0,0.0,0.000144,0.0,0.0,0.0,0.001764,2
1668538811075624666,410171,1668538811145601015,gps,2,1,42.3003757057,-83.6985945334,271.015014648,0.000121,0.0,0.0,0.0,0.000144,0.0,0.0,0.0,0.001764,2
1668538811085465251,410172,1668538811155547961,gps,2,1,42.3003759499,-83.6985945629,271.015228271,0.000121,0.0,0.0,0.0,0.000144,0.0,0.0,0.0,0.001764,2
1668538811095478898,410173,1668538811165536104,gps,2,1,42.3003761972,-83.6985945965,271.015563965,0.000121,0.0,0.0,0.0,0.000144,0.0,0.0,0.0,0.001764,2
1668538811105659827,410174,1668538811175598769,gps,2,1,42.3003764426,-83.6985946296,271.015808105,0.000121,0.0,0.0,0.0,0.000144,0.0,0.0,0.0,0.001764,2
1668538811115505476,410175,1668538811185526983,gps,2,1,42.3003766895,-83.6985946601,271.016113281,0.000121,0.0,0.0,0.0,0.000144,0.0,0.0,0.0,0.001764,2
1668538811125550432,410176,1668538811195549945,gps,2,1,42.3003769397,-83.6985946949,271.016540527,0.000144,0.0,0.0,0.0,0.000144,0.0,0.0,0.0,0.001764,2
1668538811135506017,410177,1668538811205573906,gps,2,1,42.3003771875,-83.6985947287,271.016906738,0.000144,0.0,0.0,0.0,0.000144,0.0,0.0,0.0,0.001764,2
1668538811145374184,410178,1668538811215529390,gps,2,1,42.3003774372,-83.69859476,271.017303467,0.000144,0.0,0.0,0.0,0.000144,0.0,0.0,0.0,0.001764,2
1668538811155439034,410179,1668538811225604888,gps,2,1,42.3003776899,-83.6985947949,271.01776123,0.000144,0.0,0.0,0.0,0.000144,0.0,0.0,0.0,0.001764,2
1668538811165279995,410180,1668538811235540953,gps,2,1,42.3003779407,-83.6985948298,271.018218994,0.000144,0.0,0.0,0.0,0.000144,0.0,0.0,0.0,0.001764,2
1668538811175802481,410181,1668538811245557428,gps,2,1,42.3003781932,-83.6985948614,271.01864624,0.000144,0.0,0.0,0.0,0.000144,0.0,0.0,0.0,0.001764,2
1668538811185633688,410182,1668538811255521928,gps,2,1,42.300378449,-83.6985948963,271.019073486,0.000144,0.0,0.0,0.0,0.000144,0.0,0.0,0.0,0.001764,2
1668538811195808884,410183,1668538811265593776,gps,2,1,42.3003787023,-83.6985949314,271.01953125,0.000144,0.0,0.0,0.0,0.000144,0.0,0.0,0.0,0.001764,2
1668538811205787474,410184,1668538811275525208,gps,2,1,42.3003789577,-83.6985949629,271.019927979,0.000144,0.0,0.0,0.0,0.000144,0.0,0.0,0.0,0.001764,2
1668538811215597050,410185,1668538811285610645,gps,2,1,42.3003792164,-83.6985949979,271.020294189,0.000144,0.0,0.0,0.0,0.000144,0.0,0.0,0.0,0.001764,2
1668538811225721930,410186,1668538811295709089,gps,2,1,42.3003794725,-83.6985950331,271.020721436,0.000144,0.0,0.0,0.0,0.000144,0.0,0.0,0.0,0.001764,2
1668538811235545608,410187,1668538811305557231,gps,2,1,42.3003797308,-83.6985950646,271.021057129,0.000144,0.0,0.0,0.0,0.000144,0.0,0.0,0.0,0.001764,2
1668538811245478876,410188,1668538811315538344,gps,2,1,42.3003799922,-83.6985950996,271.021362305,0.000144,0.0,0.0,0.0,0.000144,0.0,0.0,0.0,0.001764,2
1668538811255611058,410189,1668538811325582922,gps,2,1,42.3003802512,-83.6985951342,271.021728516,0.000144,0.0,0.0,0.0,0.000144,0.0,0.0,0.0,0.001764,2
1668538811265506927,410190,1668538811335520453,gps,2,1,42.3003805124,-83.6985951658,271.022003174,0.000144,0.0,0.0,0.0,0.000144,0.0,0.0,0.0,0.001764,2
1668538811275620900,410191,1668538811345528860,gps,2,1,42.3003807765,-83.6985952004,271.022247314,0.000144,0.0,0.0,0.0,0.000144,0.0,0.0,0.0,0.001764,2
1668538811285470336,410192,1668538811355618481,gps,2,1,42.3003810383,-83.6985952351,271.02255249,0.000144,0.0,0.0,0.0,0.000144,0.0,0.0,0.0,0.001764,2
1668538811295344143,410193,1668538811365520162,gps,2,1,42.300381302,-83.6985952676,271.022766113,0.000144,0.0,0.0,0.0,0.000144,0.0,0.0,0.0,0.001764,2
1668538811305361463,410194,1668538811375533777,gps,2,1,42.3003815689,-83.6985953024,271.022979736,0.000144,0.0,0.0,0.0,0.000144,0.0,0.0,0.0,0.001764,2
1668538811315822447,410195,1668538811385653791,gps,2,1,42.3003818336,-83.6985953371,271.023223877,0.000144,0.0,0.0,0.0,0.000144,0.0,0.0,0.0,0.001764,2
1668538811325674952,410196,1668538811395546255,gps,2,1,42.3003821,-83.6985953697,271.0234375,0.000144,0.0,0.0,0.0,0.000144,0.0,0.0,0.0,0.001764,2
1668538811335688574,410197,1668538811405544918,gps,2,1,42.3003823693,-83.6985954044,271.023620605,0.000144,0.0,0.0,0.0,0.000144,0.0,0.0,0.0,0.001764,2
1668538811345529230,410198,1668538811415600226,gps,2,1,42.3003826369,-83.6985954391,271.023834229,0.000144,0.0,0.0,0.0,0.000144,0.0,0.0,0.0,0.001764,2
1668538811355387225,410199,1668538811425522898,gps,2,1,42.3003829059,-83.6985954716,271.024017334,0.000144,0.0,0.0,0.0,0.000144,0.0,0.0,0.0,0.001764,2
1668538811365519941,410200,1668538811435538142,gps,2,1,42.3003831782,-83.698595506,271.024261475,0.000144,0.0,0.0,0.0,0.000144,0.0,0.0,0.0,0.001764,2
1668538811375593177,410201,1668538811445606927,gps,2,1,42.300383448,-83.6985955407,271.02444458,0.000144,0.0,0.0,0.0,0.000144,0.0,0.0,0.0,0.001764,2
1668538811385547644,410202,1668538811455539638,gps,2,1,42.3003837198,-83.6985955731,271.024658203,0.000144,0.0,0.0,0.0,0.000144,0.0,0.0,0.0,0.001764,2
1668538811395554319,410203,1668538811465540510,gps,2,1,42.3003839945,-83.6985956076,271.024902344,0.000144,0.0,0.0,0.0,0.000144,0.0,0.0,0.0,0.001764,2
1668538811405670789,410204,1668538811475590190,gps,2,1,42.3003842672,-83.6985956423,271.025115967,0.000144,0.0,0.0,0.0,0.000144,0.0,0.0,0.0,0.001764,2
1668538811415498680,410205,1668538811485503570,gps,2,1,42.3003845416,-83.6985956747,271.025360107,0.000144,0.0,0.0,0.0,0.000144,0.0,0.0,0.0,0.001764,2
1668538811425683840,410206,1668538811495592088,gps,2,1,42.3003848191,-83.6985957095,271.025634766,0.000144,0.0,0.0,0.0,0.000144,0.0,0.0,0.0,0.001764,2
1668538811435436678,410207,1668538811505625492,gps,2,1,42.3003850942,-83.6985957441,271.025878906,0.000144,0.0,0.0,0.0,0.000144,0.0,0.0,0.0,0.001764,2
1668538811445705418,410208,1668538811515632833,gps,2,1,42.3003853714,-83.698595777,271.026153564,0.000144,0.0,0.0,0.0,0.000144,0.0,0.0,0.0,0.001764,2
1668538811455776297,410209,1668538811525590384,gps,2,1,42.3003856514,-83.6985958123,271.02645874,0.000144,0.0,0.0,0.0,0.000144,0.0,0.0,0.0,0.001764,2
1668538811465477556,410210,1668538811535676808,gps,2,1,42.3003859293,-83.6985958469,271.026733398,0.000144,0.0,0.0,0.0,0.000144,0.0,0.0,0.0,0.001764,2
1668538811475764881,410211,1668538811545662251,gps,2,1,42.3003862089,-83.6985958825,271.027099609,0.000144,0.0,0.0,0.0,0.000144,0.0,0.0,0.0,0.001764,2
1668538811485708112,410212,1668538811555551953,gps,2,1,42.3003864918,-83.698595918,271.02734375,0.000144,0.0,0.0,0.0,0.000144,0.0,0.0,0.0,0.001764,2
1668538811495669116,410213,1668538811565572237,gps,2,1,42.3003867723,-83.6985959533,271.027618408,0.000144,0.0,0.0,0.0,0.000144,0.0,0.0,0.0,0.001764,2
1668538811505584749,410214,1668538811575571740,gps,2,1,42.3003870546,-83.6985959891,271.027923584,0.000144,0.0,0.0,0.0,0.000144,0.0,0.0,0.0,0.001764,2
1668538811515543783,410215,1668538811585551964,gps,2,1,42.3003873402,-83.698596025,271.028137207,0.000144,0.0,0.0,0.0,0.000144,0.0,0.0,0.0,0.001764,2
1668538811525594582,410216,1668538811595588808,gps,2,1,42.3003876236,-83.6985960605,271.028381348,0.000144,0.0,0.0,0.0,0.000144,0.0,0.0,0.0,0.001764,2
1668538811535516636,410217,1668538811605502337,gps,2,1,42.3003879088,-83.6985960964,271.028625488,0.000144,0.0,0.0,0.0,0.000144,0.0,0.0,0.0,0.001764,2
1668538811545507802,410218,1668538811615508018,gps,2,1,42.3003881973,-83.698596132,271.028778076,0.000144,0.0,0.0,0.0,0.000144,0.0,0.0,0.0,0.001764,2
1668538811555547336,410219,1668538811625576210,gps,2,1,42.3003884833,-83.6985961677,271.028991699,0.000144,0.0,0.0,0.0,0.000144,0.0,0.0,0.0,0.001764,2
1668538811565505443,410220,1668538811635510576,gps,2,1,42.3003887712,-83.6985962032,271.02923584,0.000144,0.0,0.0,0.0,0.000144,0.0,0.0,0.0,0.001764,2
1668538811575349365,410221,1668538811645505146,gps,2,1,42.3003890624,-83.698596239,271.029418945,0.000144,0.0,0.0,0.0,0.000144,0.0,0.0,0.0,0.001764,2
1668538811585385262,410222,1668538811655589929,gps,2,1,42.3003893512,-83.6985962745,271.029571533,0.000144,0.0,0.0,0.0,0.000144,0.0,0.0,0.0,0.001764,2
1668538811595258266,410223,1668538811665521734,gps,2,1,42.3003896419,-83.6985963102,271.029846191,0.000144,0.0,0.0,0.0,0.000144,0.0,0.0,0.0,0.001764,2
1668538811605755670,410224,1668538811675530119,gps,2,1,42.3003899358,-83.6985963465,271.030090332,0.000144,0.0,0.0,0.0,0.000144,0.0,0.0,0.0,0.001764,2
1668538811615726043,410225,1668538811685587529,gps,2,1,42.3003902272,-83.6985963825,271.03024292,0.000144,0.0,0.0,0.0,0.000144,0.0,0.0,0.0,0.001764,2
1668538811625732790,410226,1668538811695522764,gps,2,1,42.3003905206,-83.6985964186,271.030548096,0.000144,0.0,0.0,0.0,0.000144,0.0,0.0,0.0,0.001764,2
1668538811635743058,410227,1668538811705532760,gps,2,1,42.3003908171,-83.6985964553,271.030792236,0.000144,0.0,0.0,0.0,0.000144,0.0,0.0,0.0,0.001764,2
1668538811645577527,410228,1668538811715578073,gps,2,1,42.3003911114,-83.6985964918,271.031005859,0.000144,0.0,0.0,0.0,0.000144,0.0,0.0,0.0,0.001764,2
1668538811655640954,410229,1668538811725524827,gps,2,1,42.3003914077,-83.6985965284,271.03125,0.000144,0.0,0.0,0.0,0.000144,0.0,0.0,0.0,0.001764,2
1668538811665590068,410230,1668538811735567109,gps,2,1,42.3003917069,-83.6985965657,271.031433105,0.000144,0.0,0.0,0.0,0.000144,0.0,0.0,0.0,0.001764,2
1668538811675577361,410231,1668538811745588904,gps,2,1,42.3003920036,-83.6985966024,271.031677246,0.000144,0.0,0.0,0.0,0.000144,0.0,0.0,0.0,0.001764,2
1668538811685442624,410232,1668538811755516893,gps,2,1,42.3003923023,-83.6985966398,271.031921387,0.000144,0.0,0.0,0.0,0.000144,0.0,0.0,0.0,0.001764,2
1668538811695444777,410233,1668538811765506610,gps,2,1,42.3003926039,-83.6985966779,271.03213501,0.000144,0.0,0.0,0.0,0.000144,0.0,0.0,0.0,0.001764,2
1668538811705579991,410234,1668538811775575093,gps,2,1,42.3003929035,-83.6985967154,271.032318115,0.000144,0.0,0.0,0.0,0.000144,0.0,0.0,0.0,0.001764,2
1668538811715412917,410235,1668538811785498697,gps,2,1,42.3003932048,-83.6985967534,271.032592773,0.000144,0.0,0.0,0.0,0.000144,0.0,0.0,0.0,0.001764,2
1668538811725402605,410236,1668538811795612536,gps,2,1,42.3003935092,-83.6985967917,271.032836914,0.000144,0.0,0.0,0.0,0.000144,0.0,0.0,0.0,0.001764,2
1668538811735749591,410237,1668538811805581859,gps,2,1,42.3003938111,-83.6985968301,271.033050537,0.000144,0.0,0.0,0.0,0.000144,0.0,0.0,0.0,0.001764,2
1668538811745235100,410238,1668538811815516263,gps,2,1,42.3003941154,-83.6985968681,271.033355713,0.000144,0.0,0.0,0.0,0.000144,0.0,0.0,0.0,0.001764,2
1668538811755756817,410239,1668538811825522772,gps,2,1,42.3003944221,-83.6985969067,271.033691406,0.000144,0.0,0.0,0.0,0.000144,0.0,0.0,0.0,0.001764,2
1668538811765878063,410240,1668538811835585386,gps,2,1,42.3003947271,-83.6985969449,271.033935547,0.000144,0.0,0.0,0.0,0.000144,0.0,0.0,0.0,0.001764,2
1668538811775806772,410241,1668538811845523818,gps,2,1,42.3003950336,-83.6985969832,271.034332275,0.000144,0.0,0.0,0.0,0.000144,0.0,0.0,0.0,0.001764,2
1668538811785539480,410242,1668538811855528305,gps,2,1,42.3003953431,-83.6985970221,271.034698486,0.000144,0.0,0.0,0.0,0.000144,0.0,0.0,0.0,0.001764,2
1668538811795858938,410243,1668538811865688439,gps,2,1,42.3003956506,-83.6985970603,271.035003662,0.000144,0.0,0.0,0.0,0.000144,0.0,0.0,0.0,0.001764,2
1668538811805469622,410244,1668538811875509666,gps,2,1,42.30039596,-83.6985970991,271.035430908,0.000144,0.0,0.0,0.0,0.000144,0.0,0.0,0.0,0.001764,2
1668538811815525797,410245,1668538811885514372,gps,2,1,42.3003962723,-83.6985971376,271.035766602,0.000144,0.0,0.0,0.0,0.000144,0.0,0.0,0.0,0.001764,2
