%time,field.header.seq,field.header.stamp,field.header.frame_id,field.twist.twist.linear.x,field.twist.twist.linear.y,field.twist.twist.linear.z,field.twist.twist.angular.x,field.twist.twist.angular.y,field.twist.twist.angular.z,field.twist.covariance0,field.twist.covariance1,field.twist.covariance2,field.twist.covariance3,field.twist.covariance4,field.twist.covariance5,field.twist.covariance6,field.twist.covariance7,field.twist.covariance8,field.twist.covariance9,field.twist.covariance10,field.twist.covariance11,field.twist.covariance12,field.twist.covariance13,field.twist.covariance14,field.twist.covariance15,field.twist.covariance16,field.twist.covariance17,field.twist.covariance18,field.twist.covariance19,field.twist.covariance20,field.twist.covariance21,field.twist.covariance22,field.twist.covariance23,field.twist.covariance24,field.twist.covariance25,field.twist.covariance26,field.twist.covariance27,field.twist.covariance28,field.twist.covariance29,field.twist.covariance30,field.twist.covariance31,field.twist.covariance32,field.twist.covariance33,field.twist.covariance34,field.twist.covariance35
1668538300525091281,359116,1668538300606295031,enu,0.5725,-1.1895,-0.0086,0.0,0.0,0.0,8.1e-05,0.0,0.0,0.0,0.0,0.0,0.0,8.1e-05,0.0,0.0,0.0,0.0,0.0,0.0,6.4e-05,0.0,0.0,0.0,0.0,0.0,0.0,0.0,0.0,0.0,0.0,0.0,0.0,0.0,0.0,0.0,0.0,0.0,0.0,0.0,0.0,0.0
1668538300535253944,359117,1668538300616377918,enu,0.5823,-1.2062,-0.0092,0.0,0.0,0.0,8.1e-05,0.0,0.0,0.0,0.0,0.0,0.0,8.1e-05,0.0,0.0,0.0,0.0,0.0,0.0,6.4e-05,0.0,0.0,0.0,0.0,0.0,0.0,0.0,0.0,0.0,0.0,0.0,0.0,0.0,0.0,0.0,0.0,0.0,0.0,0.0,0.0,0.0
1668538300545085505,359118,1668538300626289950,enu,0.5901,-1.2234,-0.0094,0.0,0.0,0.0,8.1e-05,0.0,0.0,0.0,0.0,0.0,0.0,8.1e-05,0.0,0.0,0.0,0.0,0.0,0.0,6.4e-05,0.0,0.0,0.0,0.0,0.0,0.0,0.0,0.0,0.0,0.0,0.0,0.0,0.0,0.0,0.0,0.0,0.0,0.0,0.0,0.0,0.0
1668538300555201490,359119,1668538300636288677,enu,0.6001,-1.2403,-0.01,0.0,0.0,0.0,8.1e-05,0.0,0.0,0.0,0.0,0.0,0.0,8.1e-05,0.0,0.0,0.0,0.0,0.0,0.0,6.4e-05,0.0,0.0,0.0,0.0,0.0,0.0,0.0,0.0,0.0,0.0,0.0,0.0,0.0,0.0,0.0,0.0,0.0,0.0,0.0,0.0,0.0
1668538300565542513,359120,1668538300646349957,enu,0.6077,-1.2566,-0.0099,0.0,0.0,0.0,8.1e-05,0.0,0.0,0.0,0.0,0.0,0.0,8.1e-05,0.0,0.0,0.0,0.0,0.0,0.0,6.4e-05,0.0,0.0,0.0,0.0,0.0,0.0,0.0,0.0,0.0,0.0,0.0,0.0,0.0,0.0,0.0,0.0,0.0,0.0,0.0,0.0,0.0
1668538300575466156,359121,1668538300656303840,enu,0.6171,-1.2739,-0.0107,0.0,0.0,0.0,8.1e-05,0.0,0.0,0.0,0.0,0.0,0.0,8.1e-05,0.0,0.0,0.0,0.0,0.0,0.0,6.4e-05,0.0,0.0,0.0,0.0,0.0,0.0,0.0,0.0,0.0,0.0,0.0,0.0,0.0,0.0,0.0,0.0,0.0,0.0,0.0,0.0,0.0
1668538300585333636,359122,1668538300666290520,enu,0.6252,-1.2906,-0.0106,0.0,0.0,0.0,8.1e-05,0.0,0.0,0.0,0.0,0.0,0.0,8.1e-05,0.0,0.0,0.0,0.0,0.0,0.0,6.4e-05,0.0,0.0,0.0,0.0,0.0,0.0,0.0,0.0,0.0,0.0,0.0,0.0,0.0,0.0,0.0,0.0,0.0,0.0,0.0,0.0,0.0
1668538300595289244,359123,1668538300676353240,enu,0.6348,-1.3081,-0.0109,0.0,0.0,0.0,8.1e-05,0.0,0.0,0.0,0.0,0.0,0.0,8.1e-05,0.0,0.0,0.0,0.0,0.0,0.0,6.4e-05,0.0,0.0,0.0,0.0,0.0,0.0,0.0,0.0,0.0,0.0,0.0,0.0,0.0,0.0,0.0,0.0,0.0,0.0,0.0,0.0,0.0
1668538300605272150,359124,1668538300686289709,enu,0.6435,-1.3244,-0.0114,0.0,0.0,0.0,8.1e-05,0.0,0.0,0.0,0.0,0.0,0.0,8.1e-05,0.0,0.0,0.0,0.0,0.0,0.0,6.4e-05,0.0,0.0,0.0,0.0,0.0,0.0,0.0,0.0,0.0,0.0,0.0,0.0,0.0,0.0,0.0,0.0,0.0,0.0,0.0,0.0,0.0
1668538300615295324,359125,1668538300696299948,enu,0.6526,-1.3418,-0.0116,0.0,0.0,0.0,8.1e-05,0.0,0.0,0.0,0.0,0.0,0.0,8.1e-05,0.0,0.0,0.0,0.0,0.0,0.0,6.4e-05,0.0,0.0,0.0,0.0,0.0,0.0,0.0,0.0,0.0,0.0,0.0,0.0,0.0,0.0,0.0,0.0,0.0,0.0,0.0,0.0,0.0
1668538300625387033,359126,1668538300706370263,enu,0.6615,-1.3588,-0.0122,0.0,0.0,0.0,8.1e-05,0.0,0.0,0.0,0.0,0.0,0.0,8.1e-05,0.0,0.0,0.0,0.0,0.0,0.0,6.4e-05,0.0,0.0,0.0,0.0,0.0,0.0,0.0,0.0,0.0,0.0,0.0,0.0,0.0,0.0,0.0,0.0,0.0,0.0,0.0,0.0,0.0
1668538300635240985,359127,1668538300716276791,enu,0.6704,-1.3752,-0.0123,0.0,0.0,0.0,8.1e-05,0.0,0.0,0.0,0.0,0.0,0.0,8.1e-05,0.0,0.0,0.0,0.0,0.0,0.0,6.4e-05,0.0,0.0,0.0,0.0,0.0,0.0,0.0,0.0,0.0,0.0,0.0,0.0,0.0,0.0,0.0,0.0,0.0,0.0,0.0,0.0,0.0
1668538300645170491,359128,1668538300726316214,enu,0.6793,-1.3919,-0.0128,0.0,0.0,0.0,8.1e-05,0.0,0.0,0.0,0.0,0.0,0.0,8.1e-05,0.0,0.0,0.0,0.0,0.0,0.0,6.4e-05,0.0,0.0,0.0,0.0,0.0,0.0,0.0,0.0,0.0,0.0,0.0,0.0,0.0,0.0,0.0,0.0,0.0,0.0,0.0,0.0,0.0
1668538300655238172,359129,1668538300736349706,enu,0.688,-1.4094,-0.0128,0.0,0.0,0.0,8.1e-05,0.0,0.0,0.0,0.0,0.0,0.0,8.1e-05,0.0,0.0,0.0,0.0,0.0,0.0,6.4e-05,0.0,0.0,0.0,0.0,0.0,0.0,0.0,0.0,0.0,0.0,0.0,0.0,0.0,0.0,0.0,0.0,0.0,0.0,0.0,0.0,0.0
1668538300665052842,359130,1668538300746277266,enu,0.6975,-1.426,-0.0134,0.0,0.0,0.0,8.1e-05,0.0,0.0,0.0,0.0,0.0,0.0,8.1e-05,0.0,0.0,0.0,0.0,0.0,0.0,6.4e-05,0.0,0.0,0.0,0.0,0.0,0.0,0.0,0.0,0.0,0.0,0.0,0.0,0.0,0.0,0.0,0.0,0.0,0.0,0.0,0.0,0.0
1668538300675263315,359131,1668538300756313903,enu,0.7067,-1.4427,-0.0137,0.0,0.0,0.0,8.1e-05,0.0,0.0,0.0,0.0,0.0,0.0,8.1e-05,0.0,0.0,0.0,0.0,0.0,0.0,6.4e-05,0.0,0.0,0.0,0.0,0.0,0.0,0.0,0.0,0.0,0.0,0.0,0.0,0.0,0.0,0.0,0.0,0.0,0.0,0.0,0.0,0.0
1668538300685394362,359132,1668538300766349625,enu,0.7154,-1.4597,-0.0143,0.0,0.0,0.0,8.1e-05,0.0,0.0,0.0,0.0,0.0,0.0,8.1e-05,0.0,0.0,0.0,0.0,0.0,0.0,6.4e-05,0.0,0.0,0.0,0.0,0.0,0.0,0.0,0.0,0.0,0.0,0.0,0.0,0.0,0.0,0.0,0.0,0.0,0.0,0.0,0.0,0.0
1668538300695060190,359133,1668538300776281595,enu,0.7251,-1.476,-0.0143,0.0,0.0,0.0,8.1e-05,0.0,0.0,0.0,0.0,0.0,0.0,8.1e-05,0.0,0.0,0.0,0.0,0.0,0.0,6.4e-05,0.0,0.0,0.0,0.0,0.0,0.0,0.0,0.0,0.0,0.0,0.0,0.0,0.0,0.0,0.0,0.0,0.0,0.0,0.0,0.0,0.0
1668538300704964521,359134,1668538300786297196,enu,0.7337,-1.4933,-0.0146,0.0,0.0,0.0,8.1e-05,0.0,0.0,0.0,0.0,0.0,0.0,8.1e-05,0.0,0.0,0.0,0.0,0.0,0.0,6.4e-05,0.0,0.0,0.0,0.0,0.0,0.0,0.0,0.0,0.0,0.0,0.0,0.0,0.0,0.0,0.0,0.0,0.0,0.0,0.0,0.0,0.0
1668538300715235712,359135,1668538300796439539,enu,0.7441,-1.51,-0.0153,0.0,0.0,0.0,8.1e-05,0.0,0.0,0.0,0.0,0.0,0.0,8.1e-05,0.0,0.0,0.0,0.0,0.0,0.0,6.4e-05,0.0,0.0,0.0,0.0,0.0,0.0,0.0,0.0,0.0,0.0,0.0,0.0,0.0,0.0,0.0,0.0,0.0,0.0,0.0,0.0,0.0
1668538300724959626,359136,1668538300806295402,enu,0.753,-1.5271,-0.0156,0.0,0.0,0.0,8.1e-05,0.0,0.0,0.0,0.0,0.0,0.0,8.1e-05,0.0,0.0,0.0,0.0,0.0,0.0,6.4e-05,0.0,0.0,0.0,0.0,0.0,0.0,0.0,0.0,0.0,0.0,0.0,0.0,0.0,0.0,0.0,0.0,0.0,0.0,0.0,0.0,0.0
1668538300735318157,359137,1668538300816304882,enu,0.7628,-1.5449,-0.0159,0.0,0.0,0.0,8.1e-05,0.0,0.0,0.0,0.0,0.0,0.0,8.1e-05,0.0,0.0,0.0,0.0,0.0,0.0,6.4e-05,0.0,0.0,0.0,0.0,0.0,0.0,0.0,0.0,0.0,0.0,0.0,0.0,0.0,0.0,0.0,0.0,0.0,0.0,0.0,0.0,0.0
1668538300745146235,359138,1668538300826348410,enu,0.7721,-1.5611,-0.0161,0.0,0.0,0.0,8.1e-05,0.0,0.0,0.0,0.0,0.0,0.0,8.1e-05,0.0,0.0,0.0,0.0,0.0,0.0,6.4e-05,0.0,0.0,0.0,0.0,0.0,0.0,0.0,0.0,0.0,0.0,0.0,0.0,0.0,0.0,0.0,0.0,0.0,0.0,0.0,0.0,0.0
1668538300755174526,359139,1668538300836293239,enu,0.7816,-1.5786,-0.0167,0.0,0.0,0.0,8.1e-05,0.0,0.0,0.0,0.0,0.0,0.0,8.1e-05,0.0,0.0,0.0,0.0,0.0,0.0,6.4e-05,0.0,0.0,0.0,0.0,0.0,0.0,0.0,0.0,0.0,0.0,0.0,0.0,0.0,0.0,0.0,0.0,0.0,0.0,0.0,0.0,0.0
1668538300765070032,359140,1668538300846282631,enu,0.791,-1.5958,-0.0169,0.0,0.0,0.0,8.1e-05,0.0,0.0,0.0,0.0,0.0,0.0,8.1e-05,0.0,0.0,0.0,0.0,0.0,0.0,6.4e-05,0.0,0.0,0.0,0.0,0.0,0.0,0.0,0.0,0.0,0.0,0.0,0.0,0.0,0.0,0.0,0.0,0.0,0.0,0.0,0.0,0.0
1668538300775225249,359141,1668538300856338044,enu,0.7998,-1.6129,-0.0165,0.0,0.0,0.0,8.1e-05,0.0,0.0,0.0,0.0,0.0,0.0,8.1e-05,0.0,0.0,0.0,0.0,0.0,0.0,6.4e-05,0.0,0.0,0.0,0.0,0.0,0.0,0.0,0.0,0.0,0.0,0.0,0.0,0.0,0.0,0.0,0.0,0.0,0.0,0.0,0.0,0.0
1668538300785140779,359142,1668538300866276450,enu,0.8094,-1.6296,-0.017,0.0,0.0,0.0,8.1e-05,0.0,0.0,0.0,0.0,0.0,0.0,8.1e-05,0.0,0.0,0.0,0.0,0.0,0.0,6.4e-05,0.0,0.0,0.0,0.0,0.0,0.0,0.0,0.0,0.0,0.0,0.0,0.0,0.0,0.0,0.0,0.0,0.0,0.0,0.0,0.0,0.0
1668538300795137080,359143,1668538300876276430,enu,0.8182,-1.6463,-0.0164,0.0,0.0,0.0,8.1e-05,0.0,0.0,0.0,0.0,0.0,0.0,8.1e-05,0.0,0.0,0.0,0.0,0.0,0.0,6.4e-05,0.0,0.0,0.0,0.0,0.0,0.0,0.0,0.0,0.0,0.0,0.0,0.0,0.0,0.0,0.0,0.0,0.0,0.0,0.0,0.0,0.0
1668538300805061524,359144,1668538300886365160,enu,0.8276,-1.6622,-0.0165,0.0,0.0,0.0,8.1e-05,0.0,0.0,0.0,0.0,0.0,0.0,8.1e-05,0.0,0.0,0.0,0.0,0.0,0.0,6.4e-05,0.0,0.0,0.0,0.0,0.0,0.0,0.0,0.0,0.0,0.0,0.0,0.0,0.0,0.0,0.0,0.0,0.0,0.0,0.0,0.0,0.0
1668538300815163898,359145,1668538300896283031,enu,0.8363,-1.6801,-0.0153,0.0,0.0,0.0,8.1e-05,0.0,0.0,0.0,0.0,0.0,0.0,8.1e-05,0.0,0.0,0.0,0.0,0.0,0.0,6.4e-05,0.0,0.0,0.0,0.0,0.0,0.0,0.0,0.0,0.0,0.0,0.0,0.0,0.0,0.0,0.0,0.0,0.0,0.0,0.0,0.0,0.0
1668538300824992777,359146,1668538300906300228,enu,0.8464,-1.6959,-0.0152,0.0,0.0,0.0,8.1e-05,0.0,0.0,0.0,0.0,0.0,0.0,8.1e-05,0.0,0.0,0.0,0.0,0.0,0.0,6.4e-05,0.0,0.0,0.0,0.0,0.0,0.0,0.0,0.0,0.0,0.0,0.0,0.0,0.0,0.0,0.0,0.0,0.0,0.0,0.0,0.0,0.0
1668538300835069395,359147,1668538300916345571,enu,0.8556,-1.7126,-0.0141,0.0,0.0,0.0,8.1e-05,0.0,0.0,0.0,0.0,0.0,0.0,8.1e-05,0.0,0.0,0.0,0.0,0.0,0.0,6.4e-05,0.0,0.0,0.0,0.0,0.0,0.0,0.0,0.0,0.0,0.0,0.0,0.0,0.0,0.0,0.0,0.0,0.0,0.0,0.0,0.0,0.0
1668538300845420071,359148,1668538300926285774,enu,0.8649,-1.7287,-0.0142,0.0,0.0,0.0,8.1e-05,0.0,0.0,0.0,0.0,0.0,0.0,8.1e-05,0.0,0.0,0.0,0.0,0.0,0.0,6.4e-05,0.0,0.0,0.0,0.0,0.0,0.0,0.0,0.0,0.0,0.0,0.0,0.0,0.0,0.0,0.0,0.0,0.0,0.0,0.0,0.0,0.0
1668538300855238001,359149,1668538300936286316,enu,0.8744,-1.7449,-0.0131,0.0,0.0,0.0,8.1e-05,0.0,0.0,0.0,0.0,0.0,0.0,8.1e-05,0.0,0.0,0.0,0.0,0.0,0.0,6.4e-05,0.0,0.0,0.0,0.0,0.0,0.0,0.0,0.0,0.0,0.0,0.0,0.0,0.0,0.0,0.0,0.0,0.0,0.0,0.0,0.0,0.0
1668538300865157577,359150,1668538300946350303,enu,0.8841,-1.7618,-0.0139,0.0,0.0,0.0,8.1e-05,0.0,0.0,0.0,0.0,0.0,0.0,8.1e-05,0.0,0.0,0.0,0.0,0.0,0.0,6.4e-05,0.0,0.0,0.0,0.0,0.0,0.0,0.0,0.0,0.0,0.0,0.0,0.0,0.0,0.0,0.0,0.0,0.0,0.0,0.0,0.0,0.0
1668538300874957305,359151,1668538300956286916,enu,0.8932,-1.7782,-0.0134,0.0,0.0,0.0,8.1e-05,0.0,0.0,0.0,0.0,0.0,0.0,8.1e-05,0.0,0.0,0.0,0.0,0.0,0.0,6.4e-05,0.0,0.0,0.0,0.0,0.0,0.0,0.0,0.0,0.0,0.0,0.0,0.0,0.0,0.0,0.0,0.0,0.0,0.0,0.0,0.0,0.0
1668538300885167040,359152,1668538300966296172,enu,0.9032,-1.7939,-0.013,0.0,0.0,0.0,8.1e-05,0.0,0.0,0.0,0.0,0.0,0.0,8.1e-05,0.0,0.0,0.0,0.0,0.0,0.0,6.4e-05,0.0,0.0,0.0,0.0,0.0,0.0,0.0,0.0,0.0,0.0,0.0,0.0,0.0,0.0,0.0,0.0,0.0,0.0,0.0,0.0,0.0
1668538300895253368,359153,1668538300976386765,enu,0.9114,-1.8116,-0.0119,0.0,0.0,0.0,8.1e-05,0.0,0.0,0.0,0.0,0.0,0.0,8.1e-05,0.0,0.0,0.0,0.0,0.0,0.0,6.4e-05,0.0,0.0,0.0,0.0,0.0,0.0,0.0,0.0,0.0,0.0,0.0,0.0,0.0,0.0,0.0,0.0,0.0,0.0,0.0,0.0,0.0
1668538300905195762,359154,1668538300986283647,enu,0.9208,-1.8275,-0.0125,0.0,0.0,0.0,8.1e-05,0.0,0.0,0.0,0.0,0.0,0.0,8.1e-05,0.0,0.0,0.0,0.0,0.0,0.0,6.4e-05,0.0,0.0,0.0,0.0,0.0,0.0,0.0,0.0,0.0,0.0,0.0,0.0,0.0,0.0,0.0,0.0,0.0,0.0,0.0,0.0,0.0
1668538300915348891,359155,1668538300996336888,enu,0.9291,-1.844,-0.0112,0.0,0.0,0.0,8.1e-05,0.0,0.0,0.0,0.0,0.0,0.0,8.1e-05,0.0,0.0,0.0,0.0,0.0,0.0,6.4e-05,0.0,0.0,0.0,0.0,0.0,0.0,0.0,0.0,0.0,0.0,0.0,0.0,0.0,0.0,0.0,0.0,0.0,0.0,0.0,0.0,0.0
1668538300925425869,359156,1668538301006414652,enu,0.937,-1.8602,-0.0114,0.0,0.0,0.0,8.1e-05,0.0,0.0,0.0,0.0,0.0,0.0,8.1e-05,0.0,0.0,0.0,0.0,0.0,0.0,6.4e-05,0.0,0.0,0.0,0.0,0.0,0.0,0.0,0.0,0.0,0.0,0.0,0.0,0.0,0.0,0.0,0.0,0.0,0.0,0.0,0.0,0.0
1668538300935346767,359157,1668538301016334637,enu,0.9452,-1.8769,-0.0103,0.0,0.0,0.0,8.1e-05,0.0,0.0,0.0,0.0,0.0,0.0,8.1e-05,0.0,0.0,0.0,0.0,0.0,0.0,6.4e-05,0.0,0.0,0.0,0.0,0.0,0.0,0.0,0.0,0.0,0.0,0.0,0.0,0.0,0.0,0.0,0.0,0.0,0.0,0.0,0.0,0.0
1668538300945188946,359158,1668538301026393415,enu,0.9527,-1.8938,-0.0105,0.0,0.0,0.0,8.1e-05,0.0,0.0,0.0,0.0,0.0,0.0,8.1e-05,0.0,0.0,0.0,0.0,0.0,0.0,6.4e-05,0.0,0.0,0.0,0.0,0.0,0.0,0.0,0.0,0.0,0.0,0.0,0.0,0.0,0.0,0.0,0.0,0.0,0.0,0.0,0.0,0.0
1668538300955178665,359159,1668538301036336527,enu,0.9597,-1.9099,-0.0092,0.0,0.0,0.0,8.1e-05,0.0,0.0,0.0,0.0,0.0,0.0,8.1e-05,0.0,0.0,0.0,0.0,0.0,0.0,6.4e-05,0.0,0.0,0.0,0.0,0.0,0.0,0.0,0.0,0.0,0.0,0.0,0.0,0.0,0.0,0.0,0.0,0.0,0.0,0.0,0.0,0.0
1668538300965348751,359160,1668538301046381171,enu,0.9669,-1.9267,-0.0089,0.0,0.0,0.0,8.1e-05,0.0,0.0,0.0,0.0,0.0,0.0,8.1e-05,0.0,0.0,0.0,0.0,0.0,0.0,6.4e-05,0.0,0.0,0.0,0.0,0.0,0.0,0.0,0.0,0.0,0.0,0.0,0.0,0.0,0.0,0.0,0.0,0.0,0.0,0.0,0.0,0.0
1668538300975083708,359161,1668538301056390635,enu,0.9731,-1.9438,-0.0076,0.0,0.0,0.0,8.1e-05,0.0,0.0,0.0,0.0,0.0,0.0,8.1e-05,0.0,0.0,0.0,0.0,0.0,0.0,6.4e-05,0.0,0.0,0.0,0.0,0.0,0.0,0.0,0.0,0.0,0.0,0.0,0.0,0.0,0.0,0.0,0.0,0.0,0.0,0.0,0.0,0.0
1668538300985411810,359162,1668538301066418791,enu,0.9799,-1.9595,-0.0074,0.0,0.0,0.0,8.1e-05,0.0,0.0,0.0,0.0,0.0,0.0,8.1e-05,0.0,0.0,0.0,0.0,0.0,0.0,6.4e-05,0.0,0.0,0.0,0.0,0.0,0.0,0.0,0.0,0.0,0.0,0.0,0.0,0.0,0.0,0.0,0.0,0.0,0.0,0.0,0.0,0.0
1668538300995280765,359163,1668538301076319617,enu,0.9852,-1.9762,-0.006,0.0,0.0,0.0,8.1e-05,0.0,0.0,0.0,0.0,0.0,0.0,8.1e-05,0.0,0.0,0.0,0.0,0.0,0.0,6.4e-05,0.0,0.0,0.0,0.0,0.0,0.0,0.0,0.0,0.0,0.0,0.0,0.0,0.0,0.0,0.0,0.0,0.0,0.0,0.0,0.0,0.0
1668538301005262485,359164,1668538301086384514,enu,0.9913,-1.9927,-0.0068,0.0,0.0,0.0,8.1e-05,0.0,0.0,0.0,0.0,0.0,0.0,8.1e-05,0.0,0.0,0.0,0.0,0.0,0.0,6.4e-05,0.0,0.0,0.0,0.0,0.0,0.0,0.0,0.0,0.0,0.0,0.0,0.0,0.0,0.0,0.0,0.0,0.0,0.0,0.0,0.0,0.0
1668538301015216189,359165,1668538301096290266,enu,0.9971,-2.009,-0.0055,0.0,0.0,0.0,8.1e-05,0.0,0.0,0.0,0.0,0.0,0.0,8.1e-05,0.0,0.0,0.0,0.0,0.0,0.0,6.4e-05,0.0,0.0,0.0,0.0,0.0,0.0,0.0,0.0,0.0,0.0,0.0,0.0,0.0,0.0,0.0,0.0,0.0,0.0,0.0,0.0,0.0
1668538301025309187,359166,1668538301106255970,enu,1.0028,-2.0262,-0.0058,0.0,0.0,0.0,8.1e-05,0.0,0.0,0.0,0.0,0.0,0.0,8.1e-05,0.0,0.0,0.0,0.0,0.0,0.0,6.4e-05,0.0,0.0,0.0,0.0,0.0,0.0,0.0,0.0,0.0,0.0,0.0,0.0,0.0,0.0,0.0,0.0,0.0,0.0,0.0,0.0,0.0
1668538301035115085,359167,1668538301116233785,enu,1.0085,-2.0424,-0.0052,0.0,0.0,0.0,8.1e-05,0.0,0.0,0.0,0.0,0.0,0.0,8.1e-05,0.0,0.0,0.0,0.0,0.0,0.0,6.4e-05,0.0,0.0,0.0,0.0,0.0,0.0,0.0,0.0,0.0,0.0,0.0,0.0,0.0,0.0,0.0,0.0,0.0,0.0,0.0,0.0,0.0
1668538301045228348,359168,1668538301126245707,enu,1.014,-2.0582,-0.0055,0.0,0.0,0.0,8.1e-05,0.0,0.0,0.0,0.0,0.0,0.0,8.1e-05,0.0,0.0,0.0,0.0,0.0,0.0,6.4e-05,0.0,0.0,0.0,0.0,0.0,0.0,0.0,0.0,0.0,0.0,0.0,0.0,0.0,0.0,0.0,0.0,0.0,0.0,0.0,0.0,0.0
1668538301055101326,359169,1668538301136296721,enu,1.019,-2.0749,-0.005,0.0,0.0,0.0,8.1e-05,0.0,0.0,0.0,0.0,0.0,0.0,8.1e-05,0.0,0.0,0.0,0.0,0.0,0.0,6.4e-05,0.0,0.0,0.0,0.0,0.0,0.0,0.0,0.0,0.0,0.0,0.0,0.0,0.0,0.0,0.0,0.0,0.0,0.0,0.0,0.0,0.0
1668538301065133790,359170,1668538301146367018,enu,1.0258,-2.0906,-0.0065,0.0,0.0,0.0,8.1e-05,0.0,0.0,0.0,0.0,0.0,0.0,8.1e-05,0.0,0.0,0.0,0.0,0.0,0.0,6.4e-05,0.0,0.0,0.0,0.0,0.0,0.0,0.0,0.0,0.0,0.0,0.0,0.0,0.0,0.0,0.0,0.0,0.0,0.0,0.0,0.0,0.0
1668538301075172714,359171,1668538301156375380,enu,1.0307,-2.1067,-0.0069,0.0,0.0,0.0,8.1e-05,0.0,0.0,0.0,0.0,0.0,0.0,8.1e-05,0.0,0.0,0.0,0.0,0.0,0.0,6.4e-05,0.0,0.0,0.0,0.0,0.0,0.0,0.0,0.0,0.0,0.0,0.0,0.0,0.0,0.0,0.0,0.0,0.0,0.0,0.0,0.0,0.0
1668538301085135017,359172,1668538301166270959,enu,1.0373,-2.1224,-0.0087,0.0,0.0,0.0,8.1e-05,0.0,0.0,0.0,0.0,0.0,0.0,8.1e-05,0.0,0.0,0.0,0.0,0.0,0.0,6.4e-05,0.0,0.0,0.0,0.0,0.0,0.0,0.0,0.0,0.0,0.0,0.0,0.0,0.0,0.0,0.0,0.0,0.0,0.0,0.0,0.0,0.0
1668538301095273743,359173,1668538301176344279,enu,1.0425,-2.1383,-0.0087,0.0,0.0,0.0,8.1e-05,0.0,0.0,0.0,0.0,0.0,0.0,8.1e-05,0.0,0.0,0.0,0.0,0.0,0.0,6.4e-05,0.0,0.0,0.0,0.0,0.0,0.0,0.0,0.0,0.0,0.0,0.0,0.0,0.0,0.0,0.0,0.0,0.0,0.0,0.0,0.0,0.0
1668538301105027832,359174,1668538301186290775,enu,1.0494,-2.1534,-0.011,0.0,0.0,0.0,8.1e-05,0.0,0.0,0.0,0.0,0.0,0.0,8.1e-05,0.0,0.0,0.0,0.0,0.0,0.0,6.4e-05,0.0,0.0,0.0,0.0,0.0,0.0,0.0,0.0,0.0,0.0,0.0,0.0,0.0,0.0,0.0,0.0,0.0,0.0,0.0,0.0,0.0
1668538301115107209,359175,1668538301196284175,enu,1.0556,-2.1684,-0.0118,0.0,0.0,0.0,8.1e-05,0.0,0.0,0.0,0.0,0.0,0.0,8.1e-05,0.0,0.0,0.0,0.0,0.0,0.0,6.4e-05,0.0,0.0,0.0,0.0,0.0,0.0,0.0,0.0,0.0,0.0,0.0,0.0,0.0,0.0,0.0,0.0,0.0,0.0,0.0,0.0,0.0
1668538301125493443,359176,1668538301206296597,enu,1.0617,-2.1833,-0.0142,0.0,0.0,0.0,8.1e-05,0.0,0.0,0.0,0.0,0.0,0.0,8.1e-05,0.0,0.0,0.0,0.0,0.0,0.0,6.4e-05,0.0,0.0,0.0,0.0,0.0,0.0,0.0,0.0,0.0,0.0,0.0,0.0,0.0,0.0,0.0,0.0,0.0,0.0,0.0,0.0,0.0
1668538301135377375,359177,1668538301216348614,enu,1.0675,-2.1984,-0.0147,0.0,0.0,0.0,8.1e-05,0.0,0.0,0.0,0.0,0.0,0.0,8.1e-05,0.0,0.0,0.0,0.0,0.0,0.0,6.4e-05,0.0,0.0,0.0,0.0,0.0,0.0,0.0,0.0,0.0,0.0,0.0,0.0,0.0,0.0,0.0,0.0,0.0,0.0,0.0,0.0,0.0
1668538301145362405,359178,1668538301226333159,enu,1.0742,-2.213,-0.0172,0.0,0.0,0.0,8.1e-05,0.0,0.0,0.0,0.0,0.0,0.0,8.1e-05,0.0,0.0,0.0,0.0,0.0,0.0,6.4e-05,0.0,0.0,0.0,0.0,0.0,0.0,0.0,0.0,0.0,0.0,0.0,0.0,0.0,0.0,0.0,0.0,0.0,0.0,0.0,0.0,0.0
1668538301155235305,359179,1668538301236347920,enu,1.0794,-2.2283,-0.0177,0.0,0.0,0.0,8.1e-05,0.0,0.0,0.0,0.0,0.0,0.0,8.1e-05,0.0,0.0,0.0,0.0,0.0,0.0,6.4e-05,0.0,0.0,0.0,0.0,0.0,0.0,0.0,0.0,0.0,0.0,0.0,0.0,0.0,0.0,0.0,0.0,0.0,0.0,0.0,0.0,0.0
1668538301165229508,359180,1668538301246334870,enu,1.0865,-2.2429,-0.0195,0.0,0.0,0.0,8.1e-05,0.0,0.0,0.0,0.0,0.0,0.0,8.1e-05,0.0,0.0,0.0,0.0,0.0,0.0,6.4e-05,0.0,0.0,0.0,0.0,0.0,0.0,0.0,0.0,0.0,0.0,0.0,0.0,0.0,0.0,0.0,0.0,0.0,0.0,0.0,0.0,0.0
1668538301175182104,359181,1668538301256313202,enu,1.0922,-2.2574,-0.0193,0.0,0.0,0.0,8.1e-05,0.0,0.0,0.0,0.0,0.0,0.0,8.1e-05,0.0,0.0,0.0,0.0,0.0,0.0,6.4e-05,0.0,0.0,0.0,0.0,0.0,0.0,0.0,0.0,0.0,0.0,0.0,0.0,0.0,0.0,0.0,0.0,0.0,0.0,0.0,0.0,0.0
1668538301185269483,359182,1668538301266354331,enu,1.0994,-2.2723,-0.0216,0.0,0.0,0.0,8.1e-05,0.0,0.0,0.0,0.0,0.0,0.0,8.1e-05,0.0,0.0,0.0,0.0,0.0,0.0,6.4e-05,0.0,0.0,0.0,0.0,0.0,0.0,0.0,0.0,0.0,0.0,0.0,0.0,0.0,0.0,0.0,0.0,0.0,0.0,0.0,0.0,0.0
1668538301195197886,359183,1668538301276280147,enu,1.105,-2.2863,-0.022,0.0,0.0,0.0,8.1e-05,0.0,0.0,0.0,0.0,0.0,0.0,8.1e-05,0.0,0.0,0.0,0.0,0.0,0.0,6.4e-05,0.0,0.0,0.0,0.0,0.0,0.0,0.0,0.0,0.0,0.0,0.0,0.0,0.0,0.0,0.0,0.0,0.0,0.0,0.0,0.0,0.0
1668538301205073859,359184,1668538301286265911,enu,1.1111,-2.3009,-0.0238,0.0,0.0,0.0,8.1e-05,0.0,0.0,0.0,0.0,0.0,0.0,8.1e-05,0.0,0.0,0.0,0.0,0.0,0.0,6.4e-05,0.0,0.0,0.0,0.0,0.0,0.0,0.0,0.0,0.0,0.0,0.0,0.0,0.0,0.0,0.0,0.0,0.0,0.0,0.0,0.0,0.0
1668538301215075898,359185,1668538301296435931,enu,1.1171,-2.3154,-0.0236,0.0,0.0,0.0,8.1e-05,0.0,0.0,0.0,0.0,0.0,0.0,8.1e-05,0.0,0.0,0.0,0.0,0.0,0.0,6.4e-05,0.0,0.0,0.0,0.0,0.0,0.0,0.0,0.0,0.0,0.0,0.0,0.0,0.0,0.0,0.0,0.0,0.0,0.0,0.0,0.0,0.0
1668538301225260610,359186,1668538301306286279,enu,1.1238,-2.3295,-0.0252,0.0,0.0,0.0,8.1e-05,0.0,0.0,0.0,0.0,0.0,0.0,8.1e-05,0.0,0.0,0.0,0.0,0.0,0.0,6.4e-05,0.0,0.0,0.0,0.0,0.0,0.0,0.0,0.0,0.0,0.0,0.0,0.0,0.0,0.0,0.0,0.0,0.0,0.0,0.0,0.0,0.0
1668538301235018810,359187,1668538301316280828,enu,1.1295,-2.3438,-0.0253,0.0,0.0,0.0,8.1e-05,0.0,0.0,0.0,0.0,0.0,0.0,8.1e-05,0.0,0.0,0.0,0.0,0.0,0.0,6.4e-05,0.0,0.0,0.0,0.0,0.0,0.0,0.0,0.0,0.0,0.0,0.0,0.0,0.0,0.0,0.0,0.0,0.0,0.0,0.0,0.0,0.0
1668538301245067097,359188,1668538301326345911,enu,1.1364,-2.3573,-0.0267,0.0,0.0,0.0,8.1e-05,0.0,0.0,0.0,0.0,0.0,0.0,8.1e-05,0.0,0.0,0.0,0.0,0.0,0.0,6.4e-05,0.0,0.0,0.0,0.0,0.0,0.0,0.0,0.0,0.0,0.0,0.0,0.0,0.0,0.0,0.0,0.0,0.0,0.0,0.0,0.0,0.0
1668538301255100704,359189,1668538301336291969,enu,1.1419,-2.3715,-0.0262,0.0,0.0,0.0,8.1e-05,0.0,0.0,0.0,0.0,0.0,0.0,8.1e-05,0.0,0.0,0.0,0.0,0.0,0.0,6.4e-05,0.0,0.0,0.0,0.0,0.0,0.0,0.0,0.0,0.0,0.0,0.0,0.0,0.0,0.0,0.0,0.0,0.0,0.0,0.0,0.0,0.0
1668538301265290869,359190,1668538301346304135,enu,1.1489,-2.3846,-0.027,0.0,0.0,0.0,8.1e-05,0.0,0.0,0.0,0.0,0.0,0.0,8.1e-05,0.0,0.0,0.0,0.0,0.0,0.0,6.4e-05,0.0,0.0,0.0,0.0,0.0,0.0,0.0,0.0,0.0,0.0,0.0,0.0,0.0,0.0,0.0,0.0,0.0,0.0,0.0,0.0,0.0
1668538301275351061,359191,1668538301356322665,enu,1.1544,-2.3969,-0.0255,0.0,0.0,0.0,8.1e-05,0.0,0.0,0.0,0.0,0.0,0.0,8.1e-05,0.0,0.0,0.0,0.0,0.0,0.0,6.4e-05,0.0,0.0,0.0,0.0,0.0,0.0,0.0,0.0,0.0,0.0,0.0,0.0,0.0,0.0,0.0,0.0,0.0,0.0,0.0,0.0,0.0
1668538301285276785,359192,1668538301366363576,enu,1.1614,-2.4093,-0.0258,0.0,0.0,0.0,8.1e-05,0.0,0.0,0.0,0.0,0.0,0.0,8.1e-05,0.0,0.0,0.0,0.0,0.0,0.0,6.4e-05,0.0,0.0,0.0,0.0,0.0,0.0,0.0,0.0,0.0,0.0,0.0,0.0,0.0,0.0,0.0,0.0,0.0,0.0,0.0,0.0,0.0
1668538301295067485,359193,1668538301376288508,enu,1.1674,-2.4226,-0.0241,0.0,0.0,0.0,8.1e-05,0.0,0.0,0.0,0.0,0.0,0.0,8.1e-05,0.0,0.0,0.0,0.0,0.0,0.0,6.4e-05,0.0,0.0,0.0,0.0,0.0,0.0,0.0,0.0,0.0,0.0,0.0,0.0,0.0,0.0,0.0,0.0,0.0,0.0,0.0,0.0,0.0
1668538301305119113,359194,1668538301386283858,enu,1.175,-2.4354,-0.0233,0.0,0.0,0.0,8.1e-05,0.0,0.0,0.0,0.0,0.0,0.0,8.1e-05,0.0,0.0,0.0,0.0,0.0,0.0,6.4e-05,0.0,0.0,0.0,0.0,0.0,0.0,0.0,0.0,0.0,0.0,0.0,0.0,0.0,0.0,0.0,0.0,0.0,0.0,0.0,0.0,0.0
1668538301315360367,359195,1668538301396346686,enu,1.1818,-2.448,-0.0208,0.0,0.0,0.0,8.1e-05,0.0,0.0,0.0,0.0,0.0,0.0,8.1e-05,0.0,0.0,0.0,0.0,0.0,0.0,6.4e-05,0.0,0.0,0.0,0.0,0.0,0.0,0.0,0.0,0.0,0.0,0.0,0.0,0.0,0.0,0.0,0.0,0.0,0.0,0.0,0.0,0.0
1668538301325293958,359196,1668538301406288729,enu,1.1889,-2.4605,-0.0201,0.0,0.0,0.0,8.1e-05,0.0,0.0,0.0,0.0,0.0,0.0,8.1e-05,0.0,0.0,0.0,0.0,0.0,0.0,6.4e-05,0.0,0.0,0.0,0.0,0.0,0.0,0.0,0.0,0.0,0.0,0.0,0.0,0.0,0.0,0.0,0.0,0.0,0.0,0.0,0.0,0.0
1668538301335223882,359197,1668538301416349909,enu,1.1952,-2.4719,-0.0177,0.0,0.0,0.0,8.1e-05,0.0,0.0,0.0,0.0,0.0,0.0,8.1e-05,0.0,0.0,0.0,0.0,0.0,0.0,6.4e-05,0.0,0.0,0.0,0.0,0.0,0.0,0.0,0.0,0.0,0.0,0.0,0.0,0.0,0.0,0.0,0.0,0.0,0.0,0.0,0.0,0.0
1668538301345449308,359198,1668538301426295779,enu,1.2014,-2.4833,-0.0162,0.0,0.0,0.0,8.1e-05,0.0,0.0,0.0,0.0,0.0,0.0,8.1e-05,0.0,0.0,0.0,0.0,0.0,0.0,6.4e-05,0.0,0.0,0.0,0.0,0.0,0.0,0.0,0.0,0.0,0.0,0.0,0.0,0.0,0.0,0.0,0.0,0.0,0.0,0.0,0.0,0.0
1668538301355083981,359199,1668538301436265999,enu,1.2084,-2.4945,-0.0139,0.0,0.0,0.0,8.1e-05,0.0,0.0,0.0,0.0,0.0,0.0,8.1e-05,0.0,0.0,0.0,0.0,0.0,0.0,6.4e-05,0.0,0.0,0.0,0.0,0.0,0.0,0.0,0.0,0.0,0.0,0.0,0.0,0.0,0.0,0.0,0.0,0.0,0.0,0.0,0.0,0.0
1668538301365137138,359200,1668538301446335567,enu,1.2145,-2.5072,-0.012,0.0,0.0,0.0,8.1e-05,0.0,0.0,0.0,0.0,0.0,0.0,8.1e-05,0.0,0.0,0.0,0.0,0.0,0.0,6.4e-05,0.0,0.0,0.0,0.0,0.0,0.0,0.0,0.0,0.0,0.0,0.0,0.0,0.0,0.0,0.0,0.0,0.0,0.0,0.0,0.0,0.0
1668538301375218592,359201,1668538301456346883,enu,1.2219,-2.5185,-0.01,0.0,0.0,0.0,8.1e-05,0.0,0.0,0.0,0.0,0.0,0.0,8.1e-05,0.0,0.0,0.0,0.0,0.0,0.0,6.4e-05,0.0,0.0,0.0,0.0,0.0,0.0,0.0,0.0,0.0,0.0,0.0,0.0,0.0,0.0,0.0,0.0,0.0,0.0,0.0,0.0,0.0
1668538301385049527,359202,1668538301466301944,enu,1.2283,-2.5305,-0.0084,0.0,0.0,0.0,8.1e-05,0.0,0.0,0.0,0.0,0.0,0.0,8.1e-05,0.0,0.0,0.0,0.0,0.0,0.0,6.4e-05,0.0,0.0,0.0,0.0,0.0,0.0,0.0,0.0,0.0,0.0,0.0,0.0,0.0,0.0,0.0,0.0,0.0,0.0,0.0,0.0,0.0
1668538301395210033,359203,1668538301476404383,enu,1.2351,-2.5413,-0.0073,0.0,0.0,0.0,8.1e-05,0.0,0.0,0.0,0.0,0.0,0.0,8.1e-05,0.0,0.0,0.0,0.0,0.0,0.0,6.4e-05,0.0,0.0,0.0,0.0,0.0,0.0,0.0,0.0,0.0,0.0,0.0,0.0,0.0,0.0,0.0,0.0,0.0,0.0,0.0,0.0,0.0
1668538301404948590,359204,1668538301486280952,enu,1.2406,-2.5524,-0.0064,0.0,0.0,0.0,8.1e-05,0.0,0.0,0.0,0.0,0.0,0.0,8.1e-05,0.0,0.0,0.0,0.0,0.0,0.0,6.4e-05,0.0,0.0,0.0,0.0,0.0,0.0,0.0,0.0,0.0,0.0,0.0,0.0,0.0,0.0,0.0,0.0,0.0,0.0,0.0,0.0,0.0
1668538301415422875,359205,1668538301496331242,enu,1.2472,-2.5641,-0.0062,0.0,0.0,0.0,8.1e-05,0.0,0.0,0.0,0.0,0.0,0.0,8.1e-05,0.0,0.0,0.0,0.0,0.0,0.0,6.4e-05,0.0,0.0,0.0,0.0,0.0,0.0,0.0,0.0,0.0,0.0,0.0,0.0,0.0,0.0,0.0,0.0,0.0,0.0,0.0,0.0,0.0
1668538301425382048,359206,1668538301506315442,enu,1.2529,-2.5756,-0.0056,0.0,0.0,0.0,8.1e-05,0.0,0.0,0.0,0.0,0.0,0.0,8.1e-05,0.0,0.0,0.0,0.0,0.0,0.0,6.4e-05,0.0,0.0,0.0,0.0,0.0,0.0,0.0,0.0,0.0,0.0,0.0,0.0,0.0,0.0,0.0,0.0,0.0,0.0,0.0,0.0,0.0
1668538301435249432,359207,1668538301516369256,enu,1.2598,-2.5865,-0.0055,0.0,0.0,0.0,8.1e-05,0.0,0.0,0.0,0.0,0.0,0.0,8.1e-05,0.0,0.0,0.0,0.0,0.0,0.0,6.4e-05,0.0,0.0,0.0,0.0,0.0,0.0,0.0,0.0,0.0,0.0,0.0,0.0,0.0,0.0,0.0,0.0,0.0,0.0,0.0,0.0,0.0
1668538301445208176,359208,1668538301526380106,enu,1.2652,-2.5981,-0.006,0.0,0.0,0.0,8.1e-05,0.0,0.0,0.0,0.0,0.0,0.0,8.1e-05,0.0,0.0,0.0,0.0,0.0,0.0,6.4e-05,0.0,0.0,0.0,0.0,0.0,0.0,0.0,0.0,0.0,0.0,0.0,0.0,0.0,0.0,0.0,0.0,0.0,0.0,0.0,0.0,0.0
1668538301455337954,359209,1668538301536293892,enu,1.2713,-2.6095,-0.0067,0.0,0.0,0.0,8.1e-05,0.0,0.0,0.0,0.0,0.0,0.0,8.1e-05,0.0,0.0,0.0,0.0,0.0,0.0,6.4e-05,0.0,0.0,0.0,0.0,0.0,0.0,0.0,0.0,0.0,0.0,0.0,0.0,0.0,0.0,0.0,0.0,0.0,0.0,0.0,0.0,0.0
1668538301465238251,359210,1668538301546503554,enu,1.2761,-2.6208,-0.0069,0.0,0.0,0.0,8.1e-05,0.0,0.0,0.0,0.0,0.0,0.0,8.1e-05,0.0,0.0,0.0,0.0,0.0,0.0,6.4e-05,0.0,0.0,0.0,0.0,0.0,0.0,0.0,0.0,0.0,0.0,0.0,0.0,0.0,0.0,0.0,0.0,0.0,0.0,0.0,0.0,0.0
1668538301475226209,359211,1668538301556336165,enu,1.2821,-2.6318,-0.0083,0.0,0.0,0.0,8.1e-05,0.0,0.0,0.0,0.0,0.0,0.0,8.1e-05,0.0,0.0,0.0,0.0,0.0,0.0,6.4e-05,0.0,0.0,0.0,0.0,0.0,0.0,0.0,0.0,0.0,0.0,0.0,0.0,0.0,0.0,0.0,0.0,0.0,0.0,0.0,0.0,0.0
1668538301485173603,359212,1668538301566288573,enu,1.2869,-2.644,-0.0095,0.0,0.0,0.0,8.1e-05,0.0,0.0,0.0,0.0,0.0,0.0,8.1e-05,0.0,0.0,0.0,0.0,0.0,0.0,6.4e-05,0.0,0.0,0.0,0.0,0.0,0.0,0.0,0.0,0.0,0.0,0.0,0.0,0.0,0.0,0.0,0.0,0.0,0.0,0.0,0.0,0.0
1668538301495274894,359213,1668538301576323473,enu,1.2925,-2.6556,-0.011,0.0,0.0,0.0,8.1e-05,0.0,0.0,0.0,0.0,0.0,0.0,8.1e-05,0.0,0.0,0.0,0.0,0.0,0.0,6.4e-05,0.0,0.0,0.0,0.0,0.0,0.0,0.0,0.0,0.0,0.0,0.0,0.0,0.0,0.0,0.0,0.0,0.0,0.0,0.0,0.0,0.0
1668538301505043464,359214,1668538301586294249,enu,1.2967,-2.6671,-0.0116,0.0,0.0,0.0,8.1e-05,0.0,0.0,0.0,0.0,0.0,0.0,8.1e-05,0.0,0.0,0.0,0.0,0.0,0.0,6.4e-05,0.0,0.0,0.0,0.0,0.0,0.0,0.0,0.0,0.0,0.0,0.0,0.0,0.0,0.0,0.0,0.0,0.0,0.0,0.0,0.0,0.0
1668538301514974881,359215,1668538301596285865,enu,1.3023,-2.6778,-0.0132,0.0,0.0,0.0,8.1e-05,0.0,0.0,0.0,0.0,0.0,0.0,8.1e-05,0.0,0.0,0.0,0.0,0.0,0.0,6.4e-05,0.0,0.0,0.0,0.0,0.0,0.0,0.0,0.0,0.0,0.0,0.0,0.0,0.0,0.0,0.0,0.0,0.0,0.0,0.0,0.0,0.0
1668538301525064693,359216,1668538301606347474,enu,1.306,-2.6887,-0.0138,0.0,0.0,0.0,8.1e-05,0.0,0.0,0.0,0.0,0.0,0.0,8.1e-05,0.0,0.0,0.0,0.0,0.0,0.0,6.4e-05,0.0,0.0,0.0,0.0,0.0,0.0,0.0,0.0,0.0,0.0,0.0,0.0,0.0,0.0,0.0,0.0,0.0,0.0,0.0,0.0,0.0
1668538301535057086,359217,1668538301616282449,enu,1.3118,-2.7006,-0.0156,0.0,0.0,0.0,8.1e-05,0.0,0.0,0.0,0.0,0.0,0.0,8.1e-05,0.0,0.0,0.0,0.0,0.0,0.0,6.4e-05,0.0,0.0,0.0,0.0,0.0,0.0,0.0,0.0,0.0,0.0,0.0,0.0,0.0,0.0,0.0,0.0,0.0,0.0,0.0,0.0,0.0
1668538301545427035,359218,1668538301626355059,enu,1.3155,-2.7122,-0.0155,0.0,0.0,0.0,8.1e-05,0.0,0.0,0.0,0.0,0.0,0.0,8.1e-05,0.0,0.0,0.0,0.0,0.0,0.0,6.4e-05,0.0,0.0,0.0,0.0,0.0,0.0,0.0,0.0,0.0,0.0,0.0,0.0,0.0,0.0,0.0,0.0,0.0,0.0,0.0,0.0,0.0
1668538301555300884,359219,1668538301636301547,enu,1.321,-2.7241,-0.0169,0.0,0.0,0.0,8.1e-05,0.0,0.0,0.0,0.0,0.0,0.0,8.1e-05,0.0,0.0,0.0,0.0,0.0,0.0,6.4e-05,0.0,0.0,0.0,0.0,0.0,0.0,0.0,0.0,0.0,0.0,0.0,0.0,0.0,0.0,0.0,0.0,0.0,0.0,0.0,0.0,0.0
1668538301565250046,359220,1668538301646280858,enu,1.324,-2.7351,-0.0169,0.0,0.0,0.0,8.1e-05,0.0,0.0,0.0,0.0,0.0,0.0,8.1e-05,0.0,0.0,0.0,0.0,0.0,0.0,6.4e-05,0.0,0.0,0.0,0.0,0.0,0.0,0.0,0.0,0.0,0.0,0.0,0.0,0.0,0.0,0.0,0.0,0.0,0.0,0.0,0.0,0.0
1668538301575245444,359221,1668538301656354068,enu,1.3295,-2.7453,-0.0193,0.0,0.0,0.0,8.1e-05,0.0,0.0,0.0,0.0,0.0,0.0,8.1e-05,0.0,0.0,0.0,0.0,0.0,0.0,6.4e-05,0.0,0.0,0.0,0.0,0.0,0.0,0.0,0.0,0.0,0.0,0.0,0.0,0.0,0.0,0.0,0.0,0.0,0.0,0.0,0.0,0.0
1668538301585308103,359222,1668538301666371833,enu,1.3324,-2.7572,-0.0197,0.0,0.0,0.0,8.1e-05,0.0,0.0,0.0,0.0,0.0,0.0,8.1e-05,0.0,0.0,0.0,0.0,0.0,0.0,6.4e-05,0.0,0.0,0.0,0.0,0.0,0.0,0.0,0.0,0.0,0.0,0.0,0.0,0.0,0.0,0.0,0.0,0.0,0.0,0.0,0.0,0.0
1668538301595259279,359223,1668538301676274059,enu,1.3388,-2.7675,-0.0223,0.0,0.0,0.0,8.1e-05,0.0,0.0,0.0,0.0,0.0,0.0,8.1e-05,0.0,0.0,0.0,0.0,0.0,0.0,6.4e-05,0.0,0.0,0.0,0.0,0.0,0.0,0.0,0.0,0.0,0.0,0.0,0.0,0.0,0.0,0.0,0.0,0.0,0.0,0.0,0.0,0.0
1668538301605084103,359224,1668538301686283061,enu,1.3417,-2.7789,-0.0225,0.0,0.0,0.0,8.1e-05,0.0,0.0,0.0,0.0,0.0,0.0,8.1e-05,0.0,0.0,0.0,0.0,0.0,0.0,6.4e-05,0.0,0.0,0.0,0.0,0.0,0.0,0.0,0.0,0.0,0.0,0.0,0.0,0.0,0.0,0.0,0.0,0.0,0.0,0.0,0.0,0.0
1668538301615159347,359225,1668538301696347634,enu,1.347,-2.7906,-0.0257,0.0,0.0,0.0,8.1e-05,0.0,0.0,0.0,0.0,0.0,0.0,8.1e-05,0.0,0.0,0.0,0.0,0.0,0.0,6.4e-05,0.0,0.0,0.0,0.0,0.0,0.0,0.0,0.0,0.0,0.0,0.0,0.0,0.0,0.0,0.0,0.0,0.0,0.0,0.0,0.0,0.0
1668538301625162574,359226,1668538301706272989,enu,1.3499,-2.8007,-0.0263,0.0,0.0,0.0,8.1e-05,0.0,0.0,0.0,0.0,0.0,0.0,8.1e-05,0.0,0.0,0.0,0.0,0.0,0.0,6.4e-05,0.0,0.0,0.0,0.0,0.0,0.0,0.0,0.0,0.0,0.0,0.0,0.0,0.0,0.0,0.0,0.0,0.0,0.0,0.0,0.0,0.0
1668538301635159499,359227,1668538301716286731,enu,1.3557,-2.812,-0.0291,0.0,0.0,0.0,8.1e-05,0.0,0.0,0.0,0.0,0.0,0.0,8.1e-05,0.0,0.0,0.0,0.0,0.0,0.0,6.4e-05,0.0,0.0,0.0,0.0,0.0,0.0,0.0,0.0,0.0,0.0,0.0,0.0,0.0,0.0,0.0,0.0,0.0,0.0,0.0,0.0,0.0
1668538301645184871,359228,1668538301726415965,enu,1.3579,-2.8223,-0.0295,0.0,0.0,0.0,8.1e-05,0.0,0.0,0.0,0.0,0.0,0.0,8.1e-05,0.0,0.0,0.0,0.0,0.0,0.0,6.4e-05,0.0,0.0,0.0,0.0,0.0,0.0,0.0,0.0,0.0,0.0,0.0,0.0,0.0,0.0,0.0,0.0,0.0,0.0,0.0,0.0,0.0
1668538301655219282,359229,1668538301736272066,enu,1.364,-2.8321,-0.033,0.0,0.0,0.0,8.1e-05,0.0,0.0,0.0,0.0,0.0,0.0,8.1e-05,0.0,0.0,0.0,0.0,0.0,0.0,6.4e-05,0.0,0.0,0.0,0.0,0.0,0.0,0.0,0.0,0.0,0.0,0.0,0.0,0.0,0.0,0.0,0.0,0.0,0.0,0.0,0.0,0.0
1668538301664979702,359230,1668538301746274530,enu,1.3663,-2.8435,-0.0337,0.0,0.0,0.0,8.1e-05,0.0,0.0,0.0,0.0,0.0,0.0,8.1e-05,0.0,0.0,0.0,0.0,0.0,0.0,6.4e-05,0.0,0.0,0.0,0.0,0.0,0.0,0.0,0.0,0.0,0.0,0.0,0.0,0.0,0.0,0.0,0.0,0.0,0.0,0.0,0.0,0.0
1668538301675407882,359231,1668538301756355516,enu,1.3725,-2.8538,-0.0382,0.0,0.0,0.0,8.1e-05,0.0,0.0,0.0,0.0,0.0,0.0,8.1e-05,0.0,0.0,0.0,0.0,0.0,0.0,6.4e-05,0.0,0.0,0.0,0.0,0.0,0.0,0.0,0.0,0.0,0.0,0.0,0.0,0.0,0.0,0.0,0.0,0.0,0.0,0.0,0.0,0.0
1668538301685350993,359232,1668538301766281036,enu,1.3743,-2.8652,-0.0391,0.0,0.0,0.0,8.1e-05,0.0,0.0,0.0,0.0,0.0,0.0,8.1e-05,0.0,0.0,0.0,0.0,0.0,0.0,6.4e-05,0.0,0.0,0.0,0.0,0.0,0.0,0.0,0.0,0.0,0.0,0.0,0.0,0.0,0.0,0.0,0.0,0.0,0.0,0.0,0.0,0.0
1668538301695141278,359233,1668538301776282783,enu,1.3793,-2.8758,-0.0431,0.0,0.0,0.0,8.1e-05,0.0,0.0,0.0,0.0,0.0,0.0,8.1e-05,0.0,0.0,0.0,0.0,0.0,0.0,6.4e-05,0.0,0.0,0.0,0.0,0.0,0.0,0.0,0.0,0.0,0.0,0.0,0.0,0.0,0.0,0.0,0.0,0.0,0.0,0.0,0.0,0.0
1668538301705411567,359234,1668538301786339312,enu,1.3807,-2.8861,-0.043,0.0,0.0,0.0,8.1e-05,0.0,0.0,0.0,0.0,0.0,0.0,8.1e-05,0.0,0.0,0.0,0.0,0.0,0.0,6.4e-05,0.0,0.0,0.0,0.0,0.0,0.0,0.0,0.0,0.0,0.0,0.0,0.0,0.0,0.0,0.0,0.0,0.0,0.0,0.0,0.0,0.0
1668538301715269260,359235,1668538301796457853,enu,1.3849,-2.897,-0.0458,0.0,0.0,0.0,8.1e-05,0.0,0.0,0.0,0.0,0.0,0.0,8.1e-05,0.0,0.0,0.0,0.0,0.0,0.0,6.4e-05,0.0,0.0,0.0,0.0,0.0,0.0,0.0,0.0,0.0,0.0,0.0,0.0,0.0,0.0,0.0,0.0,0.0,0.0,0.0,0.0,0.0
1668538301725305675,359236,1668538301806290483,enu,1.3865,-2.9076,-0.0448,0.0,0.0,0.0,8.1e-05,0.0,0.0,0.0,0.0,0.0,0.0,8.1e-05,0.0,0.0,0.0,0.0,0.0,0.0,6.4e-05,0.0,0.0,0.0,0.0,0.0,0.0,0.0,0.0,0.0,0.0,0.0,0.0,0.0,0.0,0.0,0.0,0.0,0.0,0.0,0.0,0.0
1668538301735260920,359237,1668538301816350555,enu,1.39,-2.9184,-0.0464,0.0,0.0,0.0,8.1e-05,0.0,0.0,0.0,0.0,0.0,0.0,8.1e-05,0.0,0.0,0.0,0.0,0.0,0.0,6.4e-05,0.0,0.0,0.0,0.0,0.0,0.0,0.0,0.0,0.0,0.0,0.0,0.0,0.0,0.0,0.0,0.0,0.0,0.0,0.0,0.0,0.0
1668538301745151215,359238,1668538301826274063,enu,1.3911,-2.9301,-0.0447,0.0,0.0,0.0,8.1e-05,0.0,0.0,0.0,0.0,0.0,0.0,8.1e-05,0.0,0.0,0.0,0.0,0.0,0.0,6.4e-05,0.0,0.0,0.0,0.0,0.0,0.0,0.0,0.0,0.0,0.0,0.0,0.0,0.0,0.0,0.0,0.0,0.0,0.0,0.0,0.0,0.0
1668538301755171208,359239,1668538301836281219,enu,1.3941,-2.9405,-0.0449,0.0,0.0,0.0,8.1e-05,0.0,0.0,0.0,0.0,0.0,0.0,8.1e-05,0.0,0.0,0.0,0.0,0.0,0.0,6.4e-05,0.0,0.0,0.0,0.0,0.0,0.0,0.0,0.0,0.0,0.0,0.0,0.0,0.0,0.0,0.0,0.0,0.0,0.0,0.0,0.0,0.0
1668538301765257186,359240,1668538301846343494,enu,1.3946,-2.9517,-0.0419,0.0,0.0,0.0,8.1e-05,0.0,0.0,0.0,0.0,0.0,0.0,8.1e-05,0.0,0.0,0.0,0.0,0.0,0.0,6.4e-05,0.0,0.0,0.0,0.0,0.0,0.0,0.0,0.0,0.0,0.0,0.0,0.0,0.0,0.0,0.0,0.0,0.0,0.0,0.0,0.0,0.0
1668538301775233769,359241,1668538301856270879,enu,1.3973,-2.9632,-0.0411,0.0,0.0,0.0,8.1e-05,0.0,0.0,0.0,0.0,0.0,0.0,8.1e-05,0.0,0.0,0.0,0.0,0.0,0.0,6.4e-05,0.0,0.0,0.0,0.0,0.0,0.0,0.0,0.0,0.0,0.0,0.0,0.0,0.0,0.0,0.0,0.0,0.0,0.0,0.0,0.0,0.0
1668538301785194543,359242,1668538301866280741,enu,1.3976,-2.9737,-0.038,0.0,0.0,0.0,8.1e-05,0.0,0.0,0.0,0.0,0.0,0.0,8.1e-05,0.0,0.0,0.0,0.0,0.0,0.0,6.4e-05,0.0,0.0,0.0,0.0,0.0,0.0,0.0,0.0,0.0,0.0,0.0,0.0,0.0,0.0,0.0,0.0,0.0,0.0,0.0,0.0,0.0
1668538301795358641,359243,1668538301876352694,enu,1.401,-2.9847,-0.0366,0.0,0.0,0.0,8.1e-05,0.0,0.0,0.0,0.0,0.0,0.0,8.1e-05,0.0,0.0,0.0,0.0,0.0,0.0,6.4e-05,0.0,0.0,0.0,0.0,0.0,0.0,0.0,0.0,0.0,0.0,0.0,0.0,0.0,0.0,0.0,0.0,0.0,0.0,0.0,0.0,0.0
1668538301804999667,359244,1668538301886262717,enu,1.4018,-2.9951,-0.0337,0.0,0.0,0.0,8.1e-05,0.0,0.0,0.0,0.0,0.0,0.0,8.1e-05,0.0,0.0,0.0,0.0,0.0,0.0,6.4e-05,0.0,0.0,0.0,0.0,0.0,0.0,0.0,0.0,0.0,0.0,0.0,0.0,0.0,0.0,0.0,0.0,0.0,0.0,0.0,0.0,0.0
1668538301814927065,359245,1668538301896280271,enu,1.4059,-3.0061,-0.0327,0.0,0.0,0.0,8.1e-05,0.0,0.0,0.0,0.0,0.0,0.0,8.1e-05,0.0,0.0,0.0,0.0,0.0,0.0,6.4e-05,0.0,0.0,0.0,0.0,0.0,0.0,0.0,0.0,0.0,0.0,0.0,0.0,0.0,0.0,0.0,0.0,0.0,0.0,0.0,0.0,0.0
1668538301825392432,359246,1668538301906339752,enu,1.4079,-3.0164,-0.0304,0.0,0.0,0.0,8.1e-05,0.0,0.0,0.0,0.0,0.0,0.0,8.1e-05,0.0,0.0,0.0,0.0,0.0,0.0,6.4e-05,0.0,0.0,0.0,0.0,0.0,0.0,0.0,0.0,0.0,0.0,0.0,0.0,0.0,0.0,0.0,0.0,0.0,0.0,0.0,0.0,0.0
1668538301834923112,359247,1668538301916273290,enu,1.4127,-3.0265,-0.0302,0.0,0.0,0.0,8.1e-05,0.0,0.0,0.0,0.0,0.0,0.0,8.1e-05,0.0,0.0,0.0,0.0,0.0,0.0,6.4e-05,0.0,0.0,0.0,0.0,0.0,0.0,0.0,0.0,0.0,0.0,0.0,0.0,0.0,0.0,0.0,0.0,0.0,0.0,0.0,0.0,0.0
1668538301845322762,359248,1668538301926278054,enu,1.4153,-3.0362,-0.0281,0.0,0.0,0.0,8.1e-05,0.0,0.0,0.0,0.0,0.0,0.0,8.1e-05,0.0,0.0,0.0,0.0,0.0,0.0,6.4e-05,0.0,0.0,0.0,0.0,0.0,0.0,0.0,0.0,0.0,0.0,0.0,0.0,0.0,0.0,0.0,0.0,0.0,0.0,0.0,0.0,0.0
1668538301855185793,359249,1668538301936333944,enu,1.4197,-3.0451,-0.0278,0.0,0.0,0.0,8.1e-05,0.0,0.0,0.0,0.0,0.0,0.0,8.1e-05,0.0,0.0,0.0,0.0,0.0,0.0,6.4e-05,0.0,0.0,0.0,0.0,0.0,0.0,0.0,0.0,0.0,0.0,0.0,0.0,0.0,0.0,0.0,0.0,0.0,0.0,0.0,0.0,0.0
1668538301865293034,359250,1668538301946274528,enu,1.4221,-3.0542,-0.026,0.0,0.0,0.0,8.1e-05,0.0,0.0,0.0,0.0,0.0,0.0,8.1e-05,0.0,0.0,0.0,0.0,0.0,0.0,6.4e-05,0.0,0.0,0.0,0.0,0.0,0.0,0.0,0.0,0.0,0.0,0.0,0.0,0.0,0.0,0.0,0.0,0.0,0.0,0.0,0.0,0.0
1668538301875141218,359251,1668538301956272770,enu,1.4277,-3.0634,-0.0261,0.0,0.0,0.0,8.1e-05,0.0,0.0,0.0,0.0,0.0,0.0,8.1e-05,0.0,0.0,0.0,0.0,0.0,0.0,6.4e-05,0.0,0.0,0.0,0.0,0.0,0.0,0.0,0.0,0.0,0.0,0.0,0.0,0.0,0.0,0.0,0.0,0.0,0.0,0.0,0.0,0.0
1668538301885227204,359252,1668538301966345849,enu,1.4312,-3.0721,-0.0239,0.0,0.0,0.0,8.1e-05,0.0,0.0,0.0,0.0,0.0,0.0,8.1e-05,0.0,0.0,0.0,0.0,0.0,0.0,6.4e-05,0.0,0.0,0.0,0.0,0.0,0.0,0.0,0.0,0.0,0.0,0.0,0.0,0.0,0.0,0.0,0.0,0.0,0.0,0.0,0.0,0.0
1668538301895277685,359253,1668538301976355200,enu,1.4373,-3.0818,-0.0243,0.0,0.0,0.0,8.1e-05,0.0,0.0,0.0,0.0,0.0,0.0,8.1e-05,0.0,0.0,0.0,0.0,0.0,0.0,6.4e-05,0.0,0.0,0.0,0.0,0.0,0.0,0.0,0.0,0.0,0.0,0.0,0.0,0.0,0.0,0.0,0.0,0.0,0.0,0.0,0.0,0.0
1668538301905110035,359254,1668538301986258923,enu,1.4403,-3.0902,-0.0238,0.0,0.0,0.0,8.1e-05,0.0,0.0,0.0,0.0,0.0,0.0,8.1e-05,0.0,0.0,0.0,0.0,0.0,0.0,6.4e-05,0.0,0.0,0.0,0.0,0.0,0.0,0.0,0.0,0.0,0.0,0.0,0.0,0.0,0.0,0.0,0.0,0.0,0.0,0.0,0.0,0.0
1668538301915290817,359255,1668538301996381032,enu,1.4458,-3.0992,-0.0252,0.0,0.0,0.0,8.1e-05,0.0,0.0,0.0,0.0,0.0,0.0,8.1e-05,0.0,0.0,0.0,0.0,0.0,0.0,6.4e-05,0.0,0.0,0.0,0.0,0.0,0.0,0.0,0.0,0.0,0.0,0.0,0.0,0.0,0.0,0.0,0.0,0.0,0.0,0.0,0.0,0.0
1668538301925133818,359256,1668538302006353320,enu,1.4483,-3.1075,-0.025,0.0,0.0,0.0,8.1e-05,0.0,0.0,0.0,0.0,0.0,0.0,8.1e-05,0.0,0.0,0.0,0.0,0.0,0.0,6.4e-05,0.0,0.0,0.0,0.0,0.0,0.0,0.0,0.0,0.0,0.0,0.0,0.0,0.0,0.0,0.0,0.0,0.0,0.0,0.0,0.0,0.0
1668538301935170266,359257,1668538302016289237,enu,1.4524,-3.1166,-0.0264,0.0,0.0,0.0,8.1e-05,0.0,0.0,0.0,0.0,0.0,0.0,8.1e-05,0.0,0.0,0.0,0.0,0.0,0.0,6.4e-05,0.0,0.0,0.0,0.0,0.0,0.0,0.0,0.0,0.0,0.0,0.0,0.0,0.0,0.0,0.0,0.0,0.0,0.0,0.0,0.0,0.0
1668538301944995677,359258,1668538302026396264,enu,1.4545,-3.1253,-0.0254,0.0,0.0,0.0,8.1e-05,0.0,0.0,0.0,0.0,0.0,0.0,8.1e-05,0.0,0.0,0.0,0.0,0.0,0.0,6.4e-05,0.0,0.0,0.0,0.0,0.0,0.0,0.0,0.0,0.0,0.0,0.0,0.0,0.0,0.0,0.0,0.0,0.0,0.0,0.0,0.0,0.0
1668538301954947685,359259,1668538302036350060,enu,1.4578,-3.1338,-0.0269,0.0,0.0,0.0,8.1e-05,0.0,0.0,0.0,0.0,0.0,0.0,8.1e-05,0.0,0.0,0.0,0.0,0.0,0.0,6.4e-05,0.0,0.0,0.0,0.0,0.0,0.0,0.0,0.0,0.0,0.0,0.0,0.0,0.0,0.0,0.0,0.0,0.0,0.0,0.0,0.0,0.0
1668538301965321548,359260,1668538302046373116,enu,1.4595,-3.1419,-0.0261,0.0,0.0,0.0,8.1e-05,0.0,0.0,0.0,0.0,0.0,0.0,8.1e-05,0.0,0.0,0.0,0.0,0.0,0.0,6.4e-05,0.0,0.0,0.0,0.0,0.0,0.0,0.0,0.0,0.0,0.0,0.0,0.0,0.0,0.0,0.0,0.0,0.0,0.0,0.0,0.0,0.0
1668538301975398603,359261,1668538302056382517,enu,1.4624,-3.1516,-0.0268,0.0,0.0,0.0,8.1e-05,0.0,0.0,0.0,0.0,0.0,0.0,8.1e-05,0.0,0.0,0.0,0.0,0.0,0.0,6.4e-05,0.0,0.0,0.0,0.0,0.0,0.0,0.0,0.0,0.0,0.0,0.0,0.0,0.0,0.0,0.0,0.0,0.0,0.0,0.0,0.0,0.0
1668538301985369523,359262,1668538302066360722,enu,1.4643,-3.1603,-0.0258,0.0,0.0,0.0,8.1e-05,0.0,0.0,0.0,0.0,0.0,0.0,8.1e-05,0.0,0.0,0.0,0.0,0.0,0.0,6.4e-05,0.0,0.0,0.0,0.0,0.0,0.0,0.0,0.0,0.0,0.0,0.0,0.0,0.0,0.0,0.0,0.0,0.0,0.0,0.0,0.0,0.0
1668538301995399465,359263,1668538302076283089,enu,1.4665,-3.1694,-0.0267,0.0,0.0,0.0,8.1e-05,0.0,0.0,0.0,0.0,0.0,0.0,8.1e-05,0.0,0.0,0.0,0.0,0.0,0.0,6.4e-05,0.0,0.0,0.0,0.0,0.0,0.0,0.0,0.0,0.0,0.0,0.0,0.0,0.0,0.0,0.0,0.0,0.0,0.0,0.0,0.0,0.0
1668538302005224829,359264,1668538302086397551,enu,1.4664,-3.1782,-0.0245,0.0,0.0,0.0,8.1e-05,0.0,0.0,0.0,0.0,0.0,0.0,8.1e-05,0.0,0.0,0.0,0.0,0.0,0.0,6.4e-05,0.0,0.0,0.0,0.0,0.0,0.0,0.0,0.0,0.0,0.0,0.0,0.0,0.0,0.0,0.0,0.0,0.0,0.0,0.0,0.0,0.0
1668538302015222433,359265,1668538302096347215,enu,1.4691,-3.1866,-0.0238,0.0,0.0,0.0,8.1e-05,0.0,0.0,0.0,0.0,0.0,0.0,8.1e-05,0.0,0.0,0.0,0.0,0.0,0.0,6.4e-05,0.0,0.0,0.0,0.0,0.0,0.0,0.0,0.0,0.0,0.0,0.0,0.0,0.0,0.0,0.0,0.0,0.0,0.0,0.0,0.0,0.0
1668538302025144522,359266,1668538302106288231,enu,1.4685,-3.1959,-0.0218,0.0,0.0,0.0,8.1e-05,0.0,0.0,0.0,0.0,0.0,0.0,8.1e-05,0.0,0.0,0.0,0.0,0.0,0.0,6.4e-05,0.0,0.0,0.0,0.0,0.0,0.0,0.0,0.0,0.0,0.0,0.0,0.0,0.0,0.0,0.0,0.0,0.0,0.0,0.0,0.0,0.0
1668538302035130265,359267,1668538302116370495,enu,1.472,-3.2054,-0.0214,0.0,0.0,0.0,8.1e-05,0.0,0.0,0.0,0.0,0.0,0.0,8.1e-05,0.0,0.0,0.0,0.0,0.0,0.0,6.4e-05,0.0,0.0,0.0,0.0,0.0,0.0,0.0,0.0,0.0,0.0,0.0,0.0,0.0,0.0,0.0,0.0,0.0,0.0,0.0,0.0,0.0
1668538302045291559,359268,1668538302126365562,enu,1.4717,-3.2146,-0.0184,0.0,0.0,0.0,8.1e-05,0.0,0.0,0.0,0.0,0.0,0.0,8.1e-05,0.0,0.0,0.0,0.0,0.0,0.0,6.4e-05,0.0,0.0,0.0,0.0,0.0,0.0,0.0,0.0,0.0,0.0,0.0,0.0,0.0,0.0,0.0,0.0,0.0,0.0,0.0,0.0,0.0
1668538302055084320,359269,1668538302136283487,enu,1.474,-3.2246,-0.0178,0.0,0.0,0.0,8.1e-05,0.0,0.0,0.0,0.0,0.0,0.0,8.1e-05,0.0,0.0,0.0,0.0,0.0,0.0,6.4e-05,0.0,0.0,0.0,0.0,0.0,0.0,0.0,0.0,0.0,0.0,0.0,0.0,0.0,0.0,0.0,0.0,0.0,0.0,0.0,0.0,0.0
1668538302065103634,359270,1668538302146362803,enu,1.474,-3.2337,-0.0158,0.0,0.0,0.0,8.1e-05,0.0,0.0,0.0,0.0,0.0,0.0,8.1e-05,0.0,0.0,0.0,0.0,0.0,0.0,6.4e-05,0.0,0.0,0.0,0.0,0.0,0.0,0.0,0.0,0.0,0.0,0.0,0.0,0.0,0.0,0.0,0.0,0.0,0.0,0.0,0.0,0.0
1668538302075076043,359271,1668538302156333671,enu,1.4764,-3.2423,-0.0143,0.0,0.0,0.0,8.1e-05,0.0,0.0,0.0,0.0,0.0,0.0,8.1e-05,0.0,0.0,0.0,0.0,0.0,0.0,6.4e-05,0.0,0.0,0.0,0.0,0.0,0.0,0.0,0.0,0.0,0.0,0.0,0.0,0.0,0.0,0.0,0.0,0.0,0.0,0.0,0.0,0.0
1668538302085071598,359272,1668538302166271050,enu,1.4765,-3.251,-0.0112,0.0,0.0,0.0,8.1e-05,0.0,0.0,0.0,0.0,0.0,0.0,8.1e-05,0.0,0.0,0.0,0.0,0.0,0.0,6.4e-05,0.0,0.0,0.0,0.0,0.0,0.0,0.0,0.0,0.0,0.0,0.0,0.0,0.0,0.0,0.0,0.0,0.0,0.0,0.0,0.0,0.0
1668538302095202829,359273,1668538302176386442,enu,1.4783,-3.2598,-0.0102,0.0,0.0,0.0,8.1e-05,0.0,0.0,0.0,0.0,0.0,0.0,8.1e-05,0.0,0.0,0.0,0.0,0.0,0.0,6.4e-05,0.0,0.0,0.0,0.0,0.0,0.0,0.0,0.0,0.0,0.0,0.0,0.0,0.0,0.0,0.0,0.0,0.0,0.0,0.0,0.0,0.0
1668538302105416769,359274,1668538302186368786,enu,1.4779,-3.2693,-0.008,0.0,0.0,0.0,8.1e-05,0.0,0.0,0.0,0.0,0.0,0.0,8.1e-05,0.0,0.0,0.0,0.0,0.0,0.0,6.4e-05,0.0,0.0,0.0,0.0,0.0,0.0,0.0,0.0,0.0,0.0,0.0,0.0,0.0,0.0,0.0,0.0,0.0,0.0,0.0,0.0,0.0
1668538302115436282,359275,1668538302196298084,enu,1.4808,-3.2782,-0.0078,0.0,0.0,0.0,8.1e-05,0.0,0.0,0.0,0.0,0.0,0.0,8.1e-05,0.0,0.0,0.0,0.0,0.0,0.0,6.4e-05,0.0,0.0,0.0,0.0,0.0,0.0,0.0,0.0,0.0,0.0,0.0,0.0,0.0,0.0,0.0,0.0,0.0,0.0,0.0,0.0,0.0
1668538302125406273,359276,1668538302206351824,enu,1.4809,-3.2867,-0.0056,0.0,0.0,0.0,8.1e-05,0.0,0.0,0.0,0.0,0.0,0.0,8.1e-05,0.0,0.0,0.0,0.0,0.0,0.0,6.4e-05,0.0,0.0,0.0,0.0,0.0,0.0,0.0,0.0,0.0,0.0,0.0,0.0,0.0,0.0,0.0,0.0,0.0,0.0,0.0,0.0,0.0
1668538302135349723,359277,1668538302216278457,enu,1.4839,-3.2952,-0.0064,0.0,0.0,0.0,0.000121,0.0,0.0,0.0,0.0,0.0,0.0,8.1e-05,0.0,0.0,0.0,0.0,0.0,0.0,4.9e-05,0.0,0.0,0.0,0.0,0.0,0.0,0.0,0.0,0.0,0.0,0.0,0.0,0.0,0.0,0.0,0.0,0.0,0.0,0.0,0.0,0.0
1668538302145254239,359278,1668538302226363358,enu,1.4835,-3.3032,-0.0053,0.0,0.0,0.0,0.000121,0.0,0.0,0.0,0.0,0.0,0.0,8.1e-05,0.0,0.0,0.0,0.0,0.0,0.0,4.9e-05,0.0,0.0,0.0,0.0,0.0,0.0,0.0,0.0,0.0,0.0,0.0,0.0,0.0,0.0,0.0,0.0,0.0,0.0,0.0,0.0,0.0
1668538302155145104,359279,1668538302236326873,enu,1.4864,-3.3113,-0.0056,0.0,0.0,0.0,0.000121,0.0,0.0,0.0,0.0,0.0,0.0,8.1e-05,0.0,0.0,0.0,0.0,0.0,0.0,4.9e-05,0.0,0.0,0.0,0.0,0.0,0.0,0.0,0.0,0.0,0.0,0.0,0.0,0.0,0.0,0.0,0.0,0.0,0.0,0.0,0.0,0.0
1668538302165086053,359280,1668538302246272460,enu,1.4869,-3.3193,-0.0045,0.0,0.0,0.0,0.000121,0.0,0.0,0.0,0.0,0.0,0.0,8.1e-05,0.0,0.0,0.0,0.0,0.0,0.0,4.9e-05,0.0,0.0,0.0,0.0,0.0,0.0,0.0,0.0,0.0,0.0,0.0,0.0,0.0,0.0,0.0,0.0,0.0,0.0,0.0,0.0,0.0
1668538302175159652,359281,1668538302256300621,enu,1.4898,-3.3277,-0.0057,0.0,0.0,0.0,0.000121,0.0,0.0,0.0,0.0,0.0,0.0,8.1e-05,0.0,0.0,0.0,0.0,0.0,0.0,4.9e-05,0.0,0.0,0.0,0.0,0.0,0.0,0.0,0.0,0.0,0.0,0.0,0.0,0.0,0.0,0.0,0.0,0.0,0.0,0.0,0.0,0.0
1668538302185222957,359282,1668538302266336217,enu,1.4907,-3.3359,-0.0035,0.0,0.0,0.0,0.000121,0.0,0.0,0.0,0.0,0.0,0.0,8.1e-05,0.0,0.0,0.0,0.0,0.0,0.0,4.9e-05,0.0,0.0,0.0,0.0,0.0,0.0,0.0,0.0,0.0,0.0,0.0,0.0,0.0,0.0,0.0,0.0,0.0,0.0,0.0,0.0,0.0
1668538302195098133,359283,1668538302276258383,enu,1.4937,-3.344,-0.0042,0.0,0.0,0.0,0.000121,0.0,0.0,0.0,0.0,0.0,0.0,8.1e-05,0.0,0.0,0.0,0.0,0.0,0.0,4.9e-05,0.0,0.0,0.0,0.0,0.0,0.0,0.0,0.0,0.0,0.0,0.0,0.0,0.0,0.0,0.0,0.0,0.0,0.0,0.0,0.0,0.0
1668538302205138208,359284,1668538302286271830,enu,1.494,-3.3508,-0.0031,0.0,0.0,0.0,0.000121,0.0,0.0,0.0,0.0,0.0,0.0,8.1e-05,0.0,0.0,0.0,0.0,0.0,0.0,4.9e-05,0.0,0.0,0.0,0.0,0.0,0.0,0.0,0.0,0.0,0.0,0.0,0.0,0.0,0.0,0.0,0.0,0.0,0.0,0.0,0.0,0.0
1668538302215084450,359285,1668538302296426715,enu,1.4969,-3.3585,-0.0039,0.0,0.0,0.0,0.000121,0.0,0.0,0.0,0.0,0.0,0.0,8.1e-05,0.0,0.0,0.0,0.0,0.0,0.0,4.9e-05,0.0,0.0,0.0,0.0,0.0,0.0,0.0,0.0,0.0,0.0,0.0,0.0,0.0,0.0,0.0,0.0,0.0,0.0,0.0,0.0,0.0
1668538302225026325,359286,1668538302306262449,enu,1.4976,-3.3661,-0.0029,0.0,0.0,0.0,0.000121,0.0,0.0,0.0,0.0,0.0,0.0,8.1e-05,0.0,0.0,0.0,0.0,0.0,0.0,4.9e-05,0.0,0.0,0.0,0.0,0.0,0.0,0.0,0.0,0.0,0.0,0.0,0.0,0.0,0.0,0.0,0.0,0.0,0.0,0.0,0.0,0.0
1668538302235166934,359287,1668538302316286973,enu,1.5011,-3.3745,-0.0051,0.0,0.0,0.0,0.000121,0.0,0.0,0.0,0.0,0.0,0.0,8.1e-05,0.0,0.0,0.0,0.0,0.0,0.0,4.9e-05,0.0,0.0,0.0,0.0,0.0,0.0,0.0,0.0,0.0,0.0,0.0,0.0,0.0,0.0,0.0,0.0,0.0,0.0,0.0,0.0,0.0
1668538302245598595,359288,1668538302326335466,enu,1.5021,-3.3824,-0.0054,0.0,0.0,0.0,0.000121,0.0,0.0,0.0,0.0,0.0,0.0,8.1e-05,0.0,0.0,0.0,0.0,0.0,0.0,4.9e-05,0.0,0.0,0.0,0.0,0.0,0.0,0.0,0.0,0.0,0.0,0.0,0.0,0.0,0.0,0.0,0.0,0.0,0.0,0.0,0.0,0.0
1668538302255070206,359289,1668538302336278987,enu,1.5058,-3.3896,-0.007,0.0,0.0,0.0,0.000121,0.0,0.0,0.0,0.0,0.0,0.0,8.1e-05,0.0,0.0,0.0,0.0,0.0,0.0,4.9e-05,0.0,0.0,0.0,0.0,0.0,0.0,0.0,0.0,0.0,0.0,0.0,0.0,0.0,0.0,0.0,0.0,0.0,0.0,0.0,0.0,0.0
1668538302265248673,359290,1668538302346275755,enu,1.5074,-3.3963,-0.0063,0.0,0.0,0.0,0.000121,0.0,0.0,0.0,0.0,0.0,0.0,8.1e-05,0.0,0.0,0.0,0.0,0.0,0.0,4.9e-05,0.0,0.0,0.0,0.0,0.0,0.0,0.0,0.0,0.0,0.0,0.0,0.0,0.0,0.0,0.0,0.0,0.0,0.0,0.0,0.0,0.0
1668538302275427691,359291,1668538302356344176,enu,1.5108,-3.4034,-0.0077,0.0,0.0,0.0,0.000121,0.0,0.0,0.0,0.0,0.0,0.0,8.1e-05,0.0,0.0,0.0,0.0,0.0,0.0,4.9e-05,0.0,0.0,0.0,0.0,0.0,0.0,0.0,0.0,0.0,0.0,0.0,0.0,0.0,0.0,0.0,0.0,0.0,0.0,0.0,0.0,0.0
1668538302285337078,359292,1668538302366272138,enu,1.5121,-3.4106,-0.0074,0.0,0.0,0.0,0.000121,0.0,0.0,0.0,0.0,0.0,0.0,8.1e-05,0.0,0.0,0.0,0.0,0.0,0.0,4.9e-05,0.0,0.0,0.0,0.0,0.0,0.0,0.0,0.0,0.0,0.0,0.0,0.0,0.0,0.0,0.0,0.0,0.0,0.0,0.0,0.0,0.0
1668538302295338962,359293,1668538302376345861,enu,1.516,-3.4175,-0.0086,0.0,0.0,0.0,0.000121,0.0,0.0,0.0,0.0,0.0,0.0,8.1e-05,0.0,0.0,0.0,0.0,0.0,0.0,4.9e-05,0.0,0.0,0.0,0.0,0.0,0.0,0.0,0.0,0.0,0.0,0.0,0.0,0.0,0.0,0.0,0.0,0.0,0.0,0.0,0.0,0.0
1668538302305214656,359294,1668538302386274679,enu,1.5165,-3.4247,-0.0091,0.0,0.0,0.0,0.000121,0.0,0.0,0.0,0.0,0.0,0.0,8.1e-05,0.0,0.0,0.0,0.0,0.0,0.0,4.9e-05,0.0,0.0,0.0,0.0,0.0,0.0,0.0,0.0,0.0,0.0,0.0,0.0,0.0,0.0,0.0,0.0,0.0,0.0,0.0,0.0,0.0
1668538302315089859,359295,1668538302396269405,enu,1.5196,-3.4322,-0.0107,0.0,0.0,0.0,0.000121,0.0,0.0,0.0,0.0,0.0,0.0,8.1e-05,0.0,0.0,0.0,0.0,0.0,0.0,4.9e-05,0.0,0.0,0.0,0.0,0.0,0.0,0.0,0.0,0.0,0.0,0.0,0.0,0.0,0.0,0.0,0.0,0.0,0.0,0.0,0.0,0.0
1668538302325179273,359296,1668538302406277872,enu,1.5199,-3.4391,-0.0119,0.0,0.0,0.0,0.000121,0.0,0.0,0.0,0.0,0.0,0.0,8.1e-05,0.0,0.0,0.0,0.0,0.0,0.0,4.9e-05,0.0,0.0,0.0,0.0,0.0,0.0,0.0,0.0,0.0,0.0,0.0,0.0,0.0,0.0,0.0,0.0,0.0,0.0,0.0,0.0,0.0
1668538302335224362,359297,1668538302416321273,enu,1.5213,-3.4476,-0.0135,0.0,0.0,0.0,0.000121,0.0,0.0,0.0,0.0,0.0,0.0,8.1e-05,0.0,0.0,0.0,0.0,0.0,0.0,4.9e-05,0.0,0.0,0.0,0.0,0.0,0.0,0.0,0.0,0.0,0.0,0.0,0.0,0.0,0.0,0.0,0.0,0.0,0.0,0.0,0.0,0.0
1668538302345169490,359298,1668538302426258010,enu,1.5207,-3.456,-0.0142,0.0,0.0,0.0,0.000121,0.0,0.0,0.0,0.0,0.0,0.0,8.1e-05,0.0,0.0,0.0,0.0,0.0,0.0,4.9e-05,0.0,0.0,0.0,0.0,0.0,0.0,0.0,0.0,0.0,0.0,0.0,0.0,0.0,0.0,0.0,0.0,0.0,0.0,0.0,0.0,0.0
1668538302355342016,359299,1668538302436262257,enu,1.5218,-3.4648,-0.0159,0.0,0.0,0.0,0.000121,0.0,0.0,0.0,0.0,0.0,0.0,8.1e-05,0.0,0.0,0.0,0.0,0.0,0.0,4.9e-05,0.0,0.0,0.0,0.0,0.0,0.0,0.0,0.0,0.0,0.0,0.0,0.0,0.0,0.0,0.0,0.0,0.0,0.0,0.0,0.0,0.0
1668538302365027567,359300,1668538302446381965,enu,1.5202,-3.4734,-0.0168,0.0,0.0,0.0,0.000121,0.0,0.0,0.0,0.0,0.0,0.0,8.1e-05,0.0,0.0,0.0,0.0,0.0,0.0,4.9e-05,0.0,0.0,0.0,0.0,0.0,0.0,0.0,0.0,0.0,0.0,0.0,0.0,0.0,0.0,0.0,0.0,0.0,0.0,0.0,0.0,0.0
1668538302375124556,359301,1668538302456300695,enu,1.5213,-3.4826,-0.0182,0.0,0.0,0.0,0.000121,0.0,0.0,0.0,0.0,0.0,0.0,8.1e-05,0.0,0.0,0.0,0.0,0.0,0.0,4.9e-05,0.0,0.0,0.0,0.0,0.0,0.0,0.0,0.0,0.0,0.0,0.0,0.0,0.0,0.0,0.0,0.0,0.0,0.0,0.0,0.0,0.0
1668538302385015753,359302,1668538302466274842,enu,1.5197,-3.4921,-0.0196,0.0,0.0,0.0,0.000121,0.0,0.0,0.0,0.0,0.0,0.0,8.1e-05,0.0,0.0,0.0,0.0,0.0,0.0,4.9e-05,0.0,0.0,0.0,0.0,0.0,0.0,0.0,0.0,0.0,0.0,0.0,0.0,0.0,0.0,0.0,0.0,0.0,0.0,0.0,0.0,0.0
1668538302395161019,359303,1668538302476417597,enu,1.5195,-3.5013,-0.0218,0.0,0.0,0.0,0.000121,0.0,0.0,0.0,0.0,0.0,0.0,8.1e-05,0.0,0.0,0.0,0.0,0.0,0.0,4.9e-05,0.0,0.0,0.0,0.0,0.0,0.0,0.0,0.0,0.0,0.0,0.0,0.0,0.0,0.0,0.0,0.0,0.0,0.0,0.0,0.0,0.0
1668538302405241311,359304,1668538302486260434,enu,1.5176,-3.5105,-0.0231,0.0,0.0,0.0,0.000121,0.0,0.0,0.0,0.0,0.0,0.0,8.1e-05,0.0,0.0,0.0,0.0,0.0,0.0,4.9e-05,0.0,0.0,0.0,0.0,0.0,0.0,0.0,0.0,0.0,0.0,0.0,0.0,0.0,0.0,0.0,0.0,0.0,0.0,0.0,0.0,0.0
1668538302415371984,359305,1668538302496412712,enu,1.5165,-3.5197,-0.0243,0.0,0.0,0.0,0.000121,0.0,0.0,0.0,0.0,0.0,0.0,8.1e-05,0.0,0.0,0.0,0.0,0.0,0.0,4.9e-05,0.0,0.0,0.0,0.0,0.0,0.0,0.0,0.0,0.0,0.0,0.0,0.0,0.0,0.0,0.0,0.0,0.0,0.0,0.0,0.0,0.0
1668538302425171789,359306,1668538302506297216,enu,1.5146,-3.5286,-0.0257,0.0,0.0,0.0,0.000121,0.0,0.0,0.0,0.0,0.0,0.0,8.1e-05,0.0,0.0,0.0,0.0,0.0,0.0,4.9e-05,0.0,0.0,0.0,0.0,0.0,0.0,0.0,0.0,0.0,0.0,0.0,0.0,0.0,0.0,0.0,0.0,0.0,0.0,0.0,0.0,0.0
1668538302435215965,359307,1668538302516326512,enu,1.5137,-3.5377,-0.0267,0.0,0.0,0.0,0.000121,0.0,0.0,0.0,0.0,0.0,0.0,8.1e-05,0.0,0.0,0.0,0.0,0.0,0.0,4.9e-05,0.0,0.0,0.0,0.0,0.0,0.0,0.0,0.0,0.0,0.0,0.0,0.0,0.0,0.0,0.0,0.0,0.0,0.0,0.0,0.0,0.0
1668538302445332732,359308,1668538302526404299,enu,1.511,-3.5477,-0.0281,0.0,0.0,0.0,0.000121,0.0,0.0,0.0,0.0,0.0,0.0,8.1e-05,0.0,0.0,0.0,0.0,0.0,0.0,4.9e-05,0.0,0.0,0.0,0.0,0.0,0.0,0.0,0.0,0.0,0.0,0.0,0.0,0.0,0.0,0.0,0.0,0.0,0.0,0.0,0.0,0.0
1668538302455216155,359309,1668538302536276590,enu,1.5103,-3.5563,-0.0278,0.0,0.0,0.0,0.000121,0.0,0.0,0.0,0.0,0.0,0.0,8.1e-05,0.0,0.0,0.0,0.0,0.0,0.0,4.9e-05,0.0,0.0,0.0,0.0,0.0,0.0,0.0,0.0,0.0,0.0,0.0,0.0,0.0,0.0,0.0,0.0,0.0,0.0,0.0,0.0,0.0
1668538302465293840,359310,1668538302546439808,enu,1.5086,-3.5641,-0.0279,0.0,0.0,0.0,0.000121,0.0,0.0,0.0,0.0,0.0,0.0,8.1e-05,0.0,0.0,0.0,0.0,0.0,0.0,4.9e-05,0.0,0.0,0.0,0.0,0.0,0.0,0.0,0.0,0.0,0.0,0.0,0.0,0.0,0.0,0.0,0.0,0.0,0.0,0.0,0.0,0.0
1668538302475335301,359311,1668538302556422468,enu,1.5077,-3.5716,-0.0267,0.0,0.0,0.0,0.000121,0.0,0.0,0.0,0.0,0.0,0.0,8.1e-05,0.0,0.0,0.0,0.0,0.0,0.0,4.9e-05,0.0,0.0,0.0,0.0,0.0,0.0,0.0,0.0,0.0,0.0,0.0,0.0,0.0,0.0,0.0,0.0,0.0,0.0,0.0,0.0,0.0
1668538302485204568,359312,1668538302566280503,enu,1.506,-3.5801,-0.0262,0.0,0.0,0.0,0.000121,0.0,0.0,0.0,0.0,0.0,0.0,8.1e-05,0.0,0.0,0.0,0.0,0.0,0.0,4.9e-05,0.0,0.0,0.0,0.0,0.0,0.0,0.0,0.0,0.0,0.0,0.0,0.0,0.0,0.0,0.0,0.0,0.0,0.0,0.0,0.0,0.0
1668538302495197135,359313,1668538302576245629,enu,1.5062,-3.5886,-0.0254,0.0,0.0,0.0,0.000121,0.0,0.0,0.0,0.0,0.0,0.0,8.1e-05,0.0,0.0,0.0,0.0,0.0,0.0,4.9e-05,0.0,0.0,0.0,0.0,0.0,0.0,0.0,0.0,0.0,0.0,0.0,0.0,0.0,0.0,0.0,0.0,0.0,0.0,0.0,0.0,0.0
1668538302505080193,359314,1668538302586322110,enu,1.5054,-3.5959,-0.0265,0.0,0.0,0.0,0.000121,0.0,0.0,0.0,0.0,0.0,0.0,8.1e-05,0.0,0.0,0.0,0.0,0.0,0.0,4.9e-05,0.0,0.0,0.0,0.0,0.0,0.0,0.0,0.0,0.0,0.0,0.0,0.0,0.0,0.0,0.0,0.0,0.0,0.0,0.0,0.0,0.0
1668538302515303736,359315,1668538302596256099,enu,1.505,-3.6031,-0.027,0.0,0.0,0.0,0.000121,0.0,0.0,0.0,0.0,0.0,0.0,8.1e-05,0.0,0.0,0.0,0.0,0.0,0.0,4.9e-05,0.0,0.0,0.0,0.0,0.0,0.0,0.0,0.0,0.0,0.0,0.0,0.0,0.0,0.0,0.0,0.0,0.0,0.0,0.0,0.0,0.0
1668538302525148076,359316,1668538302606264140,enu,1.505,-3.6104,-0.0288,0.0,0.0,0.0,0.000121,0.0,0.0,0.0,0.0,0.0,0.0,8.1e-05,0.0,0.0,0.0,0.0,0.0,0.0,4.9e-05,0.0,0.0,0.0,0.0,0.0,0.0,0.0,0.0,0.0,0.0,0.0,0.0,0.0,0.0,0.0,0.0,0.0,0.0,0.0,0.0,0.0
1668538302535005663,359317,1668538302616268873,enu,1.5037,-3.6185,-0.0292,0.0,0.0,0.0,0.000121,0.0,0.0,0.0,0.0,0.0,0.0,8.1e-05,0.0,0.0,0.0,0.0,0.0,0.0,4.9e-05,0.0,0.0,0.0,0.0,0.0,0.0,0.0,0.0,0.0,0.0,0.0,0.0,0.0,0.0,0.0,0.0,0.0,0.0,0.0,0.0,0.0
1668538302545236923,359318,1668538302626358759,enu,1.5044,-3.6264,-0.0311,0.0,0.0,0.0,0.000121,0.0,0.0,0.0,0.0,0.0,0.0,8.1e-05,0.0,0.0,0.0,0.0,0.0,0.0,4.9e-05,0.0,0.0,0.0,0.0,0.0,0.0,0.0,0.0,0.0,0.0,0.0,0.0,0.0,0.0,0.0,0.0,0.0,0.0,0.0,0.0,0.0
1668538302555314456,359319,1668538302636267912,enu,1.5034,-3.6335,-0.0323,0.0,0.0,0.0,0.000121,0.0,0.0,0.0,0.0,0.0,0.0,8.1e-05,0.0,0.0,0.0,0.0,0.0,0.0,4.9e-05,0.0,0.0,0.0,0.0,0.0,0.0,0.0,0.0,0.0,0.0,0.0,0.0,0.0,0.0,0.0,0.0,0.0,0.0,0.0,0.0,0.0
1668538302565336770,359320,1668538302646307938,enu,1.5032,-3.6416,-0.0337,0.0,0.0,0.0,0.000121,0.0,0.0,0.0,0.0,0.0,0.0,8.1e-05,0.0,0.0,0.0,0.0,0.0,0.0,4.9e-05,0.0,0.0,0.0,0.0,0.0,0.0,0.0,0.0,0.0,0.0,0.0,0.0,0.0,0.0,0.0,0.0,0.0,0.0,0.0,0.0,0.0
1668538302575315504,359321,1668538302656355333,enu,1.5024,-3.6497,-0.0353,0.0,0.0,0.0,0.000121,0.0,0.0,0.0,0.0,0.0,0.0,8.1e-05,0.0,0.0,0.0,0.0,0.0,0.0,4.9e-05,0.0,0.0,0.0,0.0,0.0,0.0,0.0,0.0,0.0,0.0,0.0,0.0,0.0,0.0,0.0,0.0,0.0,0.0,0.0,0.0,0.0
1668538302585292443,359322,1668538302666279879,enu,1.5023,-3.6585,-0.0372,0.0,0.0,0.0,0.000121,0.0,0.0,0.0,0.0,0.0,0.0,8.1e-05,0.0,0.0,0.0,0.0,0.0,0.0,4.9e-05,0.0,0.0,0.0,0.0,0.0,0.0,0.0,0.0,0.0,0.0,0.0,0.0,0.0,0.0,0.0,0.0,0.0,0.0,0.0,0.0,0.0
1668538302595248907,359323,1668538302676323441,enu,1.5027,-3.6668,-0.0388,0.0,0.0,0.0,0.000121,0.0,0.0,0.0,0.0,0.0,0.0,8.1e-05,0.0,0.0,0.0,0.0,0.0,0.0,4.9e-05,0.0,0.0,0.0,0.0,0.0,0.0,0.0,0.0,0.0,0.0,0.0,0.0,0.0,0.0,0.0,0.0,0.0,0.0,0.0,0.0,0.0
1668538302605149439,359324,1668538302686274262,enu,1.5023,-3.6759,-0.039,0.0,0.0,0.0,0.000121,0.0,0.0,0.0,0.0,0.0,0.0,8.1e-05,0.0,0.0,0.0,0.0,0.0,0.0,4.9e-05,0.0,0.0,0.0,0.0,0.0,0.0,0.0,0.0,0.0,0.0,0.0,0.0,0.0,0.0,0.0,0.0,0.0,0.0,0.0,0.0,0.0
1668538302615177554,359325,1668538302696256815,enu,1.5036,-3.6839,-0.0409,0.0,0.0,0.0,0.000121,0.0,0.0,0.0,0.0,0.0,0.0,8.1e-05,0.0,0.0,0.0,0.0,0.0,0.0,4.9e-05,0.0,0.0,0.0,0.0,0.0,0.0,0.0,0.0,0.0,0.0,0.0,0.0,0.0,0.0,0.0,0.0,0.0,0.0,0.0,0.0,0.0
1668538302625338451,359326,1668538302706326276,enu,1.5042,-3.6922,-0.0416,0.0,0.0,0.0,0.000121,0.0,0.0,0.0,0.0,0.0,0.0,8.1e-05,0.0,0.0,0.0,0.0,0.0,0.0,4.9e-05,0.0,0.0,0.0,0.0,0.0,0.0,0.0,0.0,0.0,0.0,0.0,0.0,0.0,0.0,0.0,0.0,0.0,0.0,0.0,0.0,0.0
1668538302635166088,359327,1668538302716253769,enu,1.5055,-3.6993,-0.0425,0.0,0.0,0.0,0.000121,0.0,0.0,0.0,0.0,0.0,0.0,8.1e-05,0.0,0.0,0.0,0.0,0.0,0.0,4.9e-05,0.0,0.0,0.0,0.0,0.0,0.0,0.0,0.0,0.0,0.0,0.0,0.0,0.0,0.0,0.0,0.0,0.0,0.0,0.0,0.0,0.0
1668538302645121957,359328,1668538302726337512,enu,1.5069,-3.7065,-0.0427,0.0,0.0,0.0,0.000121,0.0,0.0,0.0,0.0,0.0,0.0,8.1e-05,0.0,0.0,0.0,0.0,0.0,0.0,4.9e-05,0.0,0.0,0.0,0.0,0.0,0.0,0.0,0.0,0.0,0.0,0.0,0.0,0.0,0.0,0.0,0.0,0.0,0.0,0.0,0.0,0.0
1668538302655135179,359329,1668538302736319102,enu,1.5092,-3.7138,-0.0426,0.0,0.0,0.0,0.000121,0.0,0.0,0.0,0.0,0.0,0.0,8.1e-05,0.0,0.0,0.0,0.0,0.0,0.0,4.9e-05,0.0,0.0,0.0,0.0,0.0,0.0,0.0,0.0,0.0,0.0,0.0,0.0,0.0,0.0,0.0,0.0,0.0,0.0,0.0,0.0,0.0
1668538302665038388,359330,1668538302746271789,enu,1.5115,-3.7204,-0.0426,0.0,0.0,0.0,0.000121,0.0,0.0,0.0,0.0,0.0,0.0,8.1e-05,0.0,0.0,0.0,0.0,0.0,0.0,4.9e-05,0.0,0.0,0.0,0.0,0.0,0.0,0.0,0.0,0.0,0.0,0.0,0.0,0.0,0.0,0.0,0.0,0.0,0.0,0.0,0.0,0.0
1668538302675271238,359331,1668538302756284591,enu,1.514,-3.7271,-0.0429,0.0,0.0,0.0,0.000121,0.0,0.0,0.0,0.0,0.0,0.0,8.1e-05,0.0,0.0,0.0,0.0,0.0,0.0,4.9e-05,0.0,0.0,0.0,0.0,0.0,0.0,0.0,0.0,0.0,0.0,0.0,0.0,0.0,0.0,0.0,0.0,0.0,0.0,0.0,0.0,0.0
1668538302685065762,359332,1668538302766272086,enu,1.5158,-3.7338,-0.0429,0.0,0.0,0.0,0.000121,0.0,0.0,0.0,0.0,0.0,0.0,8.1e-05,0.0,0.0,0.0,0.0,0.0,0.0,4.9e-05,0.0,0.0,0.0,0.0,0.0,0.0,0.0,0.0,0.0,0.0,0.0,0.0,0.0,0.0,0.0,0.0,0.0,0.0,0.0,0.0,0.0
1668538302695356417,359333,1668538302776333069,enu,1.5175,-3.7406,-0.0435,0.0,0.0,0.0,0.000121,0.0,0.0,0.0,0.0,0.0,0.0,8.1e-05,0.0,0.0,0.0,0.0,0.0,0.0,4.9e-05,0.0,0.0,0.0,0.0,0.0,0.0,0.0,0.0,0.0,0.0,0.0,0.0,0.0,0.0,0.0,0.0,0.0,0.0,0.0,0.0,0.0
1668538302705282323,359334,1668538302786267073,enu,1.5197,-3.7474,-0.0443,0.0,0.0,0.0,0.000121,0.0,0.0,0.0,0.0,0.0,0.0,8.1e-05,0.0,0.0,0.0,0.0,0.0,0.0,4.9e-05,0.0,0.0,0.0,0.0,0.0,0.0,0.0,0.0,0.0,0.0,0.0,0.0,0.0,0.0,0.0,0.0,0.0,0.0,0.0,0.0,0.0
1668538302715336173,359335,1668538302796421953,enu,1.5201,-3.7543,-0.0439,0.0,0.0,0.0,0.000121,0.0,0.0,0.0,0.0,0.0,0.0,8.1e-05,0.0,0.0,0.0,0.0,0.0,0.0,4.9e-05,0.0,0.0,0.0,0.0,0.0,0.0,0.0,0.0,0.0,0.0,0.0,0.0,0.0,0.0,0.0,0.0,0.0,0.0,0.0,0.0,0.0
1668538302725348615,359336,1668538302806300066,enu,1.521,-3.7601,-0.0422,0.0,0.0,0.0,0.000121,0.0,0.0,0.0,0.0,0.0,0.0,8.1e-05,0.0,0.0,0.0,0.0,0.0,0.0,4.9e-05,0.0,0.0,0.0,0.0,0.0,0.0,0.0,0.0,0.0,0.0,0.0,0.0,0.0,0.0,0.0,0.0,0.0,0.0,0.0,0.0,0.0
1668538302735166213,359337,1668538302816262529,enu,1.5221,-3.7662,-0.0408,0.0,0.0,0.0,0.000121,0.0,0.0,0.0,0.0,0.0,0.0,8.1e-05,0.0,0.0,0.0,0.0,0.0,0.0,4.9e-05,0.0,0.0,0.0,0.0,0.0,0.0,0.0,0.0,0.0,0.0,0.0,0.0,0.0,0.0,0.0,0.0,0.0,0.0,0.0,0.0,0.0
1668538302745255255,359338,1668538302826332829,enu,1.5225,-3.7732,-0.0386,0.0,0.0,0.0,0.000121,0.0,0.0,0.0,0.0,0.0,0.0,8.1e-05,0.0,0.0,0.0,0.0,0.0,0.0,4.9e-05,0.0,0.0,0.0,0.0,0.0,0.0,0.0,0.0,0.0,0.0,0.0,0.0,0.0,0.0,0.0,0.0,0.0,0.0,0.0,0.0,0.0
1668538302755142833,359339,1668538302836271560,enu,1.5236,-3.7802,-0.0375,0.0,0.0,0.0,0.000121,0.0,0.0,0.0,0.0,0.0,0.0,8.1e-05,0.0,0.0,0.0,0.0,0.0,0.0,4.9e-05,0.0,0.0,0.0,0.0,0.0,0.0,0.0,0.0,0.0,0.0,0.0,0.0,0.0,0.0,0.0,0.0,0.0,0.0,0.0,0.0,0.0
1668538302765158654,359340,1668538302846244126,enu,1.5227,-3.7859,-0.037,0.0,0.0,0.0,0.000121,0.0,0.0,0.0,0.0,0.0,0.0,8.1e-05,0.0,0.0,0.0,0.0,0.0,0.0,4.9e-05,0.0,0.0,0.0,0.0,0.0,0.0,0.0,0.0,0.0,0.0,0.0,0.0,0.0,0.0,0.0,0.0,0.0,0.0,0.0,0.0,0.0
1668538302775251063,359341,1668538302856344014,enu,1.5226,-3.7937,-0.0364,0.0,0.0,0.0,0.000121,0.0,0.0,0.0,0.0,0.0,0.0,8.1e-05,0.0,0.0,0.0,0.0,0.0,0.0,4.9e-05,0.0,0.0,0.0,0.0,0.0,0.0,0.0,0.0,0.0,0.0,0.0,0.0,0.0,0.0,0.0,0.0,0.0,0.0,0.0,0.0,0.0
1668538302785190931,359342,1668538302866256095,enu,1.5216,-3.7999,-0.0358,0.0,0.0,0.0,0.000121,0.0,0.0,0.0,0.0,0.0,0.0,8.1e-05,0.0,0.0,0.0,0.0,0.0,0.0,4.9e-05,0.0,0.0,0.0,0.0,0.0,0.0,0.0,0.0,0.0,0.0,0.0,0.0,0.0,0.0,0.0,0.0,0.0,0.0,0.0,0.0,0.0
1668538302795216642,359343,1668538302876244398,enu,1.5204,-3.8067,-0.0355,0.0,0.0,0.0,0.000121,0.0,0.0,0.0,0.0,0.0,0.0,8.1e-05,0.0,0.0,0.0,0.0,0.0,0.0,4.9e-05,0.0,0.0,0.0,0.0,0.0,0.0,0.0,0.0,0.0,0.0,0.0,0.0,0.0,0.0,0.0,0.0,0.0,0.0,0.0,0.0,0.0
1668538302805407307,359344,1668538302886346746,enu,1.5196,-3.8143,-0.0355,0.0,0.0,0.0,0.000121,0.0,0.0,0.0,0.0,0.0,0.0,8.1e-05,0.0,0.0,0.0,0.0,0.0,0.0,4.9e-05,0.0,0.0,0.0,0.0,0.0,0.0,0.0,0.0,0.0,0.0,0.0,0.0,0.0,0.0,0.0,0.0,0.0,0.0,0.0,0.0,0.0
1668538302815135407,359345,1668538302896265933,enu,1.5175,-3.8206,-0.0355,0.0,0.0,0.0,0.000121,0.0,0.0,0.0,0.0,0.0,0.0,8.1e-05,0.0,0.0,0.0,0.0,0.0,0.0,4.9e-05,0.0,0.0,0.0,0.0,0.0,0.0,0.0,0.0,0.0,0.0,0.0,0.0,0.0,0.0,0.0,0.0,0.0,0.0,0.0,0.0,0.0
1668538302825077636,359346,1668538302906259999,enu,1.5164,-3.8281,-0.0362,0.0,0.0,0.0,0.000121,0.0,0.0,0.0,0.0,0.0,0.0,8.1e-05,0.0,0.0,0.0,0.0,0.0,0.0,4.9e-05,0.0,0.0,0.0,0.0,0.0,0.0,0.0,0.0,0.0,0.0,0.0,0.0,0.0,0.0,0.0,0.0,0.0,0.0,0.0,0.0,0.0
1668538302835321485,359347,1668538302916262021,enu,1.5143,-3.8345,-0.0362,0.0,0.0,0.0,0.000121,0.0,0.0,0.0,0.0,0.0,0.0,8.1e-05,0.0,0.0,0.0,0.0,0.0,0.0,4.9e-05,0.0,0.0,0.0,0.0,0.0,0.0,0.0,0.0,0.0,0.0,0.0,0.0,0.0,0.0,0.0,0.0,0.0,0.0,0.0,0.0,0.0
1668538302845543954,359348,1668538302926322046,enu,1.5136,-3.8414,-0.0364,0.0,0.0,0.0,0.000121,0.0,0.0,0.0,0.0,0.0,0.0,8.1e-05,0.0,0.0,0.0,0.0,0.0,0.0,4.9e-05,0.0,0.0,0.0,0.0,0.0,0.0,0.0,0.0,0.0,0.0,0.0,0.0,0.0,0.0,0.0,0.0,0.0,0.0,0.0,0.0,0.0
1668538302855275961,359349,1668538302936261926,enu,1.5114,-3.8484,-0.0354,0.0,0.0,0.0,0.000121,0.0,0.0,0.0,0.0,0.0,0.0,8.1e-05,0.0,0.0,0.0,0.0,0.0,0.0,4.9e-05,0.0,0.0,0.0,0.0,0.0,0.0,0.0,0.0,0.0,0.0,0.0,0.0,0.0,0.0,0.0,0.0,0.0,0.0,0.0,0.0,0.0
1668538302865216574,359350,1668538302946324702,enu,1.51,-3.8558,-0.0344,0.0,0.0,0.0,0.000121,0.0,0.0,0.0,0.0,0.0,0.0,8.1e-05,0.0,0.0,0.0,0.0,0.0,0.0,4.9e-05,0.0,0.0,0.0,0.0,0.0,0.0,0.0,0.0,0.0,0.0,0.0,0.0,0.0,0.0,0.0,0.0,0.0,0.0,0.0,0.0,0.0
1668538302875280213,359351,1668538302956263632,enu,1.5083,-3.8625,-0.033,0.0,0.0,0.0,0.000121,0.0,0.0,0.0,0.0,0.0,0.0,8.1e-05,0.0,0.0,0.0,0.0,0.0,0.0,4.9e-05,0.0,0.0,0.0,0.0,0.0,0.0,0.0,0.0,0.0,0.0,0.0,0.0,0.0,0.0,0.0,0.0,0.0,0.0,0.0,0.0,0.0
1668538302885205268,359352,1668538302966265790,enu,1.5062,-3.8701,-0.0305,0.0,0.0,0.0,0.000121,0.0,0.0,0.0,0.0,0.0,0.0,8.1e-05,0.0,0.0,0.0,0.0,0.0,0.0,4.9e-05,0.0,0.0,0.0,0.0,0.0,0.0,0.0,0.0,0.0,0.0,0.0,0.0,0.0,0.0,0.0,0.0,0.0,0.0,0.0,0.0,0.0
1668538302895196265,359353,1668538302976412744,enu,1.5054,-3.8764,-0.0278,0.0,0.0,0.0,0.000121,0.0,0.0,0.0,0.0,0.0,0.0,8.1e-05,0.0,0.0,0.0,0.0,0.0,0.0,4.9e-05,0.0,0.0,0.0,0.0,0.0,0.0,0.0,0.0,0.0,0.0,0.0,0.0,0.0,0.0,0.0,0.0,0.0,0.0,0.0,0.0,0.0
1668538302905129660,359354,1668538302986255837,enu,1.5022,-3.8833,-0.0242,0.0,0.0,0.0,0.000121,0.0,0.0,0.0,0.0,0.0,0.0,8.1e-05,0.0,0.0,0.0,0.0,0.0,0.0,4.9e-05,0.0,0.0,0.0,0.0,0.0,0.0,0.0,0.0,0.0,0.0,0.0,0.0,0.0,0.0,0.0,0.0,0.0,0.0,0.0,0.0,0.0
1668538302915183993,359355,1668538302996258644,enu,1.5035,-3.8898,-0.0229,0.0,0.0,0.0,0.000121,0.0,0.0,0.0,0.0,0.0,0.0,8.1e-05,0.0,0.0,0.0,0.0,0.0,0.0,4.9e-05,0.0,0.0,0.0,0.0,0.0,0.0,0.0,0.0,0.0,0.0,0.0,0.0,0.0,0.0,0.0,0.0,0.0,0.0,0.0,0.0,0.0
1668538302925286602,359356,1668538303006377397,enu,1.5022,-3.8972,-0.0234,0.0,0.0,0.0,0.000121,0.0,0.0,0.0,0.0,0.0,0.0,8.1e-05,0.0,0.0,0.0,0.0,0.0,0.0,4.9e-05,0.0,0.0,0.0,0.0,0.0,0.0,0.0,0.0,0.0,0.0,0.0,0.0,0.0,0.0,0.0,0.0,0.0,0.0,0.0,0.0,0.0
1668538302935137623,359357,1668538303016384997,enu,1.5016,-3.9034,-0.0229,0.0,0.0,0.0,0.000121,0.0,0.0,0.0,0.0,0.0,0.0,8.1e-05,0.0,0.0,0.0,0.0,0.0,0.0,4.9e-05,0.0,0.0,0.0,0.0,0.0,0.0,0.0,0.0,0.0,0.0,0.0,0.0,0.0,0.0,0.0,0.0,0.0,0.0,0.0,0.0,0.0
1668538302945130107,359358,1668538303026280588,enu,1.5013,-3.91,-0.0228,0.0,0.0,0.0,0.000121,0.0,0.0,0.0,0.0,0.0,0.0,8.1e-05,0.0,0.0,0.0,0.0,0.0,0.0,4.9e-05,0.0,0.0,0.0,0.0,0.0,0.0,0.0,0.0,0.0,0.0,0.0,0.0,0.0,0.0,0.0,0.0,0.0,0.0,0.0,0.0,0.0
