%time,field.header.seq,field.header.stamp,field.header.frame_id,field.status.status,field.status.service,field.latitude,field.longitude,field.altitude,field.position_covariance0,field.position_covariance1,field.position_covariance2,field.position_covariance3,field.position_covariance4,field.position_covariance5,field.position_covariance6,field.position_covariance7,field.position_covariance8,field.position_covariance_type
1671461998853409861,344784,1671461998887013684,gps,2,1,42.3009742223,-83.697876188,272.369476318,0.000121,0.0,0.0,0.0,0.000144,0.0,0.0,0.0,0.002209,2
1671461998863388816,344785,1671461998896874378,gps,2,1,42.3009742219,-83.6978761872,272.369567871,0.000121,0.0,0.0,0.0,0.000144,0.0,0.0,0.0,0.002209,2
1671461998873119586,344786,1671461998906873787,gps,2,1,42.3009742222,-83.6978761876,272.369567871,0.000121,0.0,0.0,0.0,0.000144,0.0,0.0,0.0,0.002209,2
1671461998883684844,344787,1671461998917040085,gps,2,1,42.3009742227,-83.6978761883,272.369598389,0.000121,0.0,0.0,0.0,0.000144,0.0,0.0,0.0,0.002209,2
1671461998893647032,344788,1671461998926866124,gps,2,1,42.3009742223,-83.6978761874,272.369689941,0.000121,0.0,0.0,0.0,0.000144,0.0,0.0,0.0,0.002209,2
1671461998903549440,344789,1671461998936875627,gps,2,1,42.3009742229,-83.6978761879,272.369659424,0.000121,0.0,0.0,0.0,0.000144,0.0,0.0,0.0,0.002209,2
1671461998913497010,344790,1671461998946930505,gps,2,1,42.3009742227,-83.6978761885,272.369689941,0.000121,0.0,0.0,0.0,0.000144,0.0,0.0,0.0,0.002209,2
1671461998923358986,344791,1671461998956867133,gps,2,1,42.3009742225,-83.6978761876,272.369781494,0.000121,0.0,0.0,0.0,0.000144,0.0,0.0,0.0,0.002209,2
1671461998933582378,344792,1671461998966872741,gps,2,1,42.3009742229,-83.6978761881,272.369781494,0.000121,0.0,0.0,0.0,0.000144,0.0,0.0,0.0,0.002209,2
1671461998943565351,344793,1671461998976936775,gps,2,1,42.3009742224,-83.6978761885,272.369812012,0.000121,0.0,0.0,0.0,0.000144,0.0,0.0,0.0,0.002209,2
1671461998953414515,344794,1671461998986958372,gps,2,1,42.3009742224,-83.6978761877,272.369903564,0.000121,0.0,0.0,0.0,0.000144,0.0,0.0,0.0,0.002209,2
1671461998963455812,344795,1671461998996859289,gps,2,1,42.3009742223,-83.6978761883,272.369934082,0.000121,0.0,0.0,0.0,0.000144,0.0,0.0,0.0,0.002209,2
1671461998973386598,344796,1671461999006928947,gps,2,1,42.3009742222,-83.6978761885,272.369934082,0.000121,0.0,0.0,0.0,0.000144,0.0,0.0,0.0,0.002209,2
1671461998983298074,344797,1671461999016855365,gps,2,1,42.3009742222,-83.6978761878,272.370025635,0.000121,0.0,0.0,0.0,0.000144,0.0,0.0,0.0,0.002209,2
1671461998993421006,344798,1671461999026866342,gps,2,1,42.3009742219,-83.6978761881,272.370056152,0.000121,0.0,0.0,0.0,0.000144,0.0,0.0,0.0,0.002209,2
1671461999003792405,344799,1671461999036994556,gps,2,1,42.3009742223,-83.6978761884,272.370025635,0.000121,0.0,0.0,0.0,0.000144,0.0,0.0,0.0,0.002209,2
1671461999013635506,344800,1671461999046977137,gps,2,1,42.3009742238,-83.6978761883,272.3699646,0.000121,0.0,0.0,0.0,0.000144,0.0,0.0,0.0,0.002209,2
1671461999023595263,344801,1671461999056928177,gps,2,1,42.3009742236,-83.6978761885,272.3699646,0.000121,0.0,0.0,0.0,0.000144,0.0,0.0,0.0,0.002209,2
1671461999033554028,344802,1671461999067000474,gps,2,1,42.3009742243,-83.6978761891,272.3699646,0.000121,0.0,0.0,0.0,0.000144,0.0,0.0,0.0,0.002209,2
1671461999043364760,344803,1671461999076929491,gps,2,1,42.3009742257,-83.6978761889,272.369903564,0.000121,0.0,0.0,0.0,0.000144,0.0,0.0,0.0,0.002209,2
1671461999053644127,344804,1671461999086921734,gps,2,1,42.3009742259,-83.6978761893,272.369873047,0.000121,0.0,0.0,0.0,0.000144,0.0,0.0,0.0,0.002209,2
1671461999063516767,344805,1671461999096982210,gps,2,1,42.3009742265,-83.6978761899,272.369873047,0.000121,0.0,0.0,0.0,0.000144,0.0,0.0,0.0,0.002209,2
1671461999073410697,344806,1671461999106964792,gps,2,1,42.3009742277,-83.6978761898,272.369812012,0.000121,0.0,0.0,0.0,0.000144,0.0,0.0,0.0,0.002209,2
1671461999083348546,344807,1671461999116945284,gps,2,1,42.3009742283,-83.6978761903,272.369812012,0.000121,0.0,0.0,0.0,0.000144,0.0,0.0,0.0,0.002209,2
1671461999093206429,344808,1671461999126950265,gps,2,1,42.3009742283,-83.6978761909,272.369842529,0.000121,0.0,0.0,0.0,0.000144,0.0,0.0,0.0,0.002209,2
1671461999103439394,344809,1671461999136860643,gps,2,1,42.3009742296,-83.6978761908,272.369750977,0.000121,0.0,0.0,0.0,0.000144,0.0,0.0,0.0,0.002209,2
1671461999113390188,344810,1671461999146873718,gps,2,1,42.3009742302,-83.6978761914,272.369750977,0.000121,0.0,0.0,0.0,0.000144,0.0,0.0,0.0,0.002209,2
1671461999123291204,344811,1671461999156940985,gps,2,1,42.3009742298,-83.6978761919,272.369812012,0.000121,0.0,0.0,0.0,0.000144,0.0,0.0,0.0,0.002209,2
1671461999133520927,344812,1671461999166965471,gps,2,1,42.300974231,-83.6978761918,272.369720459,0.000121,0.0,0.0,0.0,0.000144,0.0,0.0,0.0,0.002209,2
1671461999143157257,344813,1671461999176880056,gps,2,1,42.3009742312,-83.6978761924,272.369750977,0.000121,0.0,0.0,0.0,0.000144,0.0,0.0,0.0,0.002209,2
1671461999153136449,344814,1671461999186929202,gps,2,1,42.300974231,-83.6978761927,272.369750977,0.000121,0.0,0.0,0.0,0.000144,0.0,0.0,0.0,0.002209,2
1671461999163184575,344815,1671461999196867910,gps,2,1,42.3009742322,-83.6978761928,272.369689941,0.000121,0.0,0.0,0.0,0.000144,0.0,0.0,0.0,0.002209,2
1671461999173708069,344816,1671461999206932185,gps,2,1,42.300974232,-83.6978761933,272.369720459,0.000121,0.0,0.0,0.0,0.000144,0.0,0.0,0.0,0.002209,2
1671461999183455612,344817,1671461999216874444,gps,2,1,42.3009742323,-83.6978761936,272.369720459,0.000121,0.0,0.0,0.0,0.000144,0.0,0.0,0.0,0.002209,2
1671461999193428685,344818,1671461999226903923,gps,2,1,42.3009742335,-83.6978761936,272.369659424,0.000121,0.0,0.0,0.0,0.000144,0.0,0.0,0.0,0.002209,2
1671461999203469602,344819,1671461999236968338,gps,2,1,42.3009742333,-83.697876194,272.369659424,0.000121,0.0,0.0,0.0,0.000144,0.0,0.0,0.0,0.002209,2
1671461999213494013,344820,1671461999246825861,gps,2,1,42.300974234,-83.6978761945,272.369659424,0.000121,0.0,0.0,0.0,0.000144,0.0,0.0,0.0,0.002209,2
1671461999223480199,344821,1671461999256817430,gps,2,1,42.300974235,-83.6978761946,272.369598389,0.000121,0.0,0.0,0.0,0.000144,0.0,0.0,0.0,0.002209,2
1671461999233453363,344822,1671461999266885683,gps,2,1,42.3009742351,-83.697876195,272.369598389,0.000121,0.0,0.0,0.0,0.000144,0.0,0.0,0.0,0.002209,2
1671461999243580338,344823,1671461999276956600,gps,2,1,42.3009742358,-83.6978761956,272.369598389,0.000121,0.0,0.0,0.0,0.000144,0.0,0.0,0.0,0.002209,2
1671461999253668872,344824,1671461999286912205,gps,2,1,42.3009742366,-83.6978761957,272.369537354,6.4e-05,0.0,0.0,0.0,0.0001,0.0,0.0,0.0,0.002116,2
1671461999263269441,344825,1671461999296916935,gps,2,1,42.3009742371,-83.6978761962,272.369537354,6.4e-05,0.0,0.0,0.0,0.0001,0.0,0.0,0.0,0.002116,2
1671461999273289669,344826,1671461999306933258,gps,2,1,42.3009742372,-83.6978761969,272.369537354,6.4e-05,0.0,0.0,0.0,0.0001,0.0,0.0,0.0,0.002116,2
1671461999283364488,344827,1671461999316865289,gps,2,1,42.3009742381,-83.697876197,272.369506836,6.4e-05,0.0,0.0,0.0,0.0001,0.0,0.0,0.0,0.002116,2
1671461999293184767,344828,1671461999326884415,gps,2,1,42.3009742387,-83.6978761975,272.369506836,6.4e-05,0.0,0.0,0.0,0.0001,0.0,0.0,0.0,0.002116,2
1671461999303589277,344829,1671461999336947625,gps,2,1,42.3009742384,-83.6978761982,272.369537354,6.4e-05,0.0,0.0,0.0,0.0001,0.0,0.0,0.0,0.002116,2
1671461999313585665,344830,1671461999346886546,gps,2,1,42.3009742394,-83.6978761982,272.369476318,6.4e-05,0.0,0.0,0.0,0.0001,0.0,0.0,0.0,0.002116,2
1671461999323163145,344831,1671461999356878408,gps,2,1,42.3009742397,-83.6978761989,272.369476318,6.4e-05,0.0,0.0,0.0,0.0001,0.0,0.0,0.0,0.002116,2
1671461999333365508,344832,1671461999366934074,gps,2,1,42.3009742393,-83.6978761992,272.369506836,6.4e-05,0.0,0.0,0.0,0.0001,0.0,0.0,0.0,0.002116,2
1671461999343507264,344833,1671461999376878938,gps,2,1,42.3009742404,-83.6978761993,272.369445801,6.4e-05,0.0,0.0,0.0,0.0001,0.0,0.0,0.0,0.002116,2
1671461999353587516,344834,1671461999386981639,gps,2,1,42.3009742404,-83.6978761999,272.369476318,6.4e-05,0.0,0.0,0.0,0.0001,0.0,0.0,0.0,0.002116,2
1671461999363447296,344835,1671461999396952707,gps,2,1,42.3009742405,-83.6978762001,272.369476318,6.4e-05,0.0,0.0,0.0,0.0001,0.0,0.0,0.0,0.002116,2
1671461999373330176,344836,1671461999406881619,gps,2,1,42.3009742415,-83.6978762002,272.369415283,6.4e-05,0.0,0.0,0.0,0.0001,0.0,0.0,0.0,0.002116,2
1671461999383383083,344837,1671461999416976993,gps,2,1,42.3009742414,-83.6978762006,272.369445801,6.4e-05,0.0,0.0,0.0,0.0001,0.0,0.0,0.0,0.002116,2
1671461999393516551,344838,1671461999426993290,gps,2,1,42.300974242,-83.697876201,272.369445801,6.4e-05,0.0,0.0,0.0,0.0001,0.0,0.0,0.0,0.002116,2
1671461999403367365,344839,1671461999436884401,gps,2,1,42.3009742429,-83.6978762012,272.369384766,6.4e-05,0.0,0.0,0.0,0.0001,0.0,0.0,0.0,0.002116,2
1671461999413329862,344840,1671461999446872352,gps,2,1,42.300974243,-83.6978762016,272.369384766,6.4e-05,0.0,0.0,0.0,0.0001,0.0,0.0,0.0,0.002116,2
1671461999423189296,344841,1671461999456940397,gps,2,1,42.3009742438,-83.6978762021,272.369384766,6.4e-05,0.0,0.0,0.0,0.0001,0.0,0.0,0.0,0.002116,2
1671461999433189370,344842,1671461999466897880,gps,2,1,42.3009742446,-83.6978762023,272.369354248,6.4e-05,0.0,0.0,0.0,0.0001,0.0,0.0,0.0,0.002116,2
1671461999443714284,344843,1671461999476876322,gps,2,1,42.300974245,-83.6978762027,272.36932373,6.4e-05,0.0,0.0,0.0,0.0001,0.0,0.0,0.0,0.002116,2
1671461999453668716,344844,1671461999487029615,gps,2,1,42.3009742454,-83.6978762034,272.369354248,6.4e-05,0.0,0.0,0.0,0.0001,0.0,0.0,0.0,0.002116,2
1671461999463610183,344845,1671461999496873180,gps,2,1,42.3009742461,-83.6978762036,272.369293213,6.4e-05,0.0,0.0,0.0,0.0001,0.0,0.0,0.0,0.002116,2
1671461999473739736,344846,1671461999506886616,gps,2,1,42.3009742467,-83.6978762042,272.369293213,6.4e-05,0.0,0.0,0.0,0.0001,0.0,0.0,0.0,0.002116,2
1671461999483449323,344847,1671461999516942089,gps,2,1,42.3009742465,-83.6978762049,272.36932373,6.4e-05,0.0,0.0,0.0,0.0001,0.0,0.0,0.0,0.002116,2
1671461999493555967,344848,1671461999526886407,gps,2,1,42.3009742474,-83.697876205,272.369293213,6.4e-05,0.0,0.0,0.0,0.0001,0.0,0.0,0.0,0.002116,2
1671461999503557411,344849,1671461999536953492,gps,2,1,42.3009742478,-83.6978762057,272.369293213,6.4e-05,0.0,0.0,0.0,0.0001,0.0,0.0,0.0,0.002116,2
1671461999513456986,344850,1671461999547025560,gps,2,1,42.3009742474,-83.6978762062,272.36932373,6.4e-05,0.0,0.0,0.0,0.0001,0.0,0.0,0.0,0.002116,2
1671461999523475584,344851,1671461999556979275,gps,2,1,42.3009742484,-83.6978762064,272.369293213,6.4e-05,0.0,0.0,0.0,0.0001,0.0,0.0,0.0,0.002116,2
1671461999533332333,344852,1671461999566886230,gps,2,1,42.3009742484,-83.6978762071,272.369293213,6.4e-05,0.0,0.0,0.0,0.0001,0.0,0.0,0.0,0.002116,2
1671461999543428292,344853,1671461999576970122,gps,2,1,42.3009742484,-83.6978762075,272.36932373,6.4e-05,0.0,0.0,0.0,0.0001,0.0,0.0,0.0,0.002116,2
1671461999553406606,344854,1671461999586976763,gps,2,1,42.3009742486,-83.6978762084,272.369140625,6.4e-05,0.0,0.0,0.0,0.0001,0.0,0.0,0.0,0.002116,2
1671461999563406292,344855,1671461999596924227,gps,2,1,42.3009742485,-83.697876209,272.369171143,6.4e-05,0.0,0.0,0.0,0.0001,0.0,0.0,0.0,0.002116,2
1671461999573724580,344856,1671461999606940227,gps,2,1,42.3009742491,-83.6978762094,272.369140625,6.4e-05,0.0,0.0,0.0,0.0001,0.0,0.0,0.0,0.002116,2
1671461999583490521,344857,1671461999616878746,gps,2,1,42.3009742492,-83.6978762105,272.368988037,6.4e-05,0.0,0.0,0.0,0.0001,0.0,0.0,0.0,0.002116,2
1671461999593222557,344858,1671461999626932212,gps,2,1,42.3009742493,-83.6978762109,272.368988037,6.4e-05,0.0,0.0,0.0,0.0001,0.0,0.0,0.0,0.002116,2
1671461999603701534,344859,1671461999636956611,gps,2,1,42.3009742501,-83.6978762115,272.36895752,6.4e-05,0.0,0.0,0.0,0.0001,0.0,0.0,0.0,0.002116,2
1671461999613644233,344860,1671461999646896008,gps,2,1,42.3009742502,-83.6978762124,272.368804932,6.4e-05,0.0,0.0,0.0,0.0001,0.0,0.0,0.0,0.002116,2
1671461999623788860,344861,1671461999656881996,gps,2,1,42.3009742506,-83.6978762129,272.368804932,6.4e-05,0.0,0.0,0.0,0.0001,0.0,0.0,0.0,0.002116,2
1671461999633476261,344862,1671461999667045852,gps,2,1,42.3009742511,-83.6978762137,272.368804932,6.4e-05,0.0,0.0,0.0,0.0001,0.0,0.0,0.0,0.002116,2
1671461999643274751,344863,1671461999676885193,gps,2,1,42.3009742511,-83.6978762144,272.368652344,6.4e-05,0.0,0.0,0.0,0.0001,0.0,0.0,0.0,0.002116,2
1671461999653441519,344864,1671461999686887870,gps,2,1,42.3009742517,-83.697876215,272.368652344,6.4e-05,0.0,0.0,0.0,0.0001,0.0,0.0,0.0,0.002116,2
1671461999663353290,344865,1671461999696970379,gps,2,1,42.3009742518,-83.6978762158,272.368652344,6.4e-05,0.0,0.0,0.0,0.0001,0.0,0.0,0.0,0.002116,2
1671461999673281385,344866,1671461999706871702,gps,2,1,42.3009742519,-83.6978762165,272.368499756,6.4e-05,0.0,0.0,0.0,0.0001,0.0,0.0,0.0,0.002116,2
1671461999683274283,344867,1671461999716872814,gps,2,1,42.3009742523,-83.6978762173,272.368499756,6.4e-05,0.0,0.0,0.0,0.0001,0.0,0.0,0.0,0.002116,2
1671461999693130808,344868,1671461999726928007,gps,2,1,42.3009742521,-83.6978762179,272.368530273,6.4e-05,0.0,0.0,0.0,0.0001,0.0,0.0,0.0,0.002116,2
1671461999703192791,344869,1671461999736868338,gps,2,1,42.3009742523,-83.6978762186,272.368377686,6.4e-05,0.0,0.0,0.0,0.0001,0.0,0.0,0.0,0.002116,2
1671461999713153489,344870,1671461999746887406,gps,2,1,42.3009742524,-83.6978762193,272.368408203,6.4e-05,0.0,0.0,0.0,0.0001,0.0,0.0,0.0,0.002116,2
1671461999723615814,344871,1671461999757009375,gps,2,1,42.3009742523,-83.6978762198,272.368408203,6.4e-05,0.0,0.0,0.0,0.0001,0.0,0.0,0.0,0.002116,2
1671461999733391705,344872,1671461999766902426,gps,2,1,42.3009742526,-83.6978762206,272.368255615,6.4e-05,0.0,0.0,0.0,0.0001,0.0,0.0,0.0,0.002116,2
1671461999743425305,344873,1671461999776889695,gps,2,1,42.3009742525,-83.6978762212,272.368286133,6.4e-05,0.0,0.0,0.0,0.0001,0.0,0.0,0.0,0.002116,2
1671461999753468649,344874,1671461999786942599,gps,2,1,42.3009742529,-83.6978762217,272.368286133,6.4e-05,0.0,0.0,0.0,0.0001,0.0,0.0,0.0,0.002116,2
1671461999763082606,344875,1671461999796902544,gps,2,1,42.3009742532,-83.6978762225,272.368133545,6.4e-05,0.0,0.0,0.0,0.0001,0.0,0.0,0.0,0.002116,2
1671461999773363660,344876,1671461999806929811,gps,2,1,42.3009742532,-83.6978762231,272.368164062,6.4e-05,0.0,0.0,0.0,0.0001,0.0,0.0,0.0,0.002116,2
1671461999783290645,344877,1671461999816888141,gps,2,1,42.300974254,-83.6978762237,272.368133545,6.4e-05,0.0,0.0,0.0,0.0001,0.0,0.0,0.0,0.002116,2
1671461999793315726,344878,1671461999826883669,gps,2,1,42.3009742541,-83.6978762245,272.368011475,6.4e-05,0.0,0.0,0.0,0.0001,0.0,0.0,0.0,0.002116,2
1671461999803278104,344879,1671461999836882922,gps,2,1,42.3009742544,-83.697876225,272.368011475,6.4e-05,0.0,0.0,0.0,0.0001,0.0,0.0,0.0,0.002116,2
1671461999813322763,344880,1671461999846957175,gps,2,1,42.300974255,-83.6978762258,272.368011475,6.4e-05,0.0,0.0,0.0,0.0001,0.0,0.0,0.0,0.002116,2
1671461999823273628,344881,1671461999856878362,gps,2,1,42.3009742551,-83.6978762266,272.367889404,6.4e-05,0.0,0.0,0.0,0.0001,0.0,0.0,0.0,0.002116,2
1671461999833218115,344882,1671461999866872552,gps,2,1,42.3009742557,-83.6978762272,272.367889404,6.4e-05,0.0,0.0,0.0,0.0001,0.0,0.0,0.0,0.002116,2
1671461999843124226,344883,1671461999876959259,gps,2,1,42.3009742559,-83.697876228,272.367889404,6.4e-05,0.0,0.0,0.0,0.0001,0.0,0.0,0.0,0.002116,2
1671461999853195357,344884,1671461999886886241,gps,2,1,42.3009742559,-83.6978762288,272.367767334,6.4e-05,0.0,0.0,0.0,0.0001,0.0,0.0,0.0,0.002116,2
1671461999863277905,344885,1671461999896956668,gps,2,1,42.3009742565,-83.6978762296,272.367767334,6.4e-05,0.0,0.0,0.0,0.0001,0.0,0.0,0.0,0.002116,2
1671461999873049922,344886,1671461999906886306,gps,2,1,42.3009742562,-83.6978762302,272.367797852,6.4e-05,0.0,0.0,0.0,0.0001,0.0,0.0,0.0,0.002116,2
1671461999883531739,344887,1671461999916968408,gps,2,1,42.3009742562,-83.697876231,272.367675781,6.4e-05,0.0,0.0,0.0,0.0001,0.0,0.0,0.0,0.002116,2
1671461999893591665,344888,1671461999926945693,gps,2,1,42.3009742563,-83.6978762319,272.367706299,6.4e-05,0.0,0.0,0.0,0.0001,0.0,0.0,0.0,0.002116,2
1671461999903089824,344889,1671461999936906343,gps,2,1,42.3009742561,-83.6978762324,272.367706299,6.4e-05,0.0,0.0,0.0,0.0001,0.0,0.0,0.0,0.002116,2
1671461999913383756,344890,1671461999946885565,gps,2,1,42.3009742561,-83.6978762332,272.367614746,6.4e-05,0.0,0.0,0.0,0.0001,0.0,0.0,0.0,0.002116,2
1671461999923336718,344891,1671461999956946134,gps,2,1,42.300974256,-83.697876234,272.367614746,6.4e-05,0.0,0.0,0.0,0.0001,0.0,0.0,0.0,0.002116,2
1671461999933391598,344892,1671461999966890852,gps,2,1,42.3009742563,-83.6978762345,272.367614746,6.4e-05,0.0,0.0,0.0,0.0001,0.0,0.0,0.0,0.002116,2
1671461999943182340,344893,1671461999976881714,gps,2,1,42.3009742563,-83.6978762354,272.367523193,6.4e-05,0.0,0.0,0.0,0.0001,0.0,0.0,0.0,0.002116,2
1671461999953093277,344894,1671461999986878835,gps,2,1,42.3009742562,-83.6978762359,272.367523193,6.4e-05,0.0,0.0,0.0,0.0001,0.0,0.0,0.0,0.002116,2
1671461999963292722,344895,1671461999996930393,gps,2,1,42.300974257,-83.6978762365,272.367523193,6.4e-05,0.0,0.0,0.0,0.0001,0.0,0.0,0.0,0.002116,2
1671461999973544116,344896,1671462000006881110,gps,2,1,42.3009742569,-83.6978762374,272.367431641,6.4e-05,0.0,0.0,0.0,0.0001,0.0,0.0,0.0,0.002116,2
1671461999983220572,344897,1671462000016942218,gps,2,1,42.3009742571,-83.6978762379,272.367431641,6.4e-05,0.0,0.0,0.0,0.0001,0.0,0.0,0.0,0.002116,2
1671461999993068983,344898,1671462000026878185,gps,2,1,42.3009742578,-83.6978762388,272.367401123,6.4e-05,0.0,0.0,0.0,0.0001,0.0,0.0,0.0,0.002116,2
1671462000003722644,344899,1671462000037016819,gps,2,1,42.3009742577,-83.6978762396,272.36730957,6.4e-05,0.0,0.0,0.0,0.0001,0.0,0.0,0.0,0.002116,2
1671462000013581592,344900,1671462000047033513,gps,2,1,42.3009742583,-83.6978762402,272.36730957,6.4e-05,0.0,0.0,0.0,0.0001,0.0,0.0,0.0,0.002116,2
1671462000023561176,344901,1671462000056948363,gps,2,1,42.3009742586,-83.6978762411,272.36730957,6.4e-05,0.0,0.0,0.0,0.0001,0.0,0.0,0.0,0.002116,2
1671462000033429353,344902,1671462000066943368,gps,2,1,42.3009742566,-83.6978762393,272.367340088,6.4e-05,0.0,0.0,0.0,0.0001,0.0,0.0,0.0,0.002116,2
1671462000043341171,344903,1671462000077024624,gps,2,1,42.3009742573,-83.6978762401,272.36730957,6.4e-05,0.0,0.0,0.0,0.0001,0.0,0.0,0.0,0.002116,2
1671462000053438747,344904,1671462000086894717,gps,2,1,42.3009742571,-83.6978762408,272.367340088,6.4e-05,0.0,0.0,0.0,0.0001,0.0,0.0,0.0,0.002116,2
1671462000063303088,344905,1671462000097001380,gps,2,1,42.3009742554,-83.6978762391,272.367340088,6.4e-05,0.0,0.0,0.0,0.0001,0.0,0.0,0.0,0.002116,2
1671462000073382074,344906,1671462000107002149,gps,2,1,42.3009742557,-83.6978762399,272.367340088,6.4e-05,0.0,0.0,0.0,0.0001,0.0,0.0,0.0,0.002116,2
1671462000083301673,344907,1671462000116975032,gps,2,1,42.3009742554,-83.6978762404,272.367370605,6.4e-05,0.0,0.0,0.0,0.0001,0.0,0.0,0.0,0.002116,2
1671462000093243864,344908,1671462000126931449,gps,2,1,42.3009742538,-83.6978762389,272.367370605,6.4e-05,0.0,0.0,0.0,0.0001,0.0,0.0,0.0,0.002116,2
1671462000103318017,344909,1671462000136888520,gps,2,1,42.3009742538,-83.6978762397,272.367370605,6.4e-05,0.0,0.0,0.0,0.0001,0.0,0.0,0.0,0.002116,2
1671462000113260517,344910,1671462000146942127,gps,2,1,42.300974254,-83.6978762402,272.367370605,6.4e-05,0.0,0.0,0.0,0.0001,0.0,0.0,0.0,0.002116,2
1671462000123509842,344911,1671462000156881978,gps,2,1,42.3009742524,-83.6978762388,272.367370605,6.4e-05,0.0,0.0,0.0,0.0001,0.0,0.0,0.0,0.002116,2
1671462000133663072,344912,1671462000167072704,gps,2,1,42.3009742522,-83.6978762394,272.367401123,6.4e-05,0.0,0.0,0.0,0.0001,0.0,0.0,0.0,0.002116,2
1671462000143034263,344913,1671462000176892469,gps,2,1,42.3009742529,-83.69787624,272.367370605,6.4e-05,0.0,0.0,0.0,0.0001,0.0,0.0,0.0,0.002116,2
1671462000153093938,344914,1671462000186882966,gps,2,1,42.3009742514,-83.6978762386,272.367370605,6.4e-05,0.0,0.0,0.0,0.0001,0.0,0.0,0.0,0.002116,2
1671462000163487014,344915,1671462000196892007,gps,2,1,42.3009742515,-83.6978762392,272.367370605,6.4e-05,0.0,0.0,0.0,0.0001,0.0,0.0,0.0,0.002116,2
1671462000173158910,344916,1671462000206946473,gps,2,1,42.3009742523,-83.69787624,272.367370605,6.4e-05,0.0,0.0,0.0,0.0001,0.0,0.0,0.0,0.002116,2
1671462000183385973,344917,1671462000216888687,gps,2,1,42.3009742507,-83.6978762386,272.367370605,6.4e-05,0.0,0.0,0.0,0.0001,0.0,0.0,0.0,0.002116,2
1671462000193430477,344918,1671462000226884867,gps,2,1,42.3009742512,-83.6978762392,272.367340088,6.4e-05,0.0,0.0,0.0,0.0001,0.0,0.0,0.0,0.002116,2
1671462000203434949,344919,1671462000237033681,gps,2,1,42.3009742516,-83.6978762401,272.367340088,6.4e-05,0.0,0.0,0.0,0.0001,0.0,0.0,0.0,0.002116,2
1671462000213410499,344920,1671462000246886358,gps,2,1,42.3009742501,-83.6978762388,272.367370605,6.4e-05,0.0,0.0,0.0,0.0001,0.0,0.0,0.0,0.002116,2
1671462000223306565,344921,1671462000256888126,gps,2,1,42.3009742508,-83.6978762396,272.367340088,6.4e-05,0.0,0.0,0.0,0.0001,0.0,0.0,0.0,0.002116,2
1671462000233247359,344922,1671462000266934354,gps,2,1,42.3009742506,-83.6978762404,272.367370605,6.4e-05,0.0,0.0,0.0,0.0001,0.0,0.0,0.0,0.002116,2
1671462000243189581,344923,1671462000276873349,gps,2,1,42.3009742493,-83.6978762391,272.367370605,6.4e-05,0.0,0.0,0.0,0.0001,0.0,0.0,0.0,0.002116,2
1671462000253278273,344924,1671462000286942507,gps,2,1,42.3009742497,-83.6978762399,272.367370605,0.000121,0.0,0.0,0.0,0.000144,0.0,0.0,0.0,0.002209,2
1671462000263651176,344925,1671462000296912849,gps,2,1,42.3009742493,-83.6978762406,272.367401123,0.000121,0.0,0.0,0.0,0.000144,0.0,0.0,0.0,0.002209,2
1671462000273152200,344926,1671462000306876859,gps,2,1,42.3009742482,-83.6978762394,272.367401123,0.000121,0.0,0.0,0.0,0.000144,0.0,0.0,0.0,0.002209,2
1671462000283094900,344927,1671462000316949281,gps,2,1,42.3009742482,-83.6978762402,272.367431641,0.000121,0.0,0.0,0.0,0.000144,0.0,0.0,0.0,0.002209,2
1671462000293134409,344928,1671462000326889676,gps,2,1,42.3009742482,-83.6978762407,272.367431641,0.000121,0.0,0.0,0.0,0.000144,0.0,0.0,0.0,0.002209,2
1671462000303216351,344929,1671462000336893289,gps,2,1,42.3009742471,-83.6978762396,272.367431641,0.000121,0.0,0.0,0.0,0.000144,0.0,0.0,0.0,0.002209,2
1671462000313576320,344930,1671462000346951304,gps,2,1,42.3009742469,-83.6978762403,272.367462158,0.000121,0.0,0.0,0.0,0.000144,0.0,0.0,0.0,0.002209,2
1671462000323100475,344931,1671462000356892531,gps,2,1,42.3009742474,-83.6978762409,272.367431641,0.000121,0.0,0.0,0.0,0.000144,0.0,0.0,0.0,0.002209,2
1671462000333571310,344932,1671462000366884457,gps,2,1,42.3009742462,-83.6978762399,272.367431641,0.000121,0.0,0.0,0.0,0.000144,0.0,0.0,0.0,0.002209,2
1671462000343342926,344933,1671462000376950146,gps,2,1,42.3009742462,-83.6978762405,272.367462158,0.000121,0.0,0.0,0.0,0.000144,0.0,0.0,0.0,0.002209,2
1671462000353392509,344934,1671462000386979024,gps,2,1,42.3009742469,-83.6978762412,272.367431641,0.000121,0.0,0.0,0.0,0.000144,0.0,0.0,0.0,0.002209,2
1671462000363404857,344935,1671462000396898870,gps,2,1,42.3009742456,-83.6978762402,272.367431641,0.000121,0.0,0.0,0.0,0.000144,0.0,0.0,0.0,0.002209,2
1671462000373400365,344936,1671462000406977455,gps,2,1,42.300974246,-83.6978762407,272.367431641,0.000121,0.0,0.0,0.0,0.000144,0.0,0.0,0.0,0.002209,2
1671462000383412705,344937,1671462000416980691,gps,2,1,42.3009742466,-83.6978762416,272.367431641,0.000121,0.0,0.0,0.0,0.000144,0.0,0.0,0.0,0.002209,2
1671462000393307092,344938,1671462000426881340,gps,2,1,42.3009742452,-83.6978762406,272.367431641,0.000121,0.0,0.0,0.0,0.000144,0.0,0.0,0.0,0.002209,2
1671462000403308967,344939,1671462000436941272,gps,2,1,42.3009742458,-83.6978762413,272.367431641,0.000121,0.0,0.0,0.0,0.000144,0.0,0.0,0.0,0.002209,2
1671462000413304744,344940,1671462000446881042,gps,2,1,42.3009742458,-83.6978762422,272.367431641,0.000121,0.0,0.0,0.0,0.000144,0.0,0.0,0.0,0.002209,2
1671462000423164641,344941,1671462000456886846,gps,2,1,42.3009742446,-83.6978762412,272.367431641,0.000121,0.0,0.0,0.0,0.000144,0.0,0.0,0.0,0.002209,2
1671462000433554122,344942,1671462000466952408,gps,2,1,42.3009742451,-83.697876242,272.367431641,0.000121,0.0,0.0,0.0,0.000144,0.0,0.0,0.0,0.002209,2
1671462000443484508,344943,1671462000476889245,gps,2,1,42.3009742447,-83.6978762428,272.367462158,0.000121,0.0,0.0,0.0,0.000144,0.0,0.0,0.0,0.002209,2
1671462000453770891,344944,1671462000486881721,gps,2,1,42.3009742437,-83.6978762419,272.367462158,0.000121,0.0,0.0,0.0,0.000144,0.0,0.0,0.0,0.002209,2
1671462000463663113,344945,1671462000496884574,gps,2,1,42.3009742439,-83.6978762428,272.367492676,0.000121,0.0,0.0,0.0,0.000144,0.0,0.0,0.0,0.002209,2
1671462000473386085,344946,1671462000506953539,gps,2,1,42.3009742437,-83.6978762433,272.367492676,0.000121,0.0,0.0,0.0,0.000144,0.0,0.0,0.0,0.002209,2
1671462000483635934,344947,1671462000516886214,gps,2,1,42.3009742427,-83.6978762426,272.367492676,0.000121,0.0,0.0,0.0,0.000144,0.0,0.0,0.0,0.002209,2
1671462000493753606,344948,1671462000526975782,gps,2,1,42.3009742426,-83.6978762433,272.367523193,0.000121,0.0,0.0,0.0,0.000144,0.0,0.0,0.0,0.002209,2
1671462000503467746,344949,1671462000537039702,gps,2,1,42.3009742429,-83.6978762438,272.367523193,0.000121,0.0,0.0,0.0,0.000144,0.0,0.0,0.0,0.002209,2
1671462000513325815,344950,1671462000546905321,gps,2,1,42.3009742413,-83.6978762414,272.367584229,0.000121,0.0,0.0,0.0,0.000144,0.0,0.0,0.0,0.002209,2
1671462000523376001,344951,1671462000556978852,gps,2,1,42.3009742412,-83.6978762421,272.367614746,0.000121,0.0,0.0,0.0,0.000144,0.0,0.0,0.0,0.002209,2
1671462000533312727,344952,1671462000566951494,gps,2,1,42.3009742419,-83.6978762427,272.367584229,0.000121,0.0,0.0,0.0,0.000144,0.0,0.0,0.0,0.002209,2
1671462000543252135,344953,1671462000576938163,gps,2,1,42.3009742403,-83.6978762404,272.367675781,0.000121,0.0,0.0,0.0,0.000144,0.0,0.0,0.0,0.002209,2
1671462000553351457,344954,1671462000586984918,gps,2,1,42.3009742405,-83.697876241,272.367675781,0.000121,0.0,0.0,0.0,0.000144,0.0,0.0,0.0,0.002209,2
1671462000563646635,344955,1671462000596967688,gps,2,1,42.3009742413,-83.6978762418,272.367645264,0.000121,0.0,0.0,0.0,0.000144,0.0,0.0,0.0,0.002209,2
1671462000573612283,344956,1671462000606884236,gps,2,1,42.3009742396,-83.6978762394,272.367736816,0.000121,0.0,0.0,0.0,0.000144,0.0,0.0,0.0,0.002209,2
1671462000583519353,344957,1671462000616892050,gps,2,1,42.3009742402,-83.6978762401,272.367706299,0.000121,0.0,0.0,0.0,0.000144,0.0,0.0,0.0,0.002209,2
1671462000593536849,344958,1671462000626945815,gps,2,1,42.3009742404,-83.697876241,272.367706299,0.000121,0.0,0.0,0.0,0.000144,0.0,0.0,0.0,0.002209,2
1671462000603550623,344959,1671462000636889732,gps,2,1,42.3009742388,-83.6978762387,272.367797852,0.000121,0.0,0.0,0.0,0.000144,0.0,0.0,0.0,0.002209,2
1671462000613526950,344960,1671462000646890055,gps,2,1,42.3009742394,-83.6978762395,272.367767334,0.000121,0.0,0.0,0.0,0.000144,0.0,0.0,0.0,0.002209,2
1671462000623363164,344961,1671462000656964202,gps,2,1,42.3009742392,-83.6978762403,272.367797852,0.000121,0.0,0.0,0.0,0.000144,0.0,0.0,0.0,0.002209,2
1671462000633518041,344962,1671462000666980644,gps,2,1,42.3009742379,-83.6978762381,272.367858887,0.000121,0.0,0.0,0.0,0.000144,0.0,0.0,0.0,0.002209,2
1671462000643235069,344963,1671462000676949582,gps,2,1,42.3009742381,-83.6978762389,272.367889404,0.000121,0.0,0.0,0.0,0.000144,0.0,0.0,0.0,0.002209,2
1671462000653487573,344964,1671462000686912809,gps,2,1,42.3009742379,-83.6978762395,272.367889404,0.000121,0.0,0.0,0.0,0.000144,0.0,0.0,0.0,0.002209,2
1671462000663066226,344965,1671462000696870777,gps,2,1,42.3009742367,-83.6978762374,272.367950439,0.000121,0.0,0.0,0.0,0.000144,0.0,0.0,0.0,0.002209,2
1671462000673206655,344966,1671462000706876074,gps,2,1,42.3009742365,-83.6978762382,272.367980957,0.000121,0.0,0.0,0.0,0.000144,0.0,0.0,0.0,0.002209,2
1671462000683212495,344967,1671462000716937199,gps,2,1,42.3009742367,-83.6978762387,272.367980957,0.000121,0.0,0.0,0.0,0.000144,0.0,0.0,0.0,0.002209,2
1671462000693208716,344968,1671462000726873961,gps,2,1,42.3009742354,-83.6978762367,272.368041992,0.000121,0.0,0.0,0.0,0.000144,0.0,0.0,0.0,0.002209,2
1671462000703167642,344969,1671462000736879323,gps,2,1,42.3009742353,-83.6978762374,272.36807251,0.000121,0.0,0.0,0.0,0.000144,0.0,0.0,0.0,0.002209,2
1671462000713641793,344970,1671462000746946921,gps,2,1,42.3009742359,-83.697876238,272.36807251,0.000121,0.0,0.0,0.0,0.000144,0.0,0.0,0.0,0.002209,2
1671462000723428206,344971,1671462000756889050,gps,2,1,42.3009742345,-83.6978762362,272.368133545,0.000121,0.0,0.0,0.0,0.000144,0.0,0.0,0.0,0.002209,2
1671462000733586030,344972,1671462000766949206,gps,2,1,42.3009742347,-83.6978762367,272.368133545,0.000121,0.0,0.0,0.0,0.000144,0.0,0.0,0.0,0.002209,2
1671462000743437579,344973,1671462000776900547,gps,2,1,42.3009742354,-83.6978762376,272.368133545,0.000121,0.0,0.0,0.0,0.000144,0.0,0.0,0.0,0.002209,2
1671462000753713199,344974,1671462000786886921,gps,2,1,42.300974234,-83.6978762357,272.36819458,0.000121,0.0,0.0,0.0,0.000144,0.0,0.0,0.0,0.002209,2
1671462000763304100,344975,1671462000796932583,gps,2,1,42.3009742344,-83.6978762363,272.36819458,0.000121,0.0,0.0,0.0,0.000144,0.0,0.0,0.0,0.002209,2
1671462000773228448,344976,1671462000806950872,gps,2,1,42.3009742347,-83.6978762372,272.36819458,0.000121,0.0,0.0,0.0,0.000144,0.0,0.0,0.0,0.002209,2
1671462000783200936,344977,1671462000816894253,gps,2,1,42.3009742334,-83.6978762353,272.368255615,0.000121,0.0,0.0,0.0,0.000144,0.0,0.0,0.0,0.002209,2
1671462000793167173,344978,1671462000826895786,gps,2,1,42.300974234,-83.6978762361,272.368255615,0.000121,0.0,0.0,0.0,0.000144,0.0,0.0,0.0,0.002209,2
1671462000803357209,344979,1671462000836986694,gps,2,1,42.3009742338,-83.6978762369,272.368286133,0.000121,0.0,0.0,0.0,0.000144,0.0,0.0,0.0,0.002209,2
1671462000813276770,344980,1671462000846887154,gps,2,1,42.3009742326,-83.6978762351,272.368347168,0.000121,0.0,0.0,0.0,0.000144,0.0,0.0,0.0,0.002209,2
1671462000823263847,344981,1671462000856896243,gps,2,1,42.3009742329,-83.6978762359,272.36831665,0.000121,0.0,0.0,0.0,0.000144,0.0,0.0,0.0,0.002209,2
1671462000833255958,344982,1671462000866942362,gps,2,1,42.3009742326,-83.6978762365,272.368347168,0.000121,0.0,0.0,0.0,0.000144,0.0,0.0,0.0,0.002209,2
1671462000843222646,344983,1671462000876881246,gps,2,1,42.3009742317,-83.6978762348,272.368377686,0.000121,0.0,0.0,0.0,0.000144,0.0,0.0,0.0,0.002209,2
1671462000853161917,344984,1671462000886921959,gps,2,1,42.3009742316,-83.6978762356,272.368408203,0.000121,0.0,0.0,0.0,0.000144,0.0,0.0,0.0,0.002209,2
1671462000863645869,344985,1671462000896969118,gps,2,1,42.3009742317,-83.6978762361,272.368408203,0.000121,0.0,0.0,0.0,0.000144,0.0,0.0,0.0,0.002209,2
1671462000873470695,344986,1671462000906889006,gps,2,1,42.3009742307,-83.6978762344,272.368438721,0.000121,0.0,0.0,0.0,0.000144,0.0,0.0,0.0,0.002209,2
1671462000883581465,344987,1671462000916989045,gps,2,1,42.3009742305,-83.697876235,272.368469238,0.000121,0.0,0.0,0.0,0.000144,0.0,0.0,0.0,0.002209,2
1671462000893385560,344988,1671462000926974919,gps,2,1,42.3009742311,-83.6978762356,272.368438721,0.000121,0.0,0.0,0.0,0.000144,0.0,0.0,0.0,0.002209,2
1671462000903468418,344989,1671462000936895963,gps,2,1,42.3009742301,-83.6978762343,272.368499756,0.000121,0.0,0.0,0.0,0.000144,0.0,0.0,0.0,0.002209,2
1671462000913522531,344990,1671462000946899721,gps,2,1,42.3009742302,-83.6978762348,272.368499756,0.000121,0.0,0.0,0.0,0.000144,0.0,0.0,0.0,0.002209,2
1671462000923398002,344991,1671462000956978252,gps,2,1,42.3009742309,-83.6978762355,272.368499756,0.000121,0.0,0.0,0.0,0.000144,0.0,0.0,0.0,0.002209,2
1671462000933449082,344992,1671462000966901506,gps,2,1,42.3009742298,-83.6978762342,272.368560791,0.000121,0.0,0.0,0.0,0.000144,0.0,0.0,0.0,0.002209,2
1671462000943334820,344993,1671462000976971192,gps,2,1,42.3009742302,-83.6978762348,272.368560791,0.000121,0.0,0.0,0.0,0.000144,0.0,0.0,0.0,0.002209,2
1671462000953313022,344994,1671462000986896897,gps,2,1,42.3009742305,-83.6978762357,272.368560791,0.000121,0.0,0.0,0.0,0.000144,0.0,0.0,0.0,0.002209,2
1671462000963354650,344995,1671462000996874078,gps,2,1,42.3009742294,-83.6978762345,272.368621826,0.000121,0.0,0.0,0.0,0.000144,0.0,0.0,0.0,0.002209,2
1671462000973257261,344996,1671462001006883254,gps,2,1,42.3009742299,-83.6978762352,272.368621826,0.000121,0.0,0.0,0.0,0.000144,0.0,0.0,0.0,0.002209,2
1671462000983236432,344997,1671462001016971027,gps,2,1,42.3009742298,-83.6978762361,272.368652344,0.000121,0.0,0.0,0.0,0.000144,0.0,0.0,0.0,0.002209,2
1671462000993143158,344998,1671462001026909234,gps,2,1,42.3009742287,-83.6978762349,272.368713379,0.000121,0.0,0.0,0.0,0.000144,0.0,0.0,0.0,0.002209,2
1671462001003900108,344999,1671462001036956428,gps,2,1,42.300974229,-83.6978762358,272.368713379,0.000121,0.0,0.0,0.0,0.000144,0.0,0.0,0.0,0.002209,2
1671462001013611227,345000,1671462001047044515,gps,2,1,42.3009742286,-83.6978762365,272.368743896,0.000121,0.0,0.0,0.0,0.000144,0.0,0.0,0.0,0.002209,2
1671462001023371650,345001,1671462001056979829,gps,2,1,42.3009742276,-83.6978762354,272.368804932,0.000121,0.0,0.0,0.0,0.000144,0.0,0.0,0.0,0.002209,2
1671462001033383298,345002,1671462001066971003,gps,2,1,42.3009742276,-83.6978762362,272.368804932,0.000121,0.0,0.0,0.0,0.000144,0.0,0.0,0.0,0.002209,2
1671462001043398168,345003,1671462001077018713,gps,2,1,42.3009742273,-83.6978762367,272.368835449,0.000121,0.0,0.0,0.0,0.000144,0.0,0.0,0.0,0.002209,2
1671462001053505287,345004,1671462001086898920,gps,2,1,42.3009742269,-83.6978762356,272.36895752,0.000121,0.0,0.0,0.0,0.000144,0.0,0.0,0.0,0.002209,2
1671462001063158420,345005,1671462001096945448,gps,2,1,42.3009742266,-83.6978762362,272.36895752,0.000121,0.0,0.0,0.0,0.000144,0.0,0.0,0.0,0.002209,2
1671462001073455545,345006,1671462001107057366,gps,2,1,42.300974227,-83.6978762368,272.36895752,0.000121,0.0,0.0,0.0,0.000144,0.0,0.0,0.0,0.002209,2
1671462001083337516,345007,1671462001116920588,gps,2,1,42.3009742265,-83.6978762356,272.369049072,0.000121,0.0,0.0,0.0,0.000144,0.0,0.0,0.0,0.002209,2
1671462001093336554,345008,1671462001126965208,gps,2,1,42.3009742264,-83.6978762362,272.36907959,0.000121,0.0,0.0,0.0,0.000144,0.0,0.0,0.0,0.002209,2
1671462001103381205,345009,1671462001136962530,gps,2,1,42.3009742271,-83.6978762368,272.369049072,0.000121,0.0,0.0,0.0,0.000144,0.0,0.0,0.0,0.002209,2
1671462001113261448,345010,1671462001146906913,gps,2,1,42.3009742266,-83.6978762357,272.369140625,0.000121,0.0,0.0,0.0,0.000144,0.0,0.0,0.0,0.002209,2
1671462001123192293,345011,1671462001156891876,gps,2,1,42.3009742268,-83.6978762363,272.369140625,0.000121,0.0,0.0,0.0,0.000144,0.0,0.0,0.0,0.002209,2
1671462001133756816,345012,1671462001167065392,gps,2,1,42.3009742274,-83.6978762371,272.369140625,0.000121,0.0,0.0,0.0,0.000144,0.0,0.0,0.0,0.002209,2
1671462001143518982,345013,1671462001176921936,gps,2,1,42.3009742268,-83.6978762361,272.369232178,0.000121,0.0,0.0,0.0,0.000144,0.0,0.0,0.0,0.002209,2
1671462001153477854,345014,1671462001186899050,gps,2,1,42.3009742274,-83.6978762368,272.369232178,0.000121,0.0,0.0,0.0,0.000144,0.0,0.0,0.0,0.002209,2
1671462001163251540,345015,1671462001196952167,gps,2,1,42.3009742275,-83.6978762378,272.369262695,0.000121,0.0,0.0,0.0,0.000144,0.0,0.0,0.0,0.002209,2
1671462001173466855,345016,1671462001206898260,gps,2,1,42.300974227,-83.6978762369,272.369354248,0.000121,0.0,0.0,0.0,0.000144,0.0,0.0,0.0,0.002209,2
1671462001183522671,345017,1671462001216899582,gps,2,1,42.3009742275,-83.6978762378,272.369354248,0.000121,0.0,0.0,0.0,0.000144,0.0,0.0,0.0,0.002209,2
1671462001193364334,345018,1671462001227013556,gps,2,1,42.3009742272,-83.6978762386,272.369384766,0.000121,0.0,0.0,0.0,0.000144,0.0,0.0,0.0,0.002209,2
1671462001203348950,345019,1671462001236920850,gps,2,1,42.3009742269,-83.6978762378,272.369476318,0.000121,0.0,0.0,0.0,0.000144,0.0,0.0,0.0,0.002209,2
1671462001213403759,345020,1671462001246960012,gps,2,1,42.300974227,-83.6978762391,272.369506836,0.000121,0.0,0.0,0.0,0.000144,0.0,0.0,0.0,0.002209,2
1671462001223279761,345021,1671462001256896223,gps,2,1,42.3009742268,-83.6978762399,272.369537354,0.000121,0.0,0.0,0.0,0.000144,0.0,0.0,0.0,0.002209,2
1671462001233316090,345022,1671462001266885537,gps,2,1,42.3009742265,-83.6978762396,272.369598389,0.000121,0.0,0.0,0.0,0.000144,0.0,0.0,0.0,0.002209,2
1671462001243263910,345023,1671462001276902988,gps,2,1,42.3009742264,-83.6978762414,272.369628906,0.000121,0.0,0.0,0.0,0.000144,0.0,0.0,0.0,0.002209,2
1671462001253401982,345024,1671462001286987375,gps,2,1,42.3009742266,-83.6978762426,272.369628906,0.000121,0.0,0.0,0.0,0.000144,0.0,0.0,0.0,0.002209,2
1671462001263555568,345025,1671462001296910165,gps,2,1,42.3009742263,-83.697876243,272.369720459,0.000121,0.0,0.0,0.0,0.000144,0.0,0.0,0.0,0.002209,2
1671462001273166651,345026,1671462001306907233,gps,2,1,42.3009742261,-83.6978762454,272.369720459,0.000121,0.0,0.0,0.0,0.000144,0.0,0.0,0.0,0.002209,2
1671462001283523462,345027,1671462001316960911,gps,2,1,42.3009742266,-83.6978762471,272.369720459,0.000121,0.0,0.0,0.0,0.000144,0.0,0.0,0.0,0.002209,2
1671462001293671917,345028,1671462001326987437,gps,2,1,42.3009742262,-83.6978762481,272.369781494,0.000121,0.0,0.0,0.0,0.000144,0.0,0.0,0.0,0.002209,2
1671462001303598491,345029,1671462001336924096,gps,2,1,42.3009742262,-83.6978762512,272.369781494,0.000121,0.0,0.0,0.0,0.000144,0.0,0.0,0.0,0.002209,2
1671462001313682112,345030,1671462001346966867,gps,2,1,42.3009742268,-83.6978762537,272.369781494,0.000121,0.0,0.0,0.0,0.000144,0.0,0.0,0.0,0.002209,2
1671462001323242932,345031,1671462001356885107,gps,2,1,42.3009742262,-83.6978762554,272.369842529,0.000121,0.0,0.0,0.0,0.000144,0.0,0.0,0.0,0.002209,2
1671462001333298972,345032,1671462001366904596,gps,2,1,42.3009742266,-83.697876259,272.369842529,0.000121,0.0,0.0,0.0,0.000144,0.0,0.0,0.0,0.002209,2
1671462001343322197,345033,1671462001376963191,gps,2,1,42.3009742267,-83.6978762623,272.369842529,0.000121,0.0,0.0,0.0,0.000144,0.0,0.0,0.0,0.002209,2
1671462001353662155,345034,1671462001386907814,gps,2,1,42.3009742262,-83.6978762649,272.369903564,0.000121,0.0,0.0,0.0,0.000144,0.0,0.0,0.0,0.002209,2
1671462001363334281,345035,1671462001396909696,gps,2,1,42.3009742266,-83.6978762694,272.369903564,0.000121,0.0,0.0,0.0,0.000144,0.0,0.0,0.0,0.002209,2
1671462001373340160,345036,1671462001406962058,gps,2,1,42.3009742262,-83.6978762734,272.369903564,0.000121,0.0,0.0,0.0,0.000144,0.0,0.0,0.0,0.002209,2
1671462001383325090,345037,1671462001416979015,gps,2,1,42.3009742258,-83.6978762767,272.3699646,0.000121,0.0,0.0,0.0,0.000144,0.0,0.0,0.0,0.002209,2
1671462001393411674,345038,1671462001426917949,gps,2,1,42.300974226,-83.6978762822,272.3699646,0.000121,0.0,0.0,0.0,0.000144,0.0,0.0,0.0,0.002209,2
1671462001403301585,345039,1671462001436975835,gps,2,1,42.3009742255,-83.6978762869,272.369995117,0.000121,0.0,0.0,0.0,0.000144,0.0,0.0,0.0,0.002209,2
1671462001413289500,345040,1671462001446891543,gps,2,1,42.3009742251,-83.6978762912,272.370025635,0.000121,0.0,0.0,0.0,0.000144,0.0,0.0,0.0,0.002209,2
1671462001423587951,345041,1671462001456963581,gps,2,1,42.3009742249,-83.6978762977,272.370056152,0.000121,0.0,0.0,0.0,0.000144,0.0,0.0,0.0,0.002209,2
1671462001433138832,345042,1671462001466911646,gps,2,1,42.3009742248,-83.6978763035,272.370025635,0.000121,0.0,0.0,0.0,0.000144,0.0,0.0,0.0,0.002209,2
1671462001443715523,345043,1671462001476895550,gps,2,1,42.3009742245,-83.6978763089,272.37008667,0.000121,0.0,0.0,0.0,0.000144,0.0,0.0,0.0,0.002209,2
1671462001453776922,345044,1671462001486958364,gps,2,1,42.300974224,-83.6978763168,272.37008667,0.000121,0.0,0.0,0.0,0.000144,0.0,0.0,0.0,0.002209,2
1671462001463575786,345045,1671462001496916092,gps,2,1,42.3009742245,-83.6978763232,272.370056152,0.000121,0.0,0.0,0.0,0.000144,0.0,0.0,0.0,0.002209,2
1671462001473618781,345046,1671462001506902460,gps,2,1,42.300974224,-83.6978763298,272.370117188,0.000121,0.0,0.0,0.0,0.000144,0.0,0.0,0.0,0.002209,2
1671462001483346595,345047,1671462001516904887,gps,2,1,42.3009742238,-83.6978763387,272.370117188,0.000121,0.0,0.0,0.0,0.000144,0.0,0.0,0.0,0.002209,2
1671462001493354695,345048,1671462001526970173,gps,2,1,42.3009742245,-83.6978763465,272.37008667,0.000121,0.0,0.0,0.0,0.000144,0.0,0.0,0.0,0.002209,2
1671462001503533890,345049,1671462001536965382,gps,2,1,42.3009742239,-83.6978763544,272.370147705,0.000121,0.0,0.0,0.0,0.000144,0.0,0.0,0.0,0.002209,2
1671462001513452209,345050,1671462001547045851,gps,2,1,42.3009742242,-83.6978763645,272.370147705,0.000121,0.0,0.0,0.0,0.000144,0.0,0.0,0.0,0.002209,2
1671462001523419201,345051,1671462001556925654,gps,2,1,42.3009742245,-83.6978763734,272.370147705,0.000121,0.0,0.0,0.0,0.000144,0.0,0.0,0.0,0.002209,2
1671462001533367700,345052,1671462001566937448,gps,2,1,42.3009742246,-83.6978763814,272.37008667,0.000121,0.0,0.0,0.0,0.000144,0.0,0.0,0.0,0.002209,2
1671462001543674190,345053,1671462001577029205,gps,2,1,42.3009742251,-83.6978763927,272.37008667,0.000121,0.0,0.0,0.0,0.000144,0.0,0.0,0.0,0.002209,2
1671462001553368475,345054,1671462001586954050,gps,2,1,42.3009742246,-83.6978764033,272.370117188,0.000121,0.0,0.0,0.0,0.000144,0.0,0.0,0.0,0.002209,2
1671462001563224483,345055,1671462001596985882,gps,2,1,42.3009742248,-83.6978764127,272.370025635,0.000121,0.0,0.0,0.0,0.000144,0.0,0.0,0.0,0.002209,2
1671462001573515018,345056,1671462001606973832,gps,2,1,42.3009742251,-83.6978764253,272.370056152,0.000121,0.0,0.0,0.0,0.000144,0.0,0.0,0.0,0.002209,2
1671462001583557320,345057,1671462001616902571,gps,2,1,42.3009742243,-83.6978764373,272.370056152,0.000121,0.0,0.0,0.0,0.000144,0.0,0.0,0.0,0.002209,2
1671462001593423297,345058,1671462001626896577,gps,2,1,42.3009742246,-83.697876448,272.369995117,0.000121,0.0,0.0,0.0,0.000144,0.0,0.0,0.0,0.002209,2
1671462001603389743,345059,1671462001636963163,gps,2,1,42.3009742243,-83.6978764623,272.370025635,0.000121,0.0,0.0,0.0,0.000144,0.0,0.0,0.0,0.002209,2
1671462001613567903,345060,1671462001646906860,gps,2,1,42.300974224,-83.6978764752,272.370025635,0.000121,0.0,0.0,0.0,0.000144,0.0,0.0,0.0,0.002209,2
1671462001623470371,345061,1671462001656893250,gps,2,1,42.3009742243,-83.6978764874,272.3699646,0.000121,0.0,0.0,0.0,0.000144,0.0,0.0,0.0,0.002209,2
1671462001633511595,345062,1671462001667070313,gps,2,1,42.3009742237,-83.6978765029,272.3699646,0.000121,0.0,0.0,0.0,0.000144,0.0,0.0,0.0,0.002209,2
1671462001643321739,345063,1671462001676910003,gps,2,1,42.3009742242,-83.6978765172,272.369934082,0.000121,0.0,0.0,0.0,0.000144,0.0,0.0,0.0,0.002209,2
1671462001653612322,345064,1671462001686887957,gps,2,1,42.3009742243,-83.6978765307,272.369903564,0.000121,0.0,0.0,0.0,0.000144,0.0,0.0,0.0,0.002209,2
1671462001663359545,345065,1671462001696965036,gps,2,1,42.3009742241,-83.6978765476,272.369903564,0.000121,0.0,0.0,0.0,0.000144,0.0,0.0,0.0,0.002209,2
1671462001673400673,345066,1671462001706890771,gps,2,1,42.3009742249,-83.6978765628,272.369873047,0.000121,0.0,0.0,0.0,0.000144,0.0,0.0,0.0,0.002209,2
1671462001683313435,345067,1671462001716887686,gps,2,1,42.3009742248,-83.6978765778,272.369842529,0.000121,0.0,0.0,0.0,0.000144,0.0,0.0,0.0,0.002209,2
1671462001693634615,345068,1671462001726957844,gps,2,1,42.3009742252,-83.6978765957,272.369812012,0.000121,0.0,0.0,0.0,0.000144,0.0,0.0,0.0,0.002209,2
1671462001703198035,345069,1671462001736910758,gps,2,1,42.3009742257,-83.6978766128,272.369812012,0.000121,0.0,0.0,0.0,0.000144,0.0,0.0,0.0,0.002209,2
1671462001713194832,345070,1671462001746895828,gps,2,1,42.3009742255,-83.6978766292,272.369781494,0.000121,0.0,0.0,0.0,0.000144,0.0,0.0,0.0,0.002209,2
1671462001723556882,345071,1671462001756904282,gps,2,1,42.3009742262,-83.6978766485,272.369750977,0.000121,0.0,0.0,0.0,0.000144,0.0,0.0,0.0,0.002209,2
1671462001733568301,345072,1671462001766962635,gps,2,1,42.3009742256,-83.6978766669,272.369781494,0.000121,0.0,0.0,0.0,0.000144,0.0,0.0,0.0,0.002209,2
1671462001743504782,345073,1671462001776908316,gps,2,1,42.3009742257,-83.6978766847,272.369720459,0.000121,0.0,0.0,0.0,0.000144,0.0,0.0,0.0,0.002209,2
1671462001753622749,345074,1671462001786905257,gps,2,1,42.300974226,-83.6978767055,272.369720459,0.000121,0.0,0.0,0.0,0.000144,0.0,0.0,0.0,0.002209,2
1671462001763445308,345075,1671462001796979451,gps,2,1,42.300974225,-83.6978767254,272.369750977,0.000121,0.0,0.0,0.0,0.000144,0.0,0.0,0.0,0.002209,2
1671462001773520413,345076,1671462001806920923,gps,2,1,42.3009742253,-83.6978767446,272.369689941,0.000121,0.0,0.0,0.0,0.000144,0.0,0.0,0.0,0.002209,2
1671462001783552562,345077,1671462001816924816,gps,2,1,42.3009742248,-83.6978767669,272.369689941,0.000121,0.0,0.0,0.0,0.000144,0.0,0.0,0.0,0.002209,2
1671462001793360324,345078,1671462001826973173,gps,2,1,42.3009742245,-83.6978767882,272.369689941,0.000121,0.0,0.0,0.0,0.000144,0.0,0.0,0.0,0.002209,2
1671462001803422418,345079,1671462001836892066,gps,2,1,42.3009742248,-83.6978768089,272.369659424,0.000121,0.0,0.0,0.0,0.000144,0.0,0.0,0.0,0.002209,2
1671462001813363405,345080,1671462001846987293,gps,2,1,42.300974224,-83.6978768329,272.369659424,0.000121,0.0,0.0,0.0,0.000144,0.0,0.0,0.0,0.002209,2
1671462001823587246,345081,1671462001856897259,gps,2,1,42.3009742245,-83.6978768549,272.369628906,0.000121,0.0,0.0,0.0,0.000144,0.0,0.0,0.0,0.002209,2
1671462001833288237,345082,1671462001866890113,gps,2,1,42.3009742245,-83.697876877,272.369598389,0.000121,0.0,0.0,0.0,0.000144,0.0,0.0,0.0,0.002209,2
1671462001843156125,345083,1671462001876909327,gps,2,1,42.3009742241,-83.6978769021,272.369598389,0.000121,0.0,0.0,0.0,0.000144,0.0,0.0,0.0,0.002209,2
1671462001853686281,345084,1671462001886972800,gps,2,1,42.3009742252,-83.6978769259,272.369598389,0.000121,0.0,0.0,0.0,0.000144,0.0,0.0,0.0,0.002209,2
1671462001863513328,345085,1671462001896926917,gps,2,1,42.300974225,-83.6978769497,272.369567871,0.000121,0.0,0.0,0.0,0.000144,0.0,0.0,0.0,0.002209,2
1671462001873702214,345086,1671462001906903187,gps,2,1,42.3009742254,-83.6978769761,272.369567871,0.000121,0.0,0.0,0.0,0.000144,0.0,0.0,0.0,0.002209,2
1671462001883529889,345087,1671462001917078830,gps,2,1,42.300974226,-83.6978770013,272.369537354,0.000121,0.0,0.0,0.0,0.000144,0.0,0.0,0.0,0.002209,2
1671462001893661514,345088,1671462001926918110,gps,2,1,42.3009742256,-83.6978770268,272.369506836,0.000121,0.0,0.0,0.0,0.000144,0.0,0.0,0.0,0.002209,2
1671462001903454487,345089,1671462001936913827,gps,2,1,42.3009742264,-83.6978770549,272.369506836,0.000121,0.0,0.0,0.0,0.000144,0.0,0.0,0.0,0.002209,2
1671462001913449014,345090,1671462001946969067,gps,2,1,42.3009742258,-83.6978770818,272.369537354,0.000121,0.0,0.0,0.0,0.000144,0.0,0.0,0.0,0.002209,2
1671462001923380147,345091,1671462001956909891,gps,2,1,42.3009742257,-83.6978771088,272.369476318,0.000121,0.0,0.0,0.0,0.000144,0.0,0.0,0.0,0.002209,2
1671462001933488405,345092,1671462001966906493,gps,2,1,42.3009742261,-83.6978771384,272.369476318,0.000121,0.0,0.0,0.0,0.000144,0.0,0.0,0.0,0.002209,2
1671462001943571237,345093,1671462001976985926,gps,2,1,42.300974225,-83.6978771675,272.369506836,0.000121,0.0,0.0,0.0,0.000144,0.0,0.0,0.0,0.002209,2
1671462001953491479,345094,1671462001986893793,gps,2,1,42.3009742251,-83.6978771961,272.369476318,0.000121,0.0,0.0,0.0,0.000144,0.0,0.0,0.0,0.002209,2
1671462001963355197,345095,1671462001996899566,gps,2,1,42.3009742247,-83.6978772275,272.369476318,0.000121,0.0,0.0,0.0,0.000144,0.0,0.0,0.0,0.002209,2
1671462001973292826,345096,1671462002006966292,gps,2,1,42.3009742244,-83.6978772575,272.369476318,0.000121,0.0,0.0,0.0,0.000144,0.0,0.0,0.0,0.002209,2
1671462001983260981,345097,1671462002016892252,gps,2,1,42.3009742245,-83.6978772877,272.369445801,0.000121,0.0,0.0,0.0,0.000144,0.0,0.0,0.0,0.002209,2
1671462001993440136,345098,1671462002026906562,gps,2,1,42.3009742236,-83.6978773208,272.369476318,0.000121,0.0,0.0,0.0,0.000144,0.0,0.0,0.0,0.002209,2
1671462002003558690,345099,1671462002037106544,gps,2,1,42.3009742243,-83.6978773521,272.369445801,0.000121,0.0,0.0,0.0,0.000144,0.0,0.0,0.0,0.002209,2
1671462002013452068,345100,1671462002047009656,gps,2,1,42.3009742234,-83.697877384,272.36932373,0.000121,0.0,0.0,0.0,0.000144,0.0,0.0,0.0,0.002209,2
1671462002023820481,345101,1671462002056996698,gps,2,1,42.3009742229,-83.6978774185,272.36932373,0.000121,0.0,0.0,0.0,0.000144,0.0,0.0,0.0,0.002209,2
1671462002033377462,345102,1671462002066989272,gps,2,1,42.300974224,-83.6978774511,272.36932373,0.000121,0.0,0.0,0.0,0.000144,0.0,0.0,0.0,0.002209,2
1671462002043539185,345103,1671462002076981473,gps,2,1,42.3009742228,-83.6978774846,272.36920166,0.000121,0.0,0.0,0.0,0.000144,0.0,0.0,0.0,0.002209,2
1671462002053538655,345104,1671462002086995055,gps,2,1,42.3009742232,-83.6978775203,272.36920166,0.000121,0.0,0.0,0.0,0.000144,0.0,0.0,0.0,0.002209,2
1671462002063465159,345105,1671462002097015046,gps,2,1,42.3009742237,-83.6978775548,272.36920166,0.000121,0.0,0.0,0.0,0.000144,0.0,0.0,0.0,0.002209,2
1671462002073597521,345106,1671462002106953258,gps,2,1,42.3009742225,-83.6978775899,272.36907959,0.000121,0.0,0.0,0.0,0.000144,0.0,0.0,0.0,0.002209,2
1671462002083429089,345107,1671462002117004736,gps,2,1,42.3009742233,-83.697877627,272.36907959,0.000121,0.0,0.0,0.0,0.000144,0.0,0.0,0.0,0.002209,2
1671462002093482444,345108,1671462002126906419,gps,2,1,42.3009742223,-83.6978776635,272.36907959,0.000121,0.0,0.0,0.0,0.000144,0.0,0.0,0.0,0.002209,2
1671462002103295865,345109,1671462002136943401,gps,2,1,42.3009742214,-83.6978777001,272.368988037,0.000121,0.0,0.0,0.0,0.000144,0.0,0.0,0.0,0.002209,2
1671462002113250707,345110,1671462002146936374,gps,2,1,42.3009742217,-83.6978777392,272.368988037,0.000121,0.0,0.0,0.0,0.000144,0.0,0.0,0.0,0.002209,2
1671462002123341407,345111,1671462002157000911,gps,2,1,42.3009742201,-83.6978777772,272.368988037,0.000121,0.0,0.0,0.0,0.000144,0.0,0.0,0.0,0.002209,2
1671462002133967210,345112,1671462002167066139,gps,2,1,42.3009742195,-83.6978778154,272.368865967,0.000121,0.0,0.0,0.0,0.000144,0.0,0.0,0.0,0.002209,2
1671462002143561309,345113,1671462002177011344,gps,2,1,42.3009742187,-83.6978778563,272.368865967,0.000121,0.0,0.0,0.0,0.000144,0.0,0.0,0.0,0.002209,2
1671462002153671609,345114,1671462002186962465,gps,2,1,42.3009742182,-83.6978778958,272.368865967,0.000121,0.0,0.0,0.0,0.000144,0.0,0.0,0.0,0.002209,2
1671462002163637756,345115,1671462002196954984,gps,2,1,42.3009742175,-83.6978779357,272.368743896,0.000121,0.0,0.0,0.0,0.000144,0.0,0.0,0.0,0.002209,2
1671462002173768865,345116,1671462002207014714,gps,2,1,42.3009742164,-83.6978779783,272.368743896,0.000121,0.0,0.0,0.0,0.000144,0.0,0.0,0.0,0.002209,2
1671462002183395771,345117,1671462002217004188,gps,2,1,42.3009742171,-83.697878019,272.368713379,0.000121,0.0,0.0,0.0,0.000144,0.0,0.0,0.0,0.002209,2
1671462002193282243,345118,1671462002226975926,gps,2,1,42.3009742161,-83.6978780606,272.368621826,0.000121,0.0,0.0,0.0,0.000144,0.0,0.0,0.0,0.002209,2
1671462002203519857,345119,1671462002236970375,gps,2,1,42.3009742155,-83.6978781045,272.368591309,0.000121,0.0,0.0,0.0,0.000144,0.0,0.0,0.0,0.002209,2
1671462002213565533,345120,1671462002246985813,gps,2,1,42.3009742165,-83.6978781466,272.368560791,0.000121,0.0,0.0,0.0,0.000144,0.0,0.0,0.0,0.002209,2
1671462002223366006,345121,1671462002256895646,gps,2,1,42.3009742152,-83.6978781899,272.368469238,0.000121,0.0,0.0,0.0,0.000144,0.0,0.0,0.0,0.002209,2
1671462002233296887,345122,1671462002266893549,gps,2,1,42.3009742154,-83.6978782352,272.368438721,0.000121,0.0,0.0,0.0,0.000144,0.0,0.0,0.0,0.002209,2
1671462002243364511,345123,1671462002276960006,gps,2,1,42.3009742157,-83.6978782791,272.368438721,0.000121,0.0,0.0,0.0,0.000144,0.0,0.0,0.0,0.002209,2
1671462002253378301,345124,1671462002286917103,gps,2,1,42.3009742145,-83.6978783241,272.368347168,6.4e-05,0.0,0.0,0.0,0.0001,0.0,0.0,0.0,0.002116,2
1671462002263232480,345125,1671462002296942082,gps,2,1,42.300974215,-83.697878371,272.36831665,6.4e-05,0.0,0.0,0.0,0.0001,0.0,0.0,0.0,0.002116,2
1671462002273584470,345126,1671462002306976619,gps,2,1,42.3009742139,-83.6978784172,272.36831665,6.4e-05,0.0,0.0,0.0,0.0001,0.0,0.0,0.0,0.002116,2
1671462002283331922,345127,1671462002316907955,gps,2,1,42.3009742129,-83.6978784639,272.368225098,6.4e-05,0.0,0.0,0.0,0.0001,0.0,0.0,0.0,0.002116,2
1671462002293511785,345128,1671462002326909846,gps,2,1,42.3009742129,-83.6978785129,272.36819458,6.4e-05,0.0,0.0,0.0,0.0001,0.0,0.0,0.0,0.002116,2
1671462002303533087,345129,1671462002336973570,gps,2,1,42.3009742113,-83.6978785608,272.36819458,6.4e-05,0.0,0.0,0.0,0.0001,0.0,0.0,0.0,0.002116,2
1671462002313315203,345130,1671462002346963411,gps,2,1,42.3009742105,-83.6978786092,272.36807251,6.4e-05,0.0,0.0,0.0,0.0001,0.0,0.0,0.0,0.002116,2
1671462002323268954,345131,1671462002356915721,gps,2,1,42.3009742097,-83.6978786605,272.368041992,6.4e-05,0.0,0.0,0.0,0.0001,0.0,0.0,0.0,0.002116,2
1671462002333503016,345132,1671462002366973196,gps,2,1,42.3009742089,-83.6978787099,272.368011475,6.4e-05,0.0,0.0,0.0,0.0001,0.0,0.0,0.0,0.002116,2
1671462002343312803,345133,1671462002376911427,gps,2,1,42.3009742082,-83.6978787603,272.367919922,6.4e-05,0.0,0.0,0.0,0.0001,0.0,0.0,0.0,0.002116,2
1671462002353690503,345134,1671462002386996114,gps,2,1,42.300974207,-83.6978788136,272.367858887,6.4e-05,0.0,0.0,0.0,0.0001,0.0,0.0,0.0,0.002116,2
1671462002363356213,345135,1671462002396974317,gps,2,1,42.3009742073,-83.6978788646,272.367797852,6.4e-05,0.0,0.0,0.0,0.0001,0.0,0.0,0.0,0.002116,2
1671462002373261457,345136,1671462002406903456,gps,2,1,42.3009742063,-83.6978789173,272.367675781,6.4e-05,0.0,0.0,0.0,0.0001,0.0,0.0,0.0,0.002116,2
1671462002383268881,345137,1671462002416993111,gps,2,1,42.3009742056,-83.6978789725,272.367614746,6.4e-05,0.0,0.0,0.0,0.0001,0.0,0.0,0.0,0.002116,2
1671462002393245487,345138,1671462002426978479,gps,2,1,42.3009742064,-83.6978790256,272.367553711,6.4e-05,0.0,0.0,0.0,0.0001,0.0,0.0,0.0,0.002116,2
1671462002403372059,345139,1671462002436904914,gps,2,1,42.3009742052,-83.6978790806,272.367431641,6.4e-05,0.0,0.0,0.0,0.0001,0.0,0.0,0.0,0.002116,2
1671462002413264614,345140,1671462002446922972,gps,2,1,42.3009742053,-83.6978791379,272.367340088,6.4e-05,0.0,0.0,0.0,0.0001,0.0,0.0,0.0,0.002116,2
1671462002423498562,345141,1671462002456969434,gps,2,1,42.3009742054,-83.6978791933,272.367279053,6.4e-05,0.0,0.0,0.0,0.0001,0.0,0.0,0.0,0.002116,2
1671462002433619148,345142,1671462002466914853,gps,2,1,42.3009742042,-83.6978792508,272.367156982,6.4e-05,0.0,0.0,0.0,0.0001,0.0,0.0,0.0,0.002116,2
1671462002443710088,345143,1671462002476916059,gps,2,1,42.3009742045,-83.6978793103,272.36706543,6.4e-05,0.0,0.0,0.0,0.0001,0.0,0.0,0.0,0.002116,2
1671462002453507946,345144,1671462002486969367,gps,2,1,42.3009742033,-83.6978793686,272.367004395,6.4e-05,0.0,0.0,0.0,0.0001,0.0,0.0,0.0,0.002116,2
1671462002463539917,345145,1671462002496910388,gps,2,1,42.3009742023,-83.6978794283,272.366882324,6.4e-05,0.0,0.0,0.0,0.0001,0.0,0.0,0.0,0.002116,2
1671462002473284031,345146,1671462002506943965,gps,2,1,42.300974202,-83.6978794907,272.366821289,6.4e-05,0.0,0.0,0.0,0.0001,0.0,0.0,0.0,0.002116,2
1671462002483373500,345147,1671462002516972560,gps,2,1,42.3009742001,-83.6978795514,272.366760254,6.4e-05,0.0,0.0,0.0,0.0001,0.0,0.0,0.0,0.002116,2
1671462002493317264,345148,1671462002526920714,gps,2,1,42.3009741994,-83.6978796136,272.366638184,6.4e-05,0.0,0.0,0.0,0.0001,0.0,0.0,0.0,0.002116,2
1671462002503563186,345149,1671462002537000690,gps,2,1,42.3009741981,-83.6978796788,272.366577148,6.4e-05,0.0,0.0,0.0,0.0001,0.0,0.0,0.0,0.002116,2
1671462002513453960,345150,1671462002546962912,gps,2,1,42.3009741972,-83.6978797417,272.366516113,6.4e-05,0.0,0.0,0.0,0.0001,0.0,0.0,0.0,0.002116,2
1671462002523297216,345151,1671462002556971646,gps,2,1,42.3009741965,-83.6978798065,272.366394043,6.4e-05,0.0,0.0,0.0,0.0001,0.0,0.0,0.0,0.002116,2
1671462002533260594,345152,1671462002566982904,gps,2,1,42.3009741948,-83.6978798743,272.366333008,6.4e-05,0.0,0.0,0.0,0.0001,0.0,0.0,0.0,0.002116,2
1671462002543363490,345153,1671462002577043203,gps,2,1,42.3009741951,-83.6978799392,272.366271973,6.4e-05,0.0,0.0,0.0,0.0001,0.0,0.0,0.0,0.002116,2
1671462002553684508,345154,1671462002586972576,gps,2,1,42.3009741944,-83.6978800068,272.365875244,6.4e-05,0.0,0.0,0.0,0.0001,0.0,0.0,0.0,0.002116,2
1671462002563654502,345155,1671462002597003867,gps,2,1,42.3009741937,-83.6978800769,272.365814209,6.4e-05,0.0,0.0,0.0,0.0001,0.0,0.0,0.0,0.002116,2
1671462002573479474,345156,1671462002606975306,gps,2,1,42.3009741943,-83.6978801443,272.365753174,6.4e-05,0.0,0.0,0.0,0.0001,0.0,0.0,0.0,0.002116,2
1671462002583486633,345157,1671462002616915656,gps,2,1,42.3009741933,-83.6978802147,272.365386963,6.4e-05,0.0,0.0,0.0,0.0001,0.0,0.0,0.0,0.002116,2
1671462002593446712,345158,1671462002626912792,gps,2,1,42.3009741939,-83.697880287,272.36529541,6.4e-05,0.0,0.0,0.0,0.0001,0.0,0.0,0.0,0.002116,2
1671462002603437180,345159,1671462002637048248,gps,2,1,42.3009741933,-83.6978803574,272.365264893,6.4e-05,0.0,0.0,0.0,0.0001,0.0,0.0,0.0,0.002116,2
1671462002613448160,345160,1671462002646937560,gps,2,1,42.3009741926,-83.6978804303,272.364898682,6.4e-05,0.0,0.0,0.0,0.0001,0.0,0.0,0.0,0.002116,2
1671462002623167491,345161,1671462002656929185,gps,2,1,42.300974193,-83.6978805053,272.364807129,6.4e-05,0.0,0.0,0.0,0.0001,0.0,0.0,0.0,0.002116,2
1671462002633687185,345162,1671462002667089765,gps,2,1,42.3009741908,-83.6978805789,272.364776611,6.4e-05,0.0,0.0,0.0,0.0001,0.0,0.0,0.0,0.002116,2
1671462002643212797,345163,1671462002676911749,gps,2,1,42.3009741907,-83.6978806542,272.3644104,6.4e-05,0.0,0.0,0.0,0.0001,0.0,0.0,0.0,0.002116,2
1671462002653505541,345164,1671462002686906492,gps,2,1,42.3009741895,-83.6978807323,272.364349365,6.4e-05,0.0,0.0,0.0,0.0001,0.0,0.0,0.0,0.002116,2
1671462002663399972,345165,1671462002696964125,gps,2,1,42.3009741879,-83.6978808084,272.364257812,6.4e-05,0.0,0.0,0.0,0.0001,0.0,0.0,0.0,0.002116,2
1671462002673235673,345166,1671462002706905284,gps,2,1,42.3009741877,-83.6978808864,272.363922119,6.4e-05,0.0,0.0,0.0,0.0001,0.0,0.0,0.0,0.002116,2
1671462002683227333,345167,1671462002716906615,gps,2,1,42.3009741856,-83.6978809675,272.363830566,6.4e-05,0.0,0.0,0.0,0.0001,0.0,0.0,0.0,0.002116,2
1671462002693177197,345168,1671462002726973640,gps,2,1,42.3009741864,-83.6978810455,272.363739014,6.4e-05,0.0,0.0,0.0,0.0001,0.0,0.0,0.0,0.002116,2
1671462002703304165,345169,1671462002736935441,gps,2,1,42.3009741855,-83.6978811266,272.36340332,6.4e-05,0.0,0.0,0.0,0.0001,0.0,0.0,0.0,0.002116,2
1671462002713602878,345170,1671462002746938382,gps,2,1,42.3009741848,-83.6978812102,272.363311768,6.4e-05,0.0,0.0,0.0,0.0001,0.0,0.0,0.0,0.002116,2
1671462002723493177,345171,1671462002756977147,gps,2,1,42.3009741858,-83.6978812908,272.363220215,6.4e-05,0.0,0.0,0.0,0.0001,0.0,0.0,0.0,0.002116,2
1671462002733459315,345172,1671462002766914584,gps,2,1,42.3009741846,-83.6978813748,272.362884521,6.4e-05,0.0,0.0,0.0,0.0001,0.0,0.0,0.0,0.002116,2
1671462002743517579,345173,1671462002776946118,gps,2,1,42.3009741852,-83.6978814609,272.362792969,6.4e-05,0.0,0.0,0.0,0.0001,0.0,0.0,0.0,0.002116,2
1671462002753449220,345174,1671462002787072496,gps,2,1,42.3009741838,-83.6978815452,272.362731934,6.4e-05,0.0,0.0,0.0,0.0001,0.0,0.0,0.0,0.002116,2
1671462002763412240,345175,1671462002796965827,gps,2,1,42.3009741832,-83.6978816319,272.36239624,6.4e-05,0.0,0.0,0.0,0.0001,0.0,0.0,0.0,0.002116,2
1671462002773328510,345176,1671462002806989124,gps,2,1,42.3009741828,-83.6978817213,272.362335205,6.4e-05,0.0,0.0,0.0,0.0001,0.0,0.0,0.0,0.002116,2
1671462002783311282,345177,1671462002816921812,gps,2,1,42.3009741807,-83.6978818087,272.36227417,6.4e-05,0.0,0.0,0.0,0.0001,0.0,0.0,0.0,0.002116,2
1671462002793466042,345178,1671462002826945972,gps,2,1,42.3009741803,-83.6978818983,272.361938477,6.4e-05,0.0,0.0,0.0,0.0001,0.0,0.0,0.0,0.002116,2
1671462002803490757,345179,1671462002836921802,gps,2,1,42.3009741789,-83.697881991,272.361846924,6.4e-05,0.0,0.0,0.0,0.0001,0.0,0.0,0.0,0.002116,2
1671462002813206688,345180,1671462002847056859,gps,2,1,42.3009741784,-83.6978820811,272.361724854,6.4e-05,0.0,0.0,0.0,0.0001,0.0,0.0,0.0,0.002116,2
1671462002823203466,345181,1671462002856904049,gps,2,1,42.3009741778,-83.6978821739,272.361419678,6.4e-05,0.0,0.0,0.0,0.0001,0.0,0.0,0.0,0.002116,2
