%time,field.header.seq,field.header.stamp,field.header.frame_id,field.twist.twist.linear.x,field.twist.twist.linear.y,field.twist.twist.linear.z,field.twist.twist.angular.x,field.twist.twist.angular.y,field.twist.twist.angular.z,field.twist.covariance0,field.twist.covariance1,field.twist.covariance2,field.twist.covariance3,field.twist.covariance4,field.twist.covariance5,field.twist.covariance6,field.twist.covariance7,field.twist.covariance8,field.twist.covariance9,field.twist.covariance10,field.twist.covariance11,field.twist.covariance12,field.twist.covariance13,field.twist.covariance14,field.twist.covariance15,field.twist.covariance16,field.twist.covariance17,field.twist.covariance18,field.twist.covariance19,field.twist.covariance20,field.twist.covariance21,field.twist.covariance22,field.twist.covariance23,field.twist.covariance24,field.twist.covariance25,field.twist.covariance26,field.twist.covariance27,field.twist.covariance28,field.twist.covariance29,field.twist.covariance30,field.twist.covariance31,field.twist.covariance32,field.twist.covariance33,field.twist.covariance34,field.twist.covariance35
1671465823821046547,23937,1671465823820511288,enu,-0.0075,-0.0011,-0.0008,0.0,0.0,0.0,0.000256,0.0,0.0,0.0,0.0,0.0,0.0,0.000256,0.0,0.0,0.0,0.0,0.0,0.0,0.0001,0.0,0.0,0.0,0.0,0.0,0.0,0.0,0.0,0.0,0.0,0.0,0.0,0.0,0.0,0.0,0.0,0.0,0.0,0.0,0.0,0.0
1671465823840887100,23938,1671465823840393163,enu,-0.0074,-0.0011,-0.0008,0.0,0.0,0.0,0.000256,0.0,0.0,0.0,0.0,0.0,0.0,0.000256,0.0,0.0,0.0,0.0,0.0,0.0,0.0001,0.0,0.0,0.0,0.0,0.0,0.0,0.0,0.0,0.0,0.0,0.0,0.0,0.0,0.0,0.0,0.0,0.0,0.0,0.0,0.0,0.0
1671465823860882334,23939,1671465823860410744,enu,-0.0074,-0.001,-0.0008,0.0,0.0,0.0,0.000256,0.0,0.0,0.0,0.0,0.0,0.0,0.000256,0.0,0.0,0.0,0.0,0.0,0.0,0.0001,0.0,0.0,0.0,0.0,0.0,0.0,0.0,0.0,0.0,0.0,0.0,0.0,0.0,0.0,0.0,0.0,0.0,0.0,0.0,0.0,0.0
1671465823880851408,23940,1671465823880355539,enu,-0.0074,-0.001,-0.0009,0.0,0.0,0.0,0.000256,0.0,0.0,0.0,0.0,0.0,0.0,0.000256,0.0,0.0,0.0,0.0,0.0,0.0,0.0001,0.0,0.0,0.0,0.0,0.0,0.0,0.0,0.0,0.0,0.0,0.0,0.0,0.0,0.0,0.0,0.0,0.0,0.0,0.0,0.0,0.0
1671465823900910903,23941,1671465823900400218,enu,-0.0073,-0.001,-0.0008,0.0,0.0,0.0,0.000256,0.0,0.0,0.0,0.0,0.0,0.0,0.000256,0.0,0.0,0.0,0.0,0.0,0.0,0.0001,0.0,0.0,0.0,0.0,0.0,0.0,0.0,0.0,0.0,0.0,0.0,0.0,0.0,0.0,0.0,0.0,0.0,0.0,0.0,0.0,0.0
1671465823920799827,23942,1671465823920378659,enu,-0.0073,-0.001,-0.0008,0.0,0.0,0.0,0.000256,0.0,0.0,0.0,0.0,0.0,0.0,0.000256,0.0,0.0,0.0,0.0,0.0,0.0,0.0001,0.0,0.0,0.0,0.0,0.0,0.0,0.0,0.0,0.0,0.0,0.0,0.0,0.0,0.0,0.0,0.0,0.0,0.0,0.0,0.0,0.0
1671465823940922163,23943,1671465823940361584,enu,-0.0073,-0.001,-0.0008,0.0,0.0,0.0,0.000256,0.0,0.0,0.0,0.0,0.0,0.0,0.000256,0.0,0.0,0.0,0.0,0.0,0.0,0.0001,0.0,0.0,0.0,0.0,0.0,0.0,0.0,0.0,0.0,0.0,0.0,0.0,0.0,0.0,0.0,0.0,0.0,0.0,0.0,0.0,0.0
1671465823960922640,23944,1671465823960454146,enu,-0.0074,-0.0009,-0.0009,0.0,0.0,0.0,0.000256,0.0,0.0,0.0,0.0,0.0,0.0,0.000256,0.0,0.0,0.0,0.0,0.0,0.0,0.0001,0.0,0.0,0.0,0.0,0.0,0.0,0.0,0.0,0.0,0.0,0.0,0.0,0.0,0.0,0.0,0.0,0.0,0.0,0.0,0.0,0.0
1671465823980782932,23945,1671465823980328282,enu,-0.0073,-0.001,-0.0008,0.0,0.0,0.0,0.000256,0.0,0.0,0.0,0.0,0.0,0.0,0.000256,0.0,0.0,0.0,0.0,0.0,0.0,0.0001,0.0,0.0,0.0,0.0,0.0,0.0,0.0,0.0,0.0,0.0,0.0,0.0,0.0,0.0,0.0,0.0,0.0,0.0,0.0,0.0,0.0
1671465824000852848,23946,1671465824000339658,enu,-0.0074,-0.001,-0.0008,0.0,0.0,0.0,0.000256,0.0,0.0,0.0,0.0,0.0,0.0,0.000256,0.0,0.0,0.0,0.0,0.0,0.0,0.0001,0.0,0.0,0.0,0.0,0.0,0.0,0.0,0.0,0.0,0.0,0.0,0.0,0.0,0.0,0.0,0.0,0.0,0.0,0.0,0.0,0.0
1671465824020949570,23947,1671465824020432308,enu,-0.0073,-0.001,-0.0007,0.0,0.0,0.0,0.000256,0.0,0.0,0.0,0.0,0.0,0.0,0.000256,0.0,0.0,0.0,0.0,0.0,0.0,0.0001,0.0,0.0,0.0,0.0,0.0,0.0,0.0,0.0,0.0,0.0,0.0,0.0,0.0,0.0,0.0,0.0,0.0,0.0,0.0,0.0,0.0
1671465824040939061,23948,1671465824040392214,enu,-0.0072,-0.0009,-0.0008,0.0,0.0,0.0,0.000256,0.0,0.0,0.0,0.0,0.0,0.0,0.000256,0.0,0.0,0.0,0.0,0.0,0.0,0.0001,0.0,0.0,0.0,0.0,0.0,0.0,0.0,0.0,0.0,0.0,0.0,0.0,0.0,0.0,0.0,0.0,0.0,0.0,0.0,0.0,0.0
1671465824061058748,23949,1671465824060490690,enu,-0.0073,-0.0008,-0.0008,0.0,0.0,0.0,0.000256,0.0,0.0,0.0,0.0,0.0,0.0,0.000256,0.0,0.0,0.0,0.0,0.0,0.0,0.0001,0.0,0.0,0.0,0.0,0.0,0.0,0.0,0.0,0.0,0.0,0.0,0.0,0.0,0.0,0.0,0.0,0.0,0.0,0.0,0.0,0.0
1671465824080955298,23950,1671465824080439041,enu,-0.0072,-0.0007,-0.0008,0.0,0.0,0.0,0.000256,0.0,0.0,0.0,0.0,0.0,0.0,0.000256,0.0,0.0,0.0,0.0,0.0,0.0,0.0001,0.0,0.0,0.0,0.0,0.0,0.0,0.0,0.0,0.0,0.0,0.0,0.0,0.0,0.0,0.0,0.0,0.0,0.0,0.0,0.0,0.0
1671465824100915512,23951,1671465824100409834,enu,-0.007,-0.0006,-0.0007,0.0,0.0,0.0,0.000256,0.0,0.0,0.0,0.0,0.0,0.0,0.000256,0.0,0.0,0.0,0.0,0.0,0.0,0.0001,0.0,0.0,0.0,0.0,0.0,0.0,0.0,0.0,0.0,0.0,0.0,0.0,0.0,0.0,0.0,0.0,0.0,0.0,0.0,0.0,0.0
1671465824120992350,23952,1671465824120500339,enu,-0.0071,-0.0006,-0.0008,0.0,0.0,0.0,0.000256,0.0,0.0,0.0,0.0,0.0,0.0,0.000256,0.0,0.0,0.0,0.0,0.0,0.0,0.0001,0.0,0.0,0.0,0.0,0.0,0.0,0.0,0.0,0.0,0.0,0.0,0.0,0.0,0.0,0.0,0.0,0.0,0.0,0.0,0.0,0.0
1671465824141102201,23953,1671465824140598221,enu,-0.0071,-0.0004,-0.0008,0.0,0.0,0.0,0.000256,0.0,0.0,0.0,0.0,0.0,0.0,0.000256,0.0,0.0,0.0,0.0,0.0,0.0,0.0001,0.0,0.0,0.0,0.0,0.0,0.0,0.0,0.0,0.0,0.0,0.0,0.0,0.0,0.0,0.0,0.0,0.0,0.0,0.0,0.0,0.0
1671465824160836535,23954,1671465824160355764,enu,-0.0071,-0.0003,-0.0008,0.0,0.0,0.0,0.000256,0.0,0.0,0.0,0.0,0.0,0.0,0.000256,0.0,0.0,0.0,0.0,0.0,0.0,0.0001,0.0,0.0,0.0,0.0,0.0,0.0,0.0,0.0,0.0,0.0,0.0,0.0,0.0,0.0,0.0,0.0,0.0,0.0,0.0,0.0,0.0
1671465824180876071,23955,1671465824180409932,enu,-0.0072,-0.0001,-0.0009,0.0,0.0,0.0,0.000256,0.0,0.0,0.0,0.0,0.0,0.0,0.000256,0.0,0.0,0.0,0.0,0.0,0.0,0.0001,0.0,0.0,0.0,0.0,0.0,0.0,0.0,0.0,0.0,0.0,0.0,0.0,0.0,0.0,0.0,0.0,0.0,0.0,0.0,0.0,0.0
1671465824200968412,23956,1671465824200466979,enu,-0.0071,-0.0001,-0.0009,0.0,0.0,0.0,0.000256,0.0,0.0,0.0,0.0,0.0,0.0,0.000256,0.0,0.0,0.0,0.0,0.0,0.0,0.0001,0.0,0.0,0.0,0.0,0.0,0.0,0.0,0.0,0.0,0.0,0.0,0.0,0.0,0.0,0.0,0.0,0.0,0.0,0.0,0.0,0.0
1671465824220829925,23957,1671465824220369222,enu,-0.0071,0.0,-0.0008,0.0,0.0,0.0,0.000256,0.0,0.0,0.0,0.0,0.0,0.0,0.000256,0.0,0.0,0.0,0.0,0.0,0.0,0.0001,0.0,0.0,0.0,0.0,0.0,0.0,0.0,0.0,0.0,0.0,0.0,0.0,0.0,0.0,0.0,0.0,0.0,0.0,0.0,0.0,0.0
1671465824240771372,23958,1671465824240386882,enu,-0.0072,0.0001,-0.0008,0.0,0.0,0.0,0.000256,0.0,0.0,0.0,0.0,0.0,0.0,0.000256,0.0,0.0,0.0,0.0,0.0,0.0,0.0001,0.0,0.0,0.0,0.0,0.0,0.0,0.0,0.0,0.0,0.0,0.0,0.0,0.0,0.0,0.0,0.0,0.0,0.0,0.0,0.0,0.0
1671465824260834620,23959,1671465824260427765,enu,-0.0071,0.0001,-0.0008,0.0,0.0,0.0,0.000256,0.0,0.0,0.0,0.0,0.0,0.0,0.000256,0.0,0.0,0.0,0.0,0.0,0.0,0.0001,0.0,0.0,0.0,0.0,0.0,0.0,0.0,0.0,0.0,0.0,0.0,0.0,0.0,0.0,0.0,0.0,0.0,0.0,0.0,0.0,0.0
1671465824280869917,23960,1671465824280370353,enu,-0.007,0.0002,-0.0007,0.0,0.0,0.0,0.000256,0.0,0.0,0.0,0.0,0.0,0.0,0.000256,0.0,0.0,0.0,0.0,0.0,0.0,0.0001,0.0,0.0,0.0,0.0,0.0,0.0,0.0,0.0,0.0,0.0,0.0,0.0,0.0,0.0,0.0,0.0,0.0,0.0,0.0,0.0,0.0
1671465824300952036,23961,1671465824300401476,enu,-0.0071,0.0002,-0.0007,0.0,0.0,0.0,0.000256,0.0,0.0,0.0,0.0,0.0,0.0,0.000256,0.0,0.0,0.0,0.0,0.0,0.0,0.0001,0.0,0.0,0.0,0.0,0.0,0.0,0.0,0.0,0.0,0.0,0.0,0.0,0.0,0.0,0.0,0.0,0.0,0.0,0.0,0.0,0.0
1671465824320800332,23962,1671465824320526810,enu,-0.0069,0.0002,-0.0007,0.0,0.0,0.0,0.000256,0.0,0.0,0.0,0.0,0.0,0.0,0.000256,0.0,0.0,0.0,0.0,0.0,0.0,0.0001,0.0,0.0,0.0,0.0,0.0,0.0,0.0,0.0,0.0,0.0,0.0,0.0,0.0,0.0,0.0,0.0,0.0,0.0,0.0,0.0,0.0
1671465824340570415,23963,1671465824340349224,enu,-0.0069,0.0002,-0.0008,0.0,0.0,0.0,0.000256,0.0,0.0,0.0,0.0,0.0,0.0,0.000256,0.0,0.0,0.0,0.0,0.0,0.0,0.0001,0.0,0.0,0.0,0.0,0.0,0.0,0.0,0.0,0.0,0.0,0.0,0.0,0.0,0.0,0.0,0.0,0.0,0.0,0.0,0.0,0.0
1671465824360671226,23964,1671465824360379114,enu,-0.007,0.0002,-0.0008,0.0,0.0,0.0,0.000256,0.0,0.0,0.0,0.0,0.0,0.0,0.000256,0.0,0.0,0.0,0.0,0.0,0.0,0.0001,0.0,0.0,0.0,0.0,0.0,0.0,0.0,0.0,0.0,0.0,0.0,0.0,0.0,0.0,0.0,0.0,0.0,0.0,0.0,0.0,0.0
1671465824380949998,23965,1671465824380459995,enu,-0.0069,0.0002,-0.0009,0.0,0.0,0.0,0.000256,0.0,0.0,0.0,0.0,0.0,0.0,0.000256,0.0,0.0,0.0,0.0,0.0,0.0,0.0001,0.0,0.0,0.0,0.0,0.0,0.0,0.0,0.0,0.0,0.0,0.0,0.0,0.0,0.0,0.0,0.0,0.0,0.0,0.0,0.0,0.0
1671465824400880382,23966,1671465824400382707,enu,-0.0068,0.0003,-0.0009,0.0,0.0,0.0,0.000256,0.0,0.0,0.0,0.0,0.0,0.0,0.000256,0.0,0.0,0.0,0.0,0.0,0.0,0.0001,0.0,0.0,0.0,0.0,0.0,0.0,0.0,0.0,0.0,0.0,0.0,0.0,0.0,0.0,0.0,0.0,0.0,0.0,0.0,0.0,0.0
1671465824420932051,23967,1671465824420427795,enu,-0.0068,0.0002,-0.0009,0.0,0.0,0.0,0.000256,0.0,0.0,0.0,0.0,0.0,0.0,0.000256,0.0,0.0,0.0,0.0,0.0,0.0,0.0001,0.0,0.0,0.0,0.0,0.0,0.0,0.0,0.0,0.0,0.0,0.0,0.0,0.0,0.0,0.0,0.0,0.0,0.0,0.0,0.0,0.0
1671465824441064764,23968,1671465824440484985,enu,-0.0068,0.0003,-0.001,0.0,0.0,0.0,0.000256,0.0,0.0,0.0,0.0,0.0,0.0,0.000256,0.0,0.0,0.0,0.0,0.0,0.0,0.0001,0.0,0.0,0.0,0.0,0.0,0.0,0.0,0.0,0.0,0.0,0.0,0.0,0.0,0.0,0.0,0.0,0.0,0.0,0.0,0.0,0.0
1671465824460919018,23969,1671465824460406071,enu,-0.0066,0.0003,-0.001,0.0,0.0,0.0,0.000256,0.0,0.0,0.0,0.0,0.0,0.0,0.000256,0.0,0.0,0.0,0.0,0.0,0.0,0.0001,0.0,0.0,0.0,0.0,0.0,0.0,0.0,0.0,0.0,0.0,0.0,0.0,0.0,0.0,0.0,0.0,0.0,0.0,0.0,0.0,0.0
1671465824480978640,23970,1671465824480441577,enu,-0.0066,0.0003,-0.001,0.0,0.0,0.0,0.000256,0.0,0.0,0.0,0.0,0.0,0.0,0.000256,0.0,0.0,0.0,0.0,0.0,0.0,0.0001,0.0,0.0,0.0,0.0,0.0,0.0,0.0,0.0,0.0,0.0,0.0,0.0,0.0,0.0,0.0,0.0,0.0,0.0,0.0,0.0,0.0
1671465824500957059,23971,1671465824500409865,enu,-0.0067,0.0003,-0.001,0.0,0.0,0.0,0.000256,0.0,0.0,0.0,0.0,0.0,0.0,0.000256,0.0,0.0,0.0,0.0,0.0,0.0,0.0001,0.0,0.0,0.0,0.0,0.0,0.0,0.0,0.0,0.0,0.0,0.0,0.0,0.0,0.0,0.0,0.0,0.0,0.0,0.0,0.0,0.0
1671465824521021192,23972,1671465824520533532,enu,-0.0067,0.0004,-0.0009,0.0,0.0,0.0,0.000256,0.0,0.0,0.0,0.0,0.0,0.0,0.000256,0.0,0.0,0.0,0.0,0.0,0.0,0.0001,0.0,0.0,0.0,0.0,0.0,0.0,0.0,0.0,0.0,0.0,0.0,0.0,0.0,0.0,0.0,0.0,0.0,0.0,0.0,0.0,0.0
1671465824541050212,23973,1671465824540504934,enu,-0.0069,0.0005,-0.0009,0.0,0.0,0.0,0.000256,0.0,0.0,0.0,0.0,0.0,0.0,0.000256,0.0,0.0,0.0,0.0,0.0,0.0,0.0001,0.0,0.0,0.0,0.0,0.0,0.0,0.0,0.0,0.0,0.0,0.0,0.0,0.0,0.0,0.0,0.0,0.0,0.0,0.0,0.0,0.0
1671465824560955461,23974,1671465824560468823,enu,-0.007,0.0006,-0.0009,0.0,0.0,0.0,0.000256,0.0,0.0,0.0,0.0,0.0,0.0,0.000256,0.0,0.0,0.0,0.0,0.0,0.0,0.0001,0.0,0.0,0.0,0.0,0.0,0.0,0.0,0.0,0.0,0.0,0.0,0.0,0.0,0.0,0.0,0.0,0.0,0.0,0.0,0.0,0.0
1671465824581041992,23975,1671465824580524014,enu,-0.0071,0.0007,-0.0009,0.0,0.0,0.0,0.000256,0.0,0.0,0.0,0.0,0.0,0.0,0.000256,0.0,0.0,0.0,0.0,0.0,0.0,0.0001,0.0,0.0,0.0,0.0,0.0,0.0,0.0,0.0,0.0,0.0,0.0,0.0,0.0,0.0,0.0,0.0,0.0,0.0,0.0,0.0,0.0
1671465824601007746,23976,1671465824600511160,enu,-0.0071,0.0006,-0.0007,0.0,0.0,0.0,0.000256,0.0,0.0,0.0,0.0,0.0,0.0,0.000256,0.0,0.0,0.0,0.0,0.0,0.0,0.0001,0.0,0.0,0.0,0.0,0.0,0.0,0.0,0.0,0.0,0.0,0.0,0.0,0.0,0.0,0.0,0.0,0.0,0.0,0.0,0.0,0.0
1671465824621071805,23977,1671465824620545558,enu,-0.0071,0.0008,-0.0007,0.0,0.0,0.0,0.000256,0.0,0.0,0.0,0.0,0.0,0.0,0.000256,0.0,0.0,0.0,0.0,0.0,0.0,0.0001,0.0,0.0,0.0,0.0,0.0,0.0,0.0,0.0,0.0,0.0,0.0,0.0,0.0,0.0,0.0,0.0,0.0,0.0,0.0,0.0,0.0
1671465824641021334,23978,1671465824640494379,enu,-0.007,0.0008,-0.0007,0.0,0.0,0.0,0.000256,0.0,0.0,0.0,0.0,0.0,0.0,0.000256,0.0,0.0,0.0,0.0,0.0,0.0,0.0001,0.0,0.0,0.0,0.0,0.0,0.0,0.0,0.0,0.0,0.0,0.0,0.0,0.0,0.0,0.0,0.0,0.0,0.0,0.0,0.0,0.0
1671465824660957130,23979,1671465824660517053,enu,-0.0071,0.0009,-0.0007,0.0,0.0,0.0,0.000256,0.0,0.0,0.0,0.0,0.0,0.0,0.000256,0.0,0.0,0.0,0.0,0.0,0.0,0.0001,0.0,0.0,0.0,0.0,0.0,0.0,0.0,0.0,0.0,0.0,0.0,0.0,0.0,0.0,0.0,0.0,0.0,0.0,0.0,0.0,0.0
1671465824680855121,23980,1671465824680436793,enu,-0.0068,0.001,-0.0007,0.0,0.0,0.0,0.000256,0.0,0.0,0.0,0.0,0.0,0.0,0.000256,0.0,0.0,0.0,0.0,0.0,0.0,0.0001,0.0,0.0,0.0,0.0,0.0,0.0,0.0,0.0,0.0,0.0,0.0,0.0,0.0,0.0,0.0,0.0,0.0,0.0,0.0,0.0,0.0
1671465824700837950,23981,1671465824700425122,enu,-0.0066,0.0012,-0.0008,0.0,0.0,0.0,0.000256,0.0,0.0,0.0,0.0,0.0,0.0,0.000256,0.0,0.0,0.0,0.0,0.0,0.0,0.0001,0.0,0.0,0.0,0.0,0.0,0.0,0.0,0.0,0.0,0.0,0.0,0.0,0.0,0.0,0.0,0.0,0.0,0.0,0.0,0.0,0.0
1671465824721093393,23982,1671465824720539668,enu,-0.0065,0.0013,-0.0009,0.0,0.0,0.0,0.000256,0.0,0.0,0.0,0.0,0.0,0.0,0.000256,0.0,0.0,0.0,0.0,0.0,0.0,0.0001,0.0,0.0,0.0,0.0,0.0,0.0,0.0,0.0,0.0,0.0,0.0,0.0,0.0,0.0,0.0,0.0,0.0,0.0,0.0,0.0,0.0
1671465824740955632,23983,1671465824740426756,enu,-0.0064,0.0016,-0.001,0.0,0.0,0.0,0.000256,0.0,0.0,0.0,0.0,0.0,0.0,0.000256,0.0,0.0,0.0,0.0,0.0,0.0,0.0001,0.0,0.0,0.0,0.0,0.0,0.0,0.0,0.0,0.0,0.0,0.0,0.0,0.0,0.0,0.0,0.0,0.0,0.0,0.0,0.0,0.0
1671465824760856945,23984,1671465824760471638,enu,-0.0062,0.0017,-0.001,0.0,0.0,0.0,0.000225,0.0,0.0,0.0,0.0,0.0,0.0,0.000225,0.0,0.0,0.0,0.0,0.0,0.0,8.1e-05,0.0,0.0,0.0,0.0,0.0,0.0,0.0,0.0,0.0,0.0,0.0,0.0,0.0,0.0,0.0,0.0,0.0,0.0,0.0,0.0,0.0
1671465824780970825,23985,1671465824780502192,enu,-0.0062,0.0017,-0.001,0.0,0.0,0.0,0.000225,0.0,0.0,0.0,0.0,0.0,0.0,0.000225,0.0,0.0,0.0,0.0,0.0,0.0,8.1e-05,0.0,0.0,0.0,0.0,0.0,0.0,0.0,0.0,0.0,0.0,0.0,0.0,0.0,0.0,0.0,0.0,0.0,0.0,0.0,0.0,0.0
1671465824800986696,23986,1671465824800439178,enu,-0.0063,0.0018,-0.0011,0.0,0.0,0.0,0.000225,0.0,0.0,0.0,0.0,0.0,0.0,0.000225,0.0,0.0,0.0,0.0,0.0,0.0,8.1e-05,0.0,0.0,0.0,0.0,0.0,0.0,0.0,0.0,0.0,0.0,0.0,0.0,0.0,0.0,0.0,0.0,0.0,0.0,0.0,0.0,0.0
1671465824821097642,23987,1671465824820587565,enu,-0.0063,0.0018,-0.001,0.0,0.0,0.0,0.000225,0.0,0.0,0.0,0.0,0.0,0.0,0.000225,0.0,0.0,0.0,0.0,0.0,0.0,8.1e-05,0.0,0.0,0.0,0.0,0.0,0.0,0.0,0.0,0.0,0.0,0.0,0.0,0.0,0.0,0.0,0.0,0.0,0.0,0.0,0.0,0.0
1671465824841004948,23988,1671465824840533951,enu,-0.0066,0.0018,-0.0009,0.0,0.0,0.0,0.000225,0.0,0.0,0.0,0.0,0.0,0.0,0.000225,0.0,0.0,0.0,0.0,0.0,0.0,8.1e-05,0.0,0.0,0.0,0.0,0.0,0.0,0.0,0.0,0.0,0.0,0.0,0.0,0.0,0.0,0.0,0.0,0.0,0.0,0.0,0.0,0.0
1671465824860944233,23989,1671465824860450076,enu,-0.0067,0.0017,-0.0008,0.0,0.0,0.0,0.000225,0.0,0.0,0.0,0.0,0.0,0.0,0.000225,0.0,0.0,0.0,0.0,0.0,0.0,8.1e-05,0.0,0.0,0.0,0.0,0.0,0.0,0.0,0.0,0.0,0.0,0.0,0.0,0.0,0.0,0.0,0.0,0.0,0.0,0.0,0.0,0.0
1671465824880935548,23990,1671465824880477150,enu,-0.0067,0.0016,-0.0008,0.0,0.0,0.0,0.000225,0.0,0.0,0.0,0.0,0.0,0.0,0.000225,0.0,0.0,0.0,0.0,0.0,0.0,8.1e-05,0.0,0.0,0.0,0.0,0.0,0.0,0.0,0.0,0.0,0.0,0.0,0.0,0.0,0.0,0.0,0.0,0.0,0.0,0.0,0.0,0.0
1671465824901052860,23991,1671465824900558129,enu,-0.0068,0.0014,-0.0007,0.0,0.0,0.0,0.000225,0.0,0.0,0.0,0.0,0.0,0.0,0.000225,0.0,0.0,0.0,0.0,0.0,0.0,8.1e-05,0.0,0.0,0.0,0.0,0.0,0.0,0.0,0.0,0.0,0.0,0.0,0.0,0.0,0.0,0.0,0.0,0.0,0.0,0.0,0.0,0.0
1671465824920926572,23992,1671465824920448384,enu,-0.0069,0.0013,-0.0009,0.0,0.0,0.0,0.000225,0.0,0.0,0.0,0.0,0.0,0.0,0.000225,0.0,0.0,0.0,0.0,0.0,0.0,8.1e-05,0.0,0.0,0.0,0.0,0.0,0.0,0.0,0.0,0.0,0.0,0.0,0.0,0.0,0.0,0.0,0.0,0.0,0.0,0.0,0.0,0.0
1671465824940978033,23993,1671465824940519704,enu,-0.0069,0.0013,-0.001,0.0,0.0,0.0,0.000225,0.0,0.0,0.0,0.0,0.0,0.0,0.000225,0.0,0.0,0.0,0.0,0.0,0.0,8.1e-05,0.0,0.0,0.0,0.0,0.0,0.0,0.0,0.0,0.0,0.0,0.0,0.0,0.0,0.0,0.0,0.0,0.0,0.0,0.0,0.0,0.0
1671465824961053841,23994,1671465824960560580,enu,-0.007,0.0013,-0.0011,0.0,0.0,0.0,0.000225,0.0,0.0,0.0,0.0,0.0,0.0,0.000225,0.0,0.0,0.0,0.0,0.0,0.0,8.1e-05,0.0,0.0,0.0,0.0,0.0,0.0,0.0,0.0,0.0,0.0,0.0,0.0,0.0,0.0,0.0,0.0,0.0,0.0,0.0,0.0,0.0
1671465824981027600,23995,1671465824980493911,enu,-0.0067,0.0014,-0.001,0.0,0.0,0.0,0.000225,0.0,0.0,0.0,0.0,0.0,0.0,0.000225,0.0,0.0,0.0,0.0,0.0,0.0,8.1e-05,0.0,0.0,0.0,0.0,0.0,0.0,0.0,0.0,0.0,0.0,0.0,0.0,0.0,0.0,0.0,0.0,0.0,0.0,0.0,0.0,0.0
1671465825000960079,23996,1671465825000438637,enu,-0.0066,0.0017,-0.0011,0.0,0.0,0.0,0.000225,0.0,0.0,0.0,0.0,0.0,0.0,0.000225,0.0,0.0,0.0,0.0,0.0,0.0,8.1e-05,0.0,0.0,0.0,0.0,0.0,0.0,0.0,0.0,0.0,0.0,0.0,0.0,0.0,0.0,0.0,0.0,0.0,0.0,0.0,0.0,0.0
1671465825021050192,23997,1671465825020535433,enu,-0.0064,0.002,-0.001,0.0,0.0,0.0,0.000225,0.0,0.0,0.0,0.0,0.0,0.0,0.000225,0.0,0.0,0.0,0.0,0.0,0.0,8.1e-05,0.0,0.0,0.0,0.0,0.0,0.0,0.0,0.0,0.0,0.0,0.0,0.0,0.0,0.0,0.0,0.0,0.0,0.0,0.0,0.0,0.0
1671465825040991066,23998,1671465825040507629,enu,-0.0061,0.0024,-0.001,0.0,0.0,0.0,0.000225,0.0,0.0,0.0,0.0,0.0,0.0,0.000225,0.0,0.0,0.0,0.0,0.0,0.0,8.1e-05,0.0,0.0,0.0,0.0,0.0,0.0,0.0,0.0,0.0,0.0,0.0,0.0,0.0,0.0,0.0,0.0,0.0,0.0,0.0,0.0,0.0
1671465825061116449,23999,1671465825060575942,enu,-0.0059,0.0025,-0.0009,0.0,0.0,0.0,0.000225,0.0,0.0,0.0,0.0,0.0,0.0,0.000225,0.0,0.0,0.0,0.0,0.0,0.0,8.1e-05,0.0,0.0,0.0,0.0,0.0,0.0,0.0,0.0,0.0,0.0,0.0,0.0,0.0,0.0,0.0,0.0,0.0,0.0,0.0,0.0,0.0
1671465825081206496,24000,1671465825080672036,enu,-0.0059,0.0025,-0.0007,0.0,0.0,0.0,0.000225,0.0,0.0,0.0,0.0,0.0,0.0,0.000225,0.0,0.0,0.0,0.0,0.0,0.0,8.1e-05,0.0,0.0,0.0,0.0,0.0,0.0,0.0,0.0,0.0,0.0,0.0,0.0,0.0,0.0,0.0,0.0,0.0,0.0,0.0,0.0,0.0
1671465825101108118,24001,1671465825100576429,enu,-0.0059,0.0025,-0.0006,0.0,0.0,0.0,0.000225,0.0,0.0,0.0,0.0,0.0,0.0,0.000225,0.0,0.0,0.0,0.0,0.0,0.0,8.1e-05,0.0,0.0,0.0,0.0,0.0,0.0,0.0,0.0,0.0,0.0,0.0,0.0,0.0,0.0,0.0,0.0,0.0,0.0,0.0,0.0,0.0
1671465825120964996,24002,1671465825120535449,enu,-0.006,0.0024,-0.0005,0.0,0.0,0.0,0.000225,0.0,0.0,0.0,0.0,0.0,0.0,0.000225,0.0,0.0,0.0,0.0,0.0,0.0,8.1e-05,0.0,0.0,0.0,0.0,0.0,0.0,0.0,0.0,0.0,0.0,0.0,0.0,0.0,0.0,0.0,0.0,0.0,0.0,0.0,0.0,0.0
1671465825141314294,24003,1671465825140793589,enu,-0.0063,0.0022,-0.0005,0.0,0.0,0.0,0.000225,0.0,0.0,0.0,0.0,0.0,0.0,0.000225,0.0,0.0,0.0,0.0,0.0,0.0,8.1e-05,0.0,0.0,0.0,0.0,0.0,0.0,0.0,0.0,0.0,0.0,0.0,0.0,0.0,0.0,0.0,0.0,0.0,0.0,0.0,0.0,0.0
1671465825160929485,24004,1671465825160471481,enu,-0.0066,0.002,-0.0006,0.0,0.0,0.0,0.000225,0.0,0.0,0.0,0.0,0.0,0.0,0.000225,0.0,0.0,0.0,0.0,0.0,0.0,8.1e-05,0.0,0.0,0.0,0.0,0.0,0.0,0.0,0.0,0.0,0.0,0.0,0.0,0.0,0.0,0.0,0.0,0.0,0.0,0.0,0.0,0.0
1671465825181039965,24005,1671465825180506850,enu,-0.0067,0.0019,-0.0008,0.0,0.0,0.0,0.000225,0.0,0.0,0.0,0.0,0.0,0.0,0.000225,0.0,0.0,0.0,0.0,0.0,0.0,8.1e-05,0.0,0.0,0.0,0.0,0.0,0.0,0.0,0.0,0.0,0.0,0.0,0.0,0.0,0.0,0.0,0.0,0.0,0.0,0.0,0.0,0.0
1671465825201104989,24006,1671465825200575684,enu,-0.007,0.0017,-0.0012,0.0,0.0,0.0,0.000225,0.0,0.0,0.0,0.0,0.0,0.0,0.000225,0.0,0.0,0.0,0.0,0.0,0.0,8.1e-05,0.0,0.0,0.0,0.0,0.0,0.0,0.0,0.0,0.0,0.0,0.0,0.0,0.0,0.0,0.0,0.0,0.0,0.0,0.0,0.0,0.0
1671465825220962076,24007,1671465825220495402,enu,-0.0071,0.0016,-0.0015,0.0,0.0,0.0,0.000225,0.0,0.0,0.0,0.0,0.0,0.0,0.000225,0.0,0.0,0.0,0.0,0.0,0.0,8.1e-05,0.0,0.0,0.0,0.0,0.0,0.0,0.0,0.0,0.0,0.0,0.0,0.0,0.0,0.0,0.0,0.0,0.0,0.0,0.0,0.0,0.0
1671465825240965554,24008,1671465825240534235,enu,-0.0071,0.0018,-0.0018,0.0,0.0,0.0,0.000225,0.0,0.0,0.0,0.0,0.0,0.0,0.000225,0.0,0.0,0.0,0.0,0.0,0.0,8.1e-05,0.0,0.0,0.0,0.0,0.0,0.0,0.0,0.0,0.0,0.0,0.0,0.0,0.0,0.0,0.0,0.0,0.0,0.0,0.0,0.0,0.0
1671465825261074640,24009,1671465825260549395,enu,-0.007,0.002,-0.0018,0.0,0.0,0.0,0.000225,0.0,0.0,0.0,0.0,0.0,0.0,0.000225,0.0,0.0,0.0,0.0,0.0,0.0,8.1e-05,0.0,0.0,0.0,0.0,0.0,0.0,0.0,0.0,0.0,0.0,0.0,0.0,0.0,0.0,0.0,0.0,0.0,0.0,0.0,0.0,0.0
1671465825280941883,24010,1671465825280486180,enu,-0.0068,0.0024,-0.0017,0.0,0.0,0.0,0.000225,0.0,0.0,0.0,0.0,0.0,0.0,0.000225,0.0,0.0,0.0,0.0,0.0,0.0,8.1e-05,0.0,0.0,0.0,0.0,0.0,0.0,0.0,0.0,0.0,0.0,0.0,0.0,0.0,0.0,0.0,0.0,0.0,0.0,0.0,0.0,0.0
1671465825300976441,24011,1671465825300479555,enu,-0.0064,0.0027,-0.0014,0.0,0.0,0.0,0.000225,0.0,0.0,0.0,0.0,0.0,0.0,0.000225,0.0,0.0,0.0,0.0,0.0,0.0,8.1e-05,0.0,0.0,0.0,0.0,0.0,0.0,0.0,0.0,0.0,0.0,0.0,0.0,0.0,0.0,0.0,0.0,0.0,0.0,0.0,0.0,0.0
1671465825321104953,24012,1671465825320649859,enu,-0.0061,0.003,-0.0011,0.0,0.0,0.0,0.000225,0.0,0.0,0.0,0.0,0.0,0.0,0.000225,0.0,0.0,0.0,0.0,0.0,0.0,8.1e-05,0.0,0.0,0.0,0.0,0.0,0.0,0.0,0.0,0.0,0.0,0.0,0.0,0.0,0.0,0.0,0.0,0.0,0.0,0.0,0.0,0.0
1671465825341038829,24013,1671465825340533444,enu,-0.0059,0.0033,-0.0008,0.0,0.0,0.0,0.000225,0.0,0.0,0.0,0.0,0.0,0.0,0.000225,0.0,0.0,0.0,0.0,0.0,0.0,8.1e-05,0.0,0.0,0.0,0.0,0.0,0.0,0.0,0.0,0.0,0.0,0.0,0.0,0.0,0.0,0.0,0.0,0.0,0.0,0.0,0.0,0.0
1671465825361072225,24014,1671465825360527357,enu,-0.0057,0.0034,-0.0006,0.0,0.0,0.0,0.000225,0.0,0.0,0.0,0.0,0.0,0.0,0.000225,0.0,0.0,0.0,0.0,0.0,0.0,8.1e-05,0.0,0.0,0.0,0.0,0.0,0.0,0.0,0.0,0.0,0.0,0.0,0.0,0.0,0.0,0.0,0.0,0.0,0.0,0.0,0.0,0.0
1671465825381050702,24015,1671465825380606910,enu,-0.0056,0.0033,-0.0006,0.0,0.0,0.0,0.000225,0.0,0.0,0.0,0.0,0.0,0.0,0.000225,0.0,0.0,0.0,0.0,0.0,0.0,8.1e-05,0.0,0.0,0.0,0.0,0.0,0.0,0.0,0.0,0.0,0.0,0.0,0.0,0.0,0.0,0.0,0.0,0.0,0.0,0.0,0.0,0.0
1671465825400987412,24016,1671465825400510428,enu,-0.0057,0.0033,-0.0006,0.0,0.0,0.0,0.000225,0.0,0.0,0.0,0.0,0.0,0.0,0.000225,0.0,0.0,0.0,0.0,0.0,0.0,8.1e-05,0.0,0.0,0.0,0.0,0.0,0.0,0.0,0.0,0.0,0.0,0.0,0.0,0.0,0.0,0.0,0.0,0.0,0.0,0.0,0.0,0.0
1671465825421080059,24017,1671465825420575472,enu,-0.0058,0.0031,-0.0008,0.0,0.0,0.0,0.000225,0.0,0.0,0.0,0.0,0.0,0.0,0.000225,0.0,0.0,0.0,0.0,0.0,0.0,8.1e-05,0.0,0.0,0.0,0.0,0.0,0.0,0.0,0.0,0.0,0.0,0.0,0.0,0.0,0.0,0.0,0.0,0.0,0.0,0.0,0.0,0.0
1671465825441001191,24018,1671465825440557145,enu,-0.0059,0.0029,-0.0011,0.0,0.0,0.0,0.000225,0.0,0.0,0.0,0.0,0.0,0.0,0.000225,0.0,0.0,0.0,0.0,0.0,0.0,8.1e-05,0.0,0.0,0.0,0.0,0.0,0.0,0.0,0.0,0.0,0.0,0.0,0.0,0.0,0.0,0.0,0.0,0.0,0.0,0.0,0.0,0.0
1671465825461044932,24019,1671465825460570958,enu,-0.0061,0.0027,-0.0013,0.0,0.0,0.0,0.000225,0.0,0.0,0.0,0.0,0.0,0.0,0.000225,0.0,0.0,0.0,0.0,0.0,0.0,8.1e-05,0.0,0.0,0.0,0.0,0.0,0.0,0.0,0.0,0.0,0.0,0.0,0.0,0.0,0.0,0.0,0.0,0.0,0.0,0.0,0.0,0.0
1671465825481110029,24020,1671465825480575224,enu,-0.0061,0.0025,-0.0015,0.0,0.0,0.0,0.000225,0.0,0.0,0.0,0.0,0.0,0.0,0.000225,0.0,0.0,0.0,0.0,0.0,0.0,8.1e-05,0.0,0.0,0.0,0.0,0.0,0.0,0.0,0.0,0.0,0.0,0.0,0.0,0.0,0.0,0.0,0.0,0.0,0.0,0.0,0.0,0.0
1671465825501057091,24021,1671465825500581798,enu,-0.0062,0.0023,-0.0015,0.0,0.0,0.0,0.000225,0.0,0.0,0.0,0.0,0.0,0.0,0.000225,0.0,0.0,0.0,0.0,0.0,0.0,8.1e-05,0.0,0.0,0.0,0.0,0.0,0.0,0.0,0.0,0.0,0.0,0.0,0.0,0.0,0.0,0.0,0.0,0.0,0.0,0.0,0.0,0.0
1671465825520973776,24022,1671465825520522993,enu,-0.0064,0.0022,-0.0015,0.0,0.0,0.0,0.000225,0.0,0.0,0.0,0.0,0.0,0.0,0.000225,0.0,0.0,0.0,0.0,0.0,0.0,8.1e-05,0.0,0.0,0.0,0.0,0.0,0.0,0.0,0.0,0.0,0.0,0.0,0.0,0.0,0.0,0.0,0.0,0.0,0.0,0.0,0.0,0.0
1671465825540971374,24023,1671465825540561759,enu,-0.0066,0.0023,-0.0014,0.0,0.0,0.0,0.000225,0.0,0.0,0.0,0.0,0.0,0.0,0.000225,0.0,0.0,0.0,0.0,0.0,0.0,8.1e-05,0.0,0.0,0.0,0.0,0.0,0.0,0.0,0.0,0.0,0.0,0.0,0.0,0.0,0.0,0.0,0.0,0.0,0.0,0.0,0.0,0.0
1671465825561214151,24024,1671465825560712392,enu,-0.0066,0.0025,-0.0013,0.0,0.0,0.0,0.000225,0.0,0.0,0.0,0.0,0.0,0.0,0.000225,0.0,0.0,0.0,0.0,0.0,0.0,8.1e-05,0.0,0.0,0.0,0.0,0.0,0.0,0.0,0.0,0.0,0.0,0.0,0.0,0.0,0.0,0.0,0.0,0.0,0.0,0.0,0.0,0.0
1671465825581072283,24025,1671465825580553942,enu,-0.0067,0.0026,-0.0011,0.0,0.0,0.0,0.000225,0.0,0.0,0.0,0.0,0.0,0.0,0.000225,0.0,0.0,0.0,0.0,0.0,0.0,8.1e-05,0.0,0.0,0.0,0.0,0.0,0.0,0.0,0.0,0.0,0.0,0.0,0.0,0.0,0.0,0.0,0.0,0.0,0.0,0.0,0.0,0.0
1671465825601061632,24026,1671465825600578369,enu,-0.0067,0.003,-0.0011,0.0,0.0,0.0,0.000225,0.0,0.0,0.0,0.0,0.0,0.0,0.000225,0.0,0.0,0.0,0.0,0.0,0.0,8.1e-05,0.0,0.0,0.0,0.0,0.0,0.0,0.0,0.0,0.0,0.0,0.0,0.0,0.0,0.0,0.0,0.0,0.0,0.0,0.0,0.0,0.0
1671465825621141418,24027,1671465825620672916,enu,-0.0068,0.0032,-0.001,0.0,0.0,0.0,0.000225,0.0,0.0,0.0,0.0,0.0,0.0,0.000225,0.0,0.0,0.0,0.0,0.0,0.0,8.1e-05,0.0,0.0,0.0,0.0,0.0,0.0,0.0,0.0,0.0,0.0,0.0,0.0,0.0,0.0,0.0,0.0,0.0,0.0,0.0,0.0,0.0
1671465825641106868,24028,1671465825640582792,enu,-0.0066,0.0035,-0.0011,0.0,0.0,0.0,0.000225,0.0,0.0,0.0,0.0,0.0,0.0,0.000225,0.0,0.0,0.0,0.0,0.0,0.0,8.1e-05,0.0,0.0,0.0,0.0,0.0,0.0,0.0,0.0,0.0,0.0,0.0,0.0,0.0,0.0,0.0,0.0,0.0,0.0,0.0,0.0,0.0
1671465825661269710,24029,1671465825660580177,enu,-0.0063,0.0037,-0.0012,0.0,0.0,0.0,0.000225,0.0,0.0,0.0,0.0,0.0,0.0,0.000225,0.0,0.0,0.0,0.0,0.0,0.0,8.1e-05,0.0,0.0,0.0,0.0,0.0,0.0,0.0,0.0,0.0,0.0,0.0,0.0,0.0,0.0,0.0,0.0,0.0,0.0,0.0,0.0,0.0
1671465825681121080,24030,1671465825680611385,enu,-0.0061,0.0039,-0.0012,0.0,0.0,0.0,0.000225,0.0,0.0,0.0,0.0,0.0,0.0,0.000225,0.0,0.0,0.0,0.0,0.0,0.0,8.1e-05,0.0,0.0,0.0,0.0,0.0,0.0,0.0,0.0,0.0,0.0,0.0,0.0,0.0,0.0,0.0,0.0,0.0,0.0,0.0,0.0,0.0
1671465825701103780,24031,1671465825700583547,enu,-0.0059,0.004,-0.0013,0.0,0.0,0.0,0.000225,0.0,0.0,0.0,0.0,0.0,0.0,0.000225,0.0,0.0,0.0,0.0,0.0,0.0,8.1e-05,0.0,0.0,0.0,0.0,0.0,0.0,0.0,0.0,0.0,0.0,0.0,0.0,0.0,0.0,0.0,0.0,0.0,0.0,0.0,0.0,0.0
1671465825721019046,24032,1671465825720580005,enu,-0.0057,0.0039,-0.0014,0.0,0.0,0.0,0.000225,0.0,0.0,0.0,0.0,0.0,0.0,0.000225,0.0,0.0,0.0,0.0,0.0,0.0,8.1e-05,0.0,0.0,0.0,0.0,0.0,0.0,0.0,0.0,0.0,0.0,0.0,0.0,0.0,0.0,0.0,0.0,0.0,0.0,0.0,0.0,0.0
1671465825741104962,24033,1671465825740613790,enu,-0.0056,0.0039,-0.0015,0.0,0.0,0.0,0.000225,0.0,0.0,0.0,0.0,0.0,0.0,0.000225,0.0,0.0,0.0,0.0,0.0,0.0,8.1e-05,0.0,0.0,0.0,0.0,0.0,0.0,0.0,0.0,0.0,0.0,0.0,0.0,0.0,0.0,0.0,0.0,0.0,0.0,0.0,0.0,0.0
1671465825761126326,24034,1671465825760624471,enu,-0.0055,0.0037,-0.0015,0.0,0.0,0.0,0.000225,0.0,0.0,0.0,0.0,0.0,0.0,0.000225,0.0,0.0,0.0,0.0,0.0,0.0,8.1e-05,0.0,0.0,0.0,0.0,0.0,0.0,0.0,0.0,0.0,0.0,0.0,0.0,0.0,0.0,0.0,0.0,0.0,0.0,0.0,0.0,0.0
1671465825781087718,24035,1671465825780520305,enu,-0.0057,0.0035,-0.0016,0.0,0.0,0.0,0.000225,0.0,0.0,0.0,0.0,0.0,0.0,0.000225,0.0,0.0,0.0,0.0,0.0,0.0,8.1e-05,0.0,0.0,0.0,0.0,0.0,0.0,0.0,0.0,0.0,0.0,0.0,0.0,0.0,0.0,0.0,0.0,0.0,0.0,0.0,0.0,0.0
1671465825801091575,24036,1671465825800611804,enu,-0.0059,0.0034,-0.0016,0.0,0.0,0.0,0.000225,0.0,0.0,0.0,0.0,0.0,0.0,0.000225,0.0,0.0,0.0,0.0,0.0,0.0,8.1e-05,0.0,0.0,0.0,0.0,0.0,0.0,0.0,0.0,0.0,0.0,0.0,0.0,0.0,0.0,0.0,0.0,0.0,0.0,0.0,0.0,0.0
1671465825821277376,24037,1671465825820749871,enu,-0.0061,0.0031,-0.0016,0.0,0.0,0.0,0.000225,0.0,0.0,0.0,0.0,0.0,0.0,0.000225,0.0,0.0,0.0,0.0,0.0,0.0,8.1e-05,0.0,0.0,0.0,0.0,0.0,0.0,0.0,0.0,0.0,0.0,0.0,0.0,0.0,0.0,0.0,0.0,0.0,0.0,0.0,0.0,0.0
1671465825841015487,24038,1671465825840520432,enu,-0.0063,0.0029,-0.0015,0.0,0.0,0.0,0.000225,0.0,0.0,0.0,0.0,0.0,0.0,0.000225,0.0,0.0,0.0,0.0,0.0,0.0,8.1e-05,0.0,0.0,0.0,0.0,0.0,0.0,0.0,0.0,0.0,0.0,0.0,0.0,0.0,0.0,0.0,0.0,0.0,0.0,0.0,0.0,0.0
1671465825861182397,24039,1671465825860634287,enu,-0.0065,0.0028,-0.0014,0.0,0.0,0.0,0.000225,0.0,0.0,0.0,0.0,0.0,0.0,0.000225,0.0,0.0,0.0,0.0,0.0,0.0,8.1e-05,0.0,0.0,0.0,0.0,0.0,0.0,0.0,0.0,0.0,0.0,0.0,0.0,0.0,0.0,0.0,0.0,0.0,0.0,0.0,0.0,0.0
1671465825881159278,24040,1671465825880655089,enu,-0.0065,0.0028,-0.0012,0.0,0.0,0.0,0.000225,0.0,0.0,0.0,0.0,0.0,0.0,0.000225,0.0,0.0,0.0,0.0,0.0,0.0,8.1e-05,0.0,0.0,0.0,0.0,0.0,0.0,0.0,0.0,0.0,0.0,0.0,0.0,0.0,0.0,0.0,0.0,0.0,0.0,0.0,0.0,0.0
1671465825901052789,24041,1671465825900561733,enu,-0.0064,0.0028,-0.0011,0.0,0.0,0.0,0.000225,0.0,0.0,0.0,0.0,0.0,0.0,0.000225,0.0,0.0,0.0,0.0,0.0,0.0,8.1e-05,0.0,0.0,0.0,0.0,0.0,0.0,0.0,0.0,0.0,0.0,0.0,0.0,0.0,0.0,0.0,0.0,0.0,0.0,0.0,0.0,0.0
1671465825921063850,24042,1671465825920613100,enu,-0.0065,0.0029,-0.0011,0.0,0.0,0.0,0.000225,0.0,0.0,0.0,0.0,0.0,0.0,0.000225,0.0,0.0,0.0,0.0,0.0,0.0,8.1e-05,0.0,0.0,0.0,0.0,0.0,0.0,0.0,0.0,0.0,0.0,0.0,0.0,0.0,0.0,0.0,0.0,0.0,0.0,0.0,0.0,0.0
1671465825941112423,24043,1671465825940643666,enu,-0.0064,0.0031,-0.0012,0.0,0.0,0.0,0.000225,0.0,0.0,0.0,0.0,0.0,0.0,0.000225,0.0,0.0,0.0,0.0,0.0,0.0,8.1e-05,0.0,0.0,0.0,0.0,0.0,0.0,0.0,0.0,0.0,0.0,0.0,0.0,0.0,0.0,0.0,0.0,0.0,0.0,0.0,0.0,0.0
1671465825961112694,24044,1671465825960592312,enu,-0.0063,0.0032,-0.0013,0.0,0.0,0.0,0.000225,0.0,0.0,0.0,0.0,0.0,0.0,0.000225,0.0,0.0,0.0,0.0,0.0,0.0,8.1e-05,0.0,0.0,0.0,0.0,0.0,0.0,0.0,0.0,0.0,0.0,0.0,0.0,0.0,0.0,0.0,0.0,0.0,0.0,0.0,0.0,0.0
1671465825981142779,24045,1671465825980569969,enu,-0.0063,0.0034,-0.0015,0.0,0.0,0.0,0.000225,0.0,0.0,0.0,0.0,0.0,0.0,0.000225,0.0,0.0,0.0,0.0,0.0,0.0,8.1e-05,0.0,0.0,0.0,0.0,0.0,0.0,0.0,0.0,0.0,0.0,0.0,0.0,0.0,0.0,0.0,0.0,0.0,0.0,0.0,0.0,0.0
1671465826001150634,24046,1671465826000656575,enu,-0.0062,0.0036,-0.0017,0.0,0.0,0.0,0.000225,0.0,0.0,0.0,0.0,0.0,0.0,0.000225,0.0,0.0,0.0,0.0,0.0,0.0,8.1e-05,0.0,0.0,0.0,0.0,0.0,0.0,0.0,0.0,0.0,0.0,0.0,0.0,0.0,0.0,0.0,0.0,0.0,0.0,0.0,0.0,0.0
1671465826021136008,24047,1671465826020583047,enu,-0.0061,0.0039,-0.0018,0.0,0.0,0.0,0.000225,0.0,0.0,0.0,0.0,0.0,0.0,0.000225,0.0,0.0,0.0,0.0,0.0,0.0,8.1e-05,0.0,0.0,0.0,0.0,0.0,0.0,0.0,0.0,0.0,0.0,0.0,0.0,0.0,0.0,0.0,0.0,0.0,0.0,0.0,0.0,0.0
1671465826041067579,24048,1671465826040601984,enu,-0.006,0.0041,-0.0018,0.0,0.0,0.0,0.000225,0.0,0.0,0.0,0.0,0.0,0.0,0.000225,0.0,0.0,0.0,0.0,0.0,0.0,8.1e-05,0.0,0.0,0.0,0.0,0.0,0.0,0.0,0.0,0.0,0.0,0.0,0.0,0.0,0.0,0.0,0.0,0.0,0.0,0.0,0.0,0.0
1671465826061270731,24049,1671465826060712655,enu,-0.0059,0.0043,-0.0018,0.0,0.0,0.0,0.000225,0.0,0.0,0.0,0.0,0.0,0.0,0.000225,0.0,0.0,0.0,0.0,0.0,0.0,8.1e-05,0.0,0.0,0.0,0.0,0.0,0.0,0.0,0.0,0.0,0.0,0.0,0.0,0.0,0.0,0.0,0.0,0.0,0.0,0.0,0.0,0.0
1671465826081151644,24050,1671465826080655396,enu,-0.0057,0.0044,-0.0016,0.0,0.0,0.0,0.000225,0.0,0.0,0.0,0.0,0.0,0.0,0.000225,0.0,0.0,0.0,0.0,0.0,0.0,8.1e-05,0.0,0.0,0.0,0.0,0.0,0.0,0.0,0.0,0.0,0.0,0.0,0.0,0.0,0.0,0.0,0.0,0.0,0.0,0.0,0.0,0.0
1671465826101219749,24051,1671465826100713064,enu,-0.0058,0.0045,-0.0015,0.0,0.0,0.0,0.000225,0.0,0.0,0.0,0.0,0.0,0.0,0.000225,0.0,0.0,0.0,0.0,0.0,0.0,8.1e-05,0.0,0.0,0.0,0.0,0.0,0.0,0.0,0.0,0.0,0.0,0.0,0.0,0.0,0.0,0.0,0.0,0.0,0.0,0.0,0.0,0.0
1671465826121236553,24052,1671465826120707355,enu,-0.0056,0.0044,-0.0013,0.0,0.0,0.0,0.000225,0.0,0.0,0.0,0.0,0.0,0.0,0.000225,0.0,0.0,0.0,0.0,0.0,0.0,8.1e-05,0.0,0.0,0.0,0.0,0.0,0.0,0.0,0.0,0.0,0.0,0.0,0.0,0.0,0.0,0.0,0.0,0.0,0.0,0.0,0.0,0.0
1671465826141169390,24053,1671465826140652761,enu,-0.0057,0.0044,-0.0014,0.0,0.0,0.0,0.000225,0.0,0.0,0.0,0.0,0.0,0.0,0.000225,0.0,0.0,0.0,0.0,0.0,0.0,8.1e-05,0.0,0.0,0.0,0.0,0.0,0.0,0.0,0.0,0.0,0.0,0.0,0.0,0.0,0.0,0.0,0.0,0.0,0.0,0.0,0.0,0.0
1671465826160990718,24054,1671465826160556488,enu,-0.0058,0.0042,-0.0014,0.0,0.0,0.0,0.000225,0.0,0.0,0.0,0.0,0.0,0.0,0.000225,0.0,0.0,0.0,0.0,0.0,0.0,8.1e-05,0.0,0.0,0.0,0.0,0.0,0.0,0.0,0.0,0.0,0.0,0.0,0.0,0.0,0.0,0.0,0.0,0.0,0.0,0.0,0.0,0.0
1671465826181183281,24055,1671465826180679196,enu,-0.0057,0.0039,-0.0015,0.0,0.0,0.0,0.000225,0.0,0.0,0.0,0.0,0.0,0.0,0.000225,0.0,0.0,0.0,0.0,0.0,0.0,8.1e-05,0.0,0.0,0.0,0.0,0.0,0.0,0.0,0.0,0.0,0.0,0.0,0.0,0.0,0.0,0.0,0.0,0.0,0.0,0.0,0.0,0.0
1671465826201175982,24056,1671465826200637998,enu,-0.0058,0.0037,-0.0017,0.0,0.0,0.0,0.000225,0.0,0.0,0.0,0.0,0.0,0.0,0.000225,0.0,0.0,0.0,0.0,0.0,0.0,8.1e-05,0.0,0.0,0.0,0.0,0.0,0.0,0.0,0.0,0.0,0.0,0.0,0.0,0.0,0.0,0.0,0.0,0.0,0.0,0.0,0.0,0.0
1671465826221343570,24057,1671465826220660036,enu,-0.0059,0.0033,-0.0019,0.0,0.0,0.0,0.000225,0.0,0.0,0.0,0.0,0.0,0.0,0.000225,0.0,0.0,0.0,0.0,0.0,0.0,8.1e-05,0.0,0.0,0.0,0.0,0.0,0.0,0.0,0.0,0.0,0.0,0.0,0.0,0.0,0.0,0.0,0.0,0.0,0.0,0.0,0.0,0.0
1671465826241220516,24058,1671465826240702183,enu,-0.0061,0.0032,-0.0021,0.0,0.0,0.0,0.000225,0.0,0.0,0.0,0.0,0.0,0.0,0.000225,0.0,0.0,0.0,0.0,0.0,0.0,8.1e-05,0.0,0.0,0.0,0.0,0.0,0.0,0.0,0.0,0.0,0.0,0.0,0.0,0.0,0.0,0.0,0.0,0.0,0.0,0.0,0.0,0.0
1671465826261356989,24059,1671465826260661891,enu,-0.0062,0.003,-0.0021,0.0,0.0,0.0,0.000225,0.0,0.0,0.0,0.0,0.0,0.0,0.000225,0.0,0.0,0.0,0.0,0.0,0.0,8.1e-05,0.0,0.0,0.0,0.0,0.0,0.0,0.0,0.0,0.0,0.0,0.0,0.0,0.0,0.0,0.0,0.0,0.0,0.0,0.0,0.0,0.0
1671465826281222893,24060,1671465826280653627,enu,-0.0063,0.0031,-0.002,0.0,0.0,0.0,0.000225,0.0,0.0,0.0,0.0,0.0,0.0,0.000225,0.0,0.0,0.0,0.0,0.0,0.0,8.1e-05,0.0,0.0,0.0,0.0,0.0,0.0,0.0,0.0,0.0,0.0,0.0,0.0,0.0,0.0,0.0,0.0,0.0,0.0,0.0,0.0,0.0
1671465826301175925,24061,1671465826300667305,enu,-0.0063,0.0032,-0.0018,0.0,0.0,0.0,0.000225,0.0,0.0,0.0,0.0,0.0,0.0,0.000225,0.0,0.0,0.0,0.0,0.0,0.0,8.1e-05,0.0,0.0,0.0,0.0,0.0,0.0,0.0,0.0,0.0,0.0,0.0,0.0,0.0,0.0,0.0,0.0,0.0,0.0,0.0,0.0,0.0
1671465826321255060,24062,1671465826320739349,enu,-0.0061,0.0035,-0.0016,0.0,0.0,0.0,0.000225,0.0,0.0,0.0,0.0,0.0,0.0,0.000225,0.0,0.0,0.0,0.0,0.0,0.0,8.1e-05,0.0,0.0,0.0,0.0,0.0,0.0,0.0,0.0,0.0,0.0,0.0,0.0,0.0,0.0,0.0,0.0,0.0,0.0,0.0,0.0,0.0
1671465826341143343,24063,1671465826340650918,enu,-0.006,0.0037,-0.0014,0.0,0.0,0.0,0.000225,0.0,0.0,0.0,0.0,0.0,0.0,0.000225,0.0,0.0,0.0,0.0,0.0,0.0,8.1e-05,0.0,0.0,0.0,0.0,0.0,0.0,0.0,0.0,0.0,0.0,0.0,0.0,0.0,0.0,0.0,0.0,0.0,0.0,0.0,0.0,0.0
1671465826361203134,24064,1671465826360675709,enu,-0.0058,0.0041,-0.0013,0.0,0.0,0.0,0.000225,0.0,0.0,0.0,0.0,0.0,0.0,0.000225,0.0,0.0,0.0,0.0,0.0,0.0,8.1e-05,0.0,0.0,0.0,0.0,0.0,0.0,0.0,0.0,0.0,0.0,0.0,0.0,0.0,0.0,0.0,0.0,0.0,0.0,0.0,0.0,0.0
1671465826381143236,24065,1671465826380626970,enu,-0.0057,0.0044,-0.0014,0.0,0.0,0.0,0.000225,0.0,0.0,0.0,0.0,0.0,0.0,0.000225,0.0,0.0,0.0,0.0,0.0,0.0,8.1e-05,0.0,0.0,0.0,0.0,0.0,0.0,0.0,0.0,0.0,0.0,0.0,0.0,0.0,0.0,0.0,0.0,0.0,0.0,0.0,0.0,0.0
1671465826401165546,24066,1671465826400644742,enu,-0.0055,0.0046,-0.0015,0.0,0.0,0.0,0.000225,0.0,0.0,0.0,0.0,0.0,0.0,0.000225,0.0,0.0,0.0,0.0,0.0,0.0,8.1e-05,0.0,0.0,0.0,0.0,0.0,0.0,0.0,0.0,0.0,0.0,0.0,0.0,0.0,0.0,0.0,0.0,0.0,0.0,0.0,0.0,0.0
1671465826421103449,24067,1671465826420688394,enu,-0.0055,0.0048,-0.0017,0.0,0.0,0.0,0.000225,0.0,0.0,0.0,0.0,0.0,0.0,0.000225,0.0,0.0,0.0,0.0,0.0,0.0,8.1e-05,0.0,0.0,0.0,0.0,0.0,0.0,0.0,0.0,0.0,0.0,0.0,0.0,0.0,0.0,0.0,0.0,0.0,0.0,0.0,0.0,0.0
1671465826441184300,24068,1671465826440642277,enu,-0.0054,0.0049,-0.0018,0.0,0.0,0.0,0.000225,0.0,0.0,0.0,0.0,0.0,0.0,0.000225,0.0,0.0,0.0,0.0,0.0,0.0,8.1e-05,0.0,0.0,0.0,0.0,0.0,0.0,0.0,0.0,0.0,0.0,0.0,0.0,0.0,0.0,0.0,0.0,0.0,0.0,0.0,0.0,0.0
1671465826461215906,24069,1671465826460673436,enu,-0.0053,0.0049,-0.0018,0.0,0.0,0.0,0.000225,0.0,0.0,0.0,0.0,0.0,0.0,0.000225,0.0,0.0,0.0,0.0,0.0,0.0,8.1e-05,0.0,0.0,0.0,0.0,0.0,0.0,0.0,0.0,0.0,0.0,0.0,0.0,0.0,0.0,0.0,0.0,0.0,0.0,0.0,0.0,0.0
1671465826481205743,24070,1671465826480729393,enu,-0.0053,0.0049,-0.0019,0.0,0.0,0.0,0.000225,0.0,0.0,0.0,0.0,0.0,0.0,0.000225,0.0,0.0,0.0,0.0,0.0,0.0,8.1e-05,0.0,0.0,0.0,0.0,0.0,0.0,0.0,0.0,0.0,0.0,0.0,0.0,0.0,0.0,0.0,0.0,0.0,0.0,0.0,0.0,0.0
1671465826501156027,24071,1671465826500642311,enu,-0.0052,0.0047,-0.002,0.0,0.0,0.0,0.000225,0.0,0.0,0.0,0.0,0.0,0.0,0.000225,0.0,0.0,0.0,0.0,0.0,0.0,8.1e-05,0.0,0.0,0.0,0.0,0.0,0.0,0.0,0.0,0.0,0.0,0.0,0.0,0.0,0.0,0.0,0.0,0.0,0.0,0.0,0.0,0.0
1671465826521193994,24072,1671465826520714645,enu,-0.0054,0.0046,-0.0021,0.0,0.0,0.0,0.000225,0.0,0.0,0.0,0.0,0.0,0.0,0.000225,0.0,0.0,0.0,0.0,0.0,0.0,8.1e-05,0.0,0.0,0.0,0.0,0.0,0.0,0.0,0.0,0.0,0.0,0.0,0.0,0.0,0.0,0.0,0.0,0.0,0.0,0.0,0.0,0.0
1671465826541159940,24073,1671465826540726579,enu,-0.0056,0.0044,-0.0022,0.0,0.0,0.0,0.000225,0.0,0.0,0.0,0.0,0.0,0.0,0.000225,0.0,0.0,0.0,0.0,0.0,0.0,8.1e-05,0.0,0.0,0.0,0.0,0.0,0.0,0.0,0.0,0.0,0.0,0.0,0.0,0.0,0.0,0.0,0.0,0.0,0.0,0.0,0.0,0.0
1671465826561153081,24074,1671465826560695630,enu,-0.0057,0.0042,-0.0022,0.0,0.0,0.0,0.000225,0.0,0.0,0.0,0.0,0.0,0.0,0.000225,0.0,0.0,0.0,0.0,0.0,0.0,8.1e-05,0.0,0.0,0.0,0.0,0.0,0.0,0.0,0.0,0.0,0.0,0.0,0.0,0.0,0.0,0.0,0.0,0.0,0.0,0.0,0.0,0.0
1671465826581200045,24075,1671465826580731253,enu,-0.0059,0.0042,-0.0021,0.0,0.0,0.0,0.000225,0.0,0.0,0.0,0.0,0.0,0.0,0.000225,0.0,0.0,0.0,0.0,0.0,0.0,8.1e-05,0.0,0.0,0.0,0.0,0.0,0.0,0.0,0.0,0.0,0.0,0.0,0.0,0.0,0.0,0.0,0.0,0.0,0.0,0.0,0.0,0.0
1671465826601180825,24076,1671465826600765244,enu,-0.0059,0.004,-0.0019,0.0,0.0,0.0,0.000225,0.0,0.0,0.0,0.0,0.0,0.0,0.000225,0.0,0.0,0.0,0.0,0.0,0.0,8.1e-05,0.0,0.0,0.0,0.0,0.0,0.0,0.0,0.0,0.0,0.0,0.0,0.0,0.0,0.0,0.0,0.0,0.0,0.0,0.0,0.0,0.0
1671465826621171321,24077,1671465826620712085,enu,-0.0059,0.0039,-0.0017,0.0,0.0,0.0,0.000225,0.0,0.0,0.0,0.0,0.0,0.0,0.000225,0.0,0.0,0.0,0.0,0.0,0.0,8.1e-05,0.0,0.0,0.0,0.0,0.0,0.0,0.0,0.0,0.0,0.0,0.0,0.0,0.0,0.0,0.0,0.0,0.0,0.0,0.0,0.0,0.0
1671465826641290048,24078,1671465826640755515,enu,-0.0058,0.0039,-0.0015,0.0,0.0,0.0,0.000225,0.0,0.0,0.0,0.0,0.0,0.0,0.000225,0.0,0.0,0.0,0.0,0.0,0.0,8.1e-05,0.0,0.0,0.0,0.0,0.0,0.0,0.0,0.0,0.0,0.0,0.0,0.0,0.0,0.0,0.0,0.0,0.0,0.0,0.0,0.0,0.0
1671465826661274333,24079,1671465826660796806,enu,-0.0058,0.0039,-0.0014,0.0,0.0,0.0,0.000225,0.0,0.0,0.0,0.0,0.0,0.0,0.000225,0.0,0.0,0.0,0.0,0.0,0.0,8.1e-05,0.0,0.0,0.0,0.0,0.0,0.0,0.0,0.0,0.0,0.0,0.0,0.0,0.0,0.0,0.0,0.0,0.0,0.0,0.0,0.0,0.0
1671465826681224587,24080,1671465826680652528,enu,-0.0057,0.004,-0.0015,0.0,0.0,0.0,0.000225,0.0,0.0,0.0,0.0,0.0,0.0,0.000225,0.0,0.0,0.0,0.0,0.0,0.0,8.1e-05,0.0,0.0,0.0,0.0,0.0,0.0,0.0,0.0,0.0,0.0,0.0,0.0,0.0,0.0,0.0,0.0,0.0,0.0,0.0,0.0,0.0
1671465826701174059,24081,1671465826700665640,enu,-0.0055,0.0041,-0.0016,0.0,0.0,0.0,0.000225,0.0,0.0,0.0,0.0,0.0,0.0,0.000225,0.0,0.0,0.0,0.0,0.0,0.0,8.1e-05,0.0,0.0,0.0,0.0,0.0,0.0,0.0,0.0,0.0,0.0,0.0,0.0,0.0,0.0,0.0,0.0,0.0,0.0,0.0,0.0,0.0
1671465826721237207,24082,1671465826720715346,enu,-0.0055,0.0042,-0.0017,0.0,0.0,0.0,0.000225,0.0,0.0,0.0,0.0,0.0,0.0,0.000225,0.0,0.0,0.0,0.0,0.0,0.0,8.1e-05,0.0,0.0,0.0,0.0,0.0,0.0,0.0,0.0,0.0,0.0,0.0,0.0,0.0,0.0,0.0,0.0,0.0,0.0,0.0,0.0,0.0
1671465826741323505,24083,1671465826740669610,enu,-0.0054,0.0042,-0.0019,0.0,0.0,0.0,0.000225,0.0,0.0,0.0,0.0,0.0,0.0,0.000225,0.0,0.0,0.0,0.0,0.0,0.0,8.1e-05,0.0,0.0,0.0,0.0,0.0,0.0,0.0,0.0,0.0,0.0,0.0,0.0,0.0,0.0,0.0,0.0,0.0,0.0,0.0,0.0,0.0
1671465826761332814,24084,1671465826760771666,enu,-0.0054,0.0043,-0.0021,0.0,0.0,0.0,0.000256,0.0,0.0,0.0,0.0,0.0,0.0,0.000256,0.0,0.0,0.0,0.0,0.0,0.0,0.0001,0.0,0.0,0.0,0.0,0.0,0.0,0.0,0.0,0.0,0.0,0.0,0.0,0.0,0.0,0.0,0.0,0.0,0.0,0.0,0.0,0.0
1671465826781271650,24085,1671465826780720445,enu,-0.0052,0.0044,-0.0022,0.0,0.0,0.0,0.000256,0.0,0.0,0.0,0.0,0.0,0.0,0.000256,0.0,0.0,0.0,0.0,0.0,0.0,0.0001,0.0,0.0,0.0,0.0,0.0,0.0,0.0,0.0,0.0,0.0,0.0,0.0,0.0,0.0,0.0,0.0,0.0,0.0,0.0,0.0,0.0
1671465826801217627,24086,1671465826800722346,enu,-0.0051,0.0045,-0.0022,0.0,0.0,0.0,0.000256,0.0,0.0,0.0,0.0,0.0,0.0,0.000256,0.0,0.0,0.0,0.0,0.0,0.0,0.0001,0.0,0.0,0.0,0.0,0.0,0.0,0.0,0.0,0.0,0.0,0.0,0.0,0.0,0.0,0.0,0.0,0.0,0.0,0.0,0.0,0.0
1671465826821320902,24087,1671465826820894239,enu,-0.005,0.0046,-0.0022,0.0,0.0,0.0,0.000256,0.0,0.0,0.0,0.0,0.0,0.0,0.000256,0.0,0.0,0.0,0.0,0.0,0.0,0.0001,0.0,0.0,0.0,0.0,0.0,0.0,0.0,0.0,0.0,0.0,0.0,0.0,0.0,0.0,0.0,0.0,0.0,0.0,0.0,0.0,0.0
1671465826841101945,24088,1671465826840677609,enu,-0.0049,0.0047,-0.0021,0.0,0.0,0.0,0.000256,0.0,0.0,0.0,0.0,0.0,0.0,0.000256,0.0,0.0,0.0,0.0,0.0,0.0,0.0001,0.0,0.0,0.0,0.0,0.0,0.0,0.0,0.0,0.0,0.0,0.0,0.0,0.0,0.0,0.0,0.0,0.0,0.0,0.0,0.0,0.0
1671465826861203773,24089,1671465826860706682,enu,-0.005,0.0048,-0.002,0.0,0.0,0.0,0.000256,0.0,0.0,0.0,0.0,0.0,0.0,0.000256,0.0,0.0,0.0,0.0,0.0,0.0,0.0001,0.0,0.0,0.0,0.0,0.0,0.0,0.0,0.0,0.0,0.0,0.0,0.0,0.0,0.0,0.0,0.0,0.0,0.0,0.0,0.0,0.0
1671465826881260391,24090,1671465826880758128,enu,-0.0051,0.0047,-0.0019,0.0,0.0,0.0,0.000256,0.0,0.0,0.0,0.0,0.0,0.0,0.000256,0.0,0.0,0.0,0.0,0.0,0.0,0.0001,0.0,0.0,0.0,0.0,0.0,0.0,0.0,0.0,0.0,0.0,0.0,0.0,0.0,0.0,0.0,0.0,0.0,0.0,0.0,0.0,0.0
1671465826901198065,24091,1671465826900727546,enu,-0.0053,0.0048,-0.0019,0.0,0.0,0.0,0.000256,0.0,0.0,0.0,0.0,0.0,0.0,0.000256,0.0,0.0,0.0,0.0,0.0,0.0,0.0001,0.0,0.0,0.0,0.0,0.0,0.0,0.0,0.0,0.0,0.0,0.0,0.0,0.0,0.0,0.0,0.0,0.0,0.0,0.0,0.0,0.0
1671465826921200706,24092,1671465826920750886,enu,-0.0053,0.0046,-0.0018,0.0,0.0,0.0,0.000256,0.0,0.0,0.0,0.0,0.0,0.0,0.000256,0.0,0.0,0.0,0.0,0.0,0.0,0.0001,0.0,0.0,0.0,0.0,0.0,0.0,0.0,0.0,0.0,0.0,0.0,0.0,0.0,0.0,0.0,0.0,0.0,0.0,0.0,0.0,0.0
1671465826941288096,24093,1671465826940793140,enu,-0.0055,0.0046,-0.0017,0.0,0.0,0.0,0.000256,0.0,0.0,0.0,0.0,0.0,0.0,0.000256,0.0,0.0,0.0,0.0,0.0,0.0,0.0001,0.0,0.0,0.0,0.0,0.0,0.0,0.0,0.0,0.0,0.0,0.0,0.0,0.0,0.0,0.0,0.0,0.0,0.0,0.0,0.0,0.0
1671465826961288888,24094,1671465826960749180,enu,-0.0057,0.0045,-0.0017,0.0,0.0,0.0,0.000256,0.0,0.0,0.0,0.0,0.0,0.0,0.000256,0.0,0.0,0.0,0.0,0.0,0.0,0.0001,0.0,0.0,0.0,0.0,0.0,0.0,0.0,0.0,0.0,0.0,0.0,0.0,0.0,0.0,0.0,0.0,0.0,0.0,0.0,0.0,0.0
1671465826981203357,24095,1671465826980718144,enu,-0.0057,0.0045,-0.0017,0.0,0.0,0.0,0.000256,0.0,0.0,0.0,0.0,0.0,0.0,0.000256,0.0,0.0,0.0,0.0,0.0,0.0,0.0001,0.0,0.0,0.0,0.0,0.0,0.0,0.0,0.0,0.0,0.0,0.0,0.0,0.0,0.0,0.0,0.0,0.0,0.0,0.0,0.0,0.0
1671465827001285000,24096,1671465827000737048,enu,-0.0057,0.0043,-0.0017,0.0,0.0,0.0,0.000256,0.0,0.0,0.0,0.0,0.0,0.0,0.000256,0.0,0.0,0.0,0.0,0.0,0.0,0.0001,0.0,0.0,0.0,0.0,0.0,0.0,0.0,0.0,0.0,0.0,0.0,0.0,0.0,0.0,0.0,0.0,0.0,0.0,0.0,0.0,0.0
1671465827021262041,24097,1671465827020691272,enu,-0.0056,0.0044,-0.0019,0.0,0.0,0.0,0.000256,0.0,0.0,0.0,0.0,0.0,0.0,0.000256,0.0,0.0,0.0,0.0,0.0,0.0,0.0001,0.0,0.0,0.0,0.0,0.0,0.0,0.0,0.0,0.0,0.0,0.0,0.0,0.0,0.0,0.0,0.0,0.0,0.0,0.0,0.0,0.0
1671465827041409717,24098,1671465827040738339,enu,-0.0055,0.0044,-0.002,0.0,0.0,0.0,0.000256,0.0,0.0,0.0,0.0,0.0,0.0,0.000256,0.0,0.0,0.0,0.0,0.0,0.0,0.0001,0.0,0.0,0.0,0.0,0.0,0.0,0.0,0.0,0.0,0.0,0.0,0.0,0.0,0.0,0.0,0.0,0.0,0.0,0.0,0.0,0.0
1671465827061325784,24099,1671465827060849414,enu,-0.0054,0.0045,-0.0021,0.0,0.0,0.0,0.000256,0.0,0.0,0.0,0.0,0.0,0.0,0.000256,0.0,0.0,0.0,0.0,0.0,0.0,0.0001,0.0,0.0,0.0,0.0,0.0,0.0,0.0,0.0,0.0,0.0,0.0,0.0,0.0,0.0,0.0,0.0,0.0,0.0,0.0,0.0,0.0
1671465827081190670,24100,1671465827080741538,enu,-0.0053,0.0046,-0.0022,0.0,0.0,0.0,0.000256,0.0,0.0,0.0,0.0,0.0,0.0,0.000256,0.0,0.0,0.0,0.0,0.0,0.0,0.0001,0.0,0.0,0.0,0.0,0.0,0.0,0.0,0.0,0.0,0.0,0.0,0.0,0.0,0.0,0.0,0.0,0.0,0.0,0.0,0.0,0.0
1671465827101322770,24101,1671465827100845578,enu,-0.005,0.0047,-0.0023,0.0,0.0,0.0,0.000256,0.0,0.0,0.0,0.0,0.0,0.0,0.000256,0.0,0.0,0.0,0.0,0.0,0.0,0.0001,0.0,0.0,0.0,0.0,0.0,0.0,0.0,0.0,0.0,0.0,0.0,0.0,0.0,0.0,0.0,0.0,0.0,0.0,0.0,0.0,0.0
1671465827121334411,24102,1671465827120834333,enu,-0.0051,0.005,-0.0023,0.0,0.0,0.0,0.000256,0.0,0.0,0.0,0.0,0.0,0.0,0.000256,0.0,0.0,0.0,0.0,0.0,0.0,0.0001,0.0,0.0,0.0,0.0,0.0,0.0,0.0,0.0,0.0,0.0,0.0,0.0,0.0,0.0,0.0,0.0,0.0,0.0,0.0,0.0,0.0
1671465827141325782,24103,1671465827140760822,enu,-0.0049,0.005,-0.0022,0.0,0.0,0.0,0.000256,0.0,0.0,0.0,0.0,0.0,0.0,0.000256,0.0,0.0,0.0,0.0,0.0,0.0,0.0001,0.0,0.0,0.0,0.0,0.0,0.0,0.0,0.0,0.0,0.0,0.0,0.0,0.0,0.0,0.0,0.0,0.0,0.0,0.0,0.0,0.0
1671465827161398448,24104,1671465827160825653,enu,-0.0048,0.005,-0.002,0.0,0.0,0.0,0.000256,0.0,0.0,0.0,0.0,0.0,0.0,0.000256,0.0,0.0,0.0,0.0,0.0,0.0,0.0001,0.0,0.0,0.0,0.0,0.0,0.0,0.0,0.0,0.0,0.0,0.0,0.0,0.0,0.0,0.0,0.0,0.0,0.0,0.0,0.0,0.0
1671465827181416315,24105,1671465827180855649,enu,-0.005,0.0052,-0.0019,0.0,0.0,0.0,0.000256,0.0,0.0,0.0,0.0,0.0,0.0,0.000256,0.0,0.0,0.0,0.0,0.0,0.0,0.0001,0.0,0.0,0.0,0.0,0.0,0.0,0.0,0.0,0.0,0.0,0.0,0.0,0.0,0.0,0.0,0.0,0.0,0.0,0.0,0.0,0.0
1671465827201353648,24106,1671465827200803127,enu,-0.0048,0.0052,-0.0017,0.0,0.0,0.0,0.000256,0.0,0.0,0.0,0.0,0.0,0.0,0.000256,0.0,0.0,0.0,0.0,0.0,0.0,0.0001,0.0,0.0,0.0,0.0,0.0,0.0,0.0,0.0,0.0,0.0,0.0,0.0,0.0,0.0,0.0,0.0,0.0,0.0,0.0,0.0,0.0
1671465827221390151,24107,1671465827220857191,enu,-0.005,0.0052,-0.0016,0.0,0.0,0.0,0.000256,0.0,0.0,0.0,0.0,0.0,0.0,0.000256,0.0,0.0,0.0,0.0,0.0,0.0,0.0001,0.0,0.0,0.0,0.0,0.0,0.0,0.0,0.0,0.0,0.0,0.0,0.0,0.0,0.0,0.0,0.0,0.0,0.0,0.0,0.0,0.0
1671465827241399177,24108,1671465827240880659,enu,-0.005,0.0051,-0.0016,0.0,0.0,0.0,0.000256,0.0,0.0,0.0,0.0,0.0,0.0,0.000256,0.0,0.0,0.0,0.0,0.0,0.0,0.0001,0.0,0.0,0.0,0.0,0.0,0.0,0.0,0.0,0.0,0.0,0.0,0.0,0.0,0.0,0.0,0.0,0.0,0.0,0.0,0.0,0.0
1671465827261236669,24109,1671465827260752480,enu,-0.005,0.0051,-0.0017,0.0,0.0,0.0,0.000256,0.0,0.0,0.0,0.0,0.0,0.0,0.000256,0.0,0.0,0.0,0.0,0.0,0.0,0.0001,0.0,0.0,0.0,0.0,0.0,0.0,0.0,0.0,0.0,0.0,0.0,0.0,0.0,0.0,0.0,0.0,0.0,0.0,0.0,0.0,0.0
1671465827281286606,24110,1671465827280741452,enu,-0.005,0.0049,-0.0017,0.0,0.0,0.0,0.000256,0.0,0.0,0.0,0.0,0.0,0.0,0.000256,0.0,0.0,0.0,0.0,0.0,0.0,0.0001,0.0,0.0,0.0,0.0,0.0,0.0,0.0,0.0,0.0,0.0,0.0,0.0,0.0,0.0,0.0,0.0,0.0,0.0,0.0,0.0,0.0
1671465827301278688,24111,1671465827300799336,enu,-0.0051,0.0049,-0.0019,0.0,0.0,0.0,0.000256,0.0,0.0,0.0,0.0,0.0,0.0,0.000256,0.0,0.0,0.0,0.0,0.0,0.0,0.0001,0.0,0.0,0.0,0.0,0.0,0.0,0.0,0.0,0.0,0.0,0.0,0.0,0.0,0.0,0.0,0.0,0.0,0.0,0.0,0.0,0.0
1671465827321292191,24112,1671465827320834946,enu,-0.005,0.0048,-0.002,0.0,0.0,0.0,0.000256,0.0,0.0,0.0,0.0,0.0,0.0,0.000256,0.0,0.0,0.0,0.0,0.0,0.0,0.0001,0.0,0.0,0.0,0.0,0.0,0.0,0.0,0.0,0.0,0.0,0.0,0.0,0.0,0.0,0.0,0.0,0.0,0.0,0.0,0.0,0.0
1671465827341215512,24113,1671465827340744909,enu,-0.005,0.0048,-0.002,0.0,0.0,0.0,0.000256,0.0,0.0,0.0,0.0,0.0,0.0,0.000256,0.0,0.0,0.0,0.0,0.0,0.0,0.0001,0.0,0.0,0.0,0.0,0.0,0.0,0.0,0.0,0.0,0.0,0.0,0.0,0.0,0.0,0.0,0.0,0.0,0.0,0.0,0.0,0.0
1671465827361237062,24114,1671465827360797220,enu,-0.005,0.0049,-0.0021,0.0,0.0,0.0,0.000256,0.0,0.0,0.0,0.0,0.0,0.0,0.000256,0.0,0.0,0.0,0.0,0.0,0.0,0.0001,0.0,0.0,0.0,0.0,0.0,0.0,0.0,0.0,0.0,0.0,0.0,0.0,0.0,0.0,0.0,0.0,0.0,0.0,0.0,0.0,0.0
1671465827381282888,24115,1671465827380743103,enu,-0.0051,0.0048,-0.0021,0.0,0.0,0.0,0.000256,0.0,0.0,0.0,0.0,0.0,0.0,0.000256,0.0,0.0,0.0,0.0,0.0,0.0,0.0001,0.0,0.0,0.0,0.0,0.0,0.0,0.0,0.0,0.0,0.0,0.0,0.0,0.0,0.0,0.0,0.0,0.0,0.0,0.0,0.0,0.0
1671465827401244689,24116,1671465827400766293,enu,-0.005,0.0049,-0.0021,0.0,0.0,0.0,0.000256,0.0,0.0,0.0,0.0,0.0,0.0,0.000256,0.0,0.0,0.0,0.0,0.0,0.0,0.0001,0.0,0.0,0.0,0.0,0.0,0.0,0.0,0.0,0.0,0.0,0.0,0.0,0.0,0.0,0.0,0.0,0.0,0.0,0.0,0.0,0.0
1671465827421335867,24117,1671465827420819516,enu,-0.0048,0.0049,-0.002,0.0,0.0,0.0,0.000256,0.0,0.0,0.0,0.0,0.0,0.0,0.000256,0.0,0.0,0.0,0.0,0.0,0.0,0.0001,0.0,0.0,0.0,0.0,0.0,0.0,0.0,0.0,0.0,0.0,0.0,0.0,0.0,0.0,0.0,0.0,0.0,0.0,0.0,0.0,0.0
1671465827441241478,24118,1671465827440743432,enu,-0.0048,0.005,-0.0019,0.0,0.0,0.0,0.000256,0.0,0.0,0.0,0.0,0.0,0.0,0.000256,0.0,0.0,0.0,0.0,0.0,0.0,0.0001,0.0,0.0,0.0,0.0,0.0,0.0,0.0,0.0,0.0,0.0,0.0,0.0,0.0,0.0,0.0,0.0,0.0,0.0,0.0,0.0,0.0
1671465827461308970,24119,1671465827460781021,enu,-0.0047,0.0049,-0.0018,0.0,0.0,0.0,0.000256,0.0,0.0,0.0,0.0,0.0,0.0,0.000256,0.0,0.0,0.0,0.0,0.0,0.0,0.0001,0.0,0.0,0.0,0.0,0.0,0.0,0.0,0.0,0.0,0.0,0.0,0.0,0.0,0.0,0.0,0.0,0.0,0.0,0.0,0.0,0.0
1671465827481284684,24120,1671465827480821038,enu,-0.0047,0.005,-0.0017,0.0,0.0,0.0,0.000256,0.0,0.0,0.0,0.0,0.0,0.0,0.000256,0.0,0.0,0.0,0.0,0.0,0.0,0.0001,0.0,0.0,0.0,0.0,0.0,0.0,0.0,0.0,0.0,0.0,0.0,0.0,0.0,0.0,0.0,0.0,0.0,0.0,0.0,0.0,0.0
1671465827501264557,24121,1671465827500802928,enu,-0.0046,0.005,-0.0016,0.0,0.0,0.0,0.000256,0.0,0.0,0.0,0.0,0.0,0.0,0.000256,0.0,0.0,0.0,0.0,0.0,0.0,0.0001,0.0,0.0,0.0,0.0,0.0,0.0,0.0,0.0,0.0,0.0,0.0,0.0,0.0,0.0,0.0,0.0,0.0,0.0,0.0,0.0,0.0
1671465827521241913,24122,1671465827520786416,enu,-0.0046,0.005,-0.0016,0.0,0.0,0.0,0.000256,0.0,0.0,0.0,0.0,0.0,0.0,0.000256,0.0,0.0,0.0,0.0,0.0,0.0,0.0001,0.0,0.0,0.0,0.0,0.0,0.0,0.0,0.0,0.0,0.0,0.0,0.0,0.0,0.0,0.0,0.0,0.0,0.0,0.0,0.0,0.0
1671465827541320175,24123,1671465827540863440,enu,-0.0045,0.005,-0.0017,0.0,0.0,0.0,0.000256,0.0,0.0,0.0,0.0,0.0,0.0,0.000256,0.0,0.0,0.0,0.0,0.0,0.0,0.0001,0.0,0.0,0.0,0.0,0.0,0.0,0.0,0.0,0.0,0.0,0.0,0.0,0.0,0.0,0.0,0.0,0.0,0.0,0.0,0.0,0.0
1671465827561274234,24124,1671465827560777938,enu,-0.0045,0.005,-0.0017,0.0,0.0,0.0,0.000256,0.0,0.0,0.0,0.0,0.0,0.0,0.000256,0.0,0.0,0.0,0.0,0.0,0.0,0.0001,0.0,0.0,0.0,0.0,0.0,0.0,0.0,0.0,0.0,0.0,0.0,0.0,0.0,0.0,0.0,0.0,0.0,0.0,0.0,0.0,0.0
1671465827581341479,24125,1671465827580874633,enu,-0.0046,0.005,-0.0019,0.0,0.0,0.0,0.000256,0.0,0.0,0.0,0.0,0.0,0.0,0.000256,0.0,0.0,0.0,0.0,0.0,0.0,0.0001,0.0,0.0,0.0,0.0,0.0,0.0,0.0,0.0,0.0,0.0,0.0,0.0,0.0,0.0,0.0,0.0,0.0,0.0,0.0,0.0,0.0
1671465827601445648,24126,1671465827600950297,enu,-0.0046,0.0051,-0.002,0.0,0.0,0.0,0.000256,0.0,0.0,0.0,0.0,0.0,0.0,0.000256,0.0,0.0,0.0,0.0,0.0,0.0,0.0001,0.0,0.0,0.0,0.0,0.0,0.0,0.0,0.0,0.0,0.0,0.0,0.0,0.0,0.0,0.0,0.0,0.0,0.0,0.0,0.0,0.0
1671465827621217133,24127,1671465827620815065,enu,-0.0045,0.0051,-0.002,0.0,0.0,0.0,0.000256,0.0,0.0,0.0,0.0,0.0,0.0,0.000256,0.0,0.0,0.0,0.0,0.0,0.0,0.0001,0.0,0.0,0.0,0.0,0.0,0.0,0.0,0.0,0.0,0.0,0.0,0.0,0.0,0.0,0.0,0.0,0.0,0.0,0.0,0.0,0.0
1671465827641346287,24128,1671465827640903221,enu,-0.0045,0.005,-0.002,0.0,0.0,0.0,0.000256,0.0,0.0,0.0,0.0,0.0,0.0,0.000256,0.0,0.0,0.0,0.0,0.0,0.0,0.0001,0.0,0.0,0.0,0.0,0.0,0.0,0.0,0.0,0.0,0.0,0.0,0.0,0.0,0.0,0.0,0.0,0.0,0.0,0.0,0.0,0.0
1671465827661394955,24129,1671465827660920411,enu,-0.0045,0.0051,-0.002,0.0,0.0,0.0,0.000256,0.0,0.0,0.0,0.0,0.0,0.0,0.000256,0.0,0.0,0.0,0.0,0.0,0.0,0.0001,0.0,0.0,0.0,0.0,0.0,0.0,0.0,0.0,0.0,0.0,0.0,0.0,0.0,0.0,0.0,0.0,0.0,0.0,0.0,0.0,0.0
1671465827681249961,24130,1671465827680808261,enu,-0.0046,0.0051,-0.0019,0.0,0.0,0.0,0.000256,0.0,0.0,0.0,0.0,0.0,0.0,0.000256,0.0,0.0,0.0,0.0,0.0,0.0,0.0001,0.0,0.0,0.0,0.0,0.0,0.0,0.0,0.0,0.0,0.0,0.0,0.0,0.0,0.0,0.0,0.0,0.0,0.0,0.0,0.0,0.0
1671465827701270446,24131,1671465827700783166,enu,-0.0046,0.0051,-0.0019,0.0,0.0,0.0,0.000256,0.0,0.0,0.0,0.0,0.0,0.0,0.000256,0.0,0.0,0.0,0.0,0.0,0.0,0.0001,0.0,0.0,0.0,0.0,0.0,0.0,0.0,0.0,0.0,0.0,0.0,0.0,0.0,0.0,0.0,0.0,0.0,0.0,0.0,0.0,0.0
1671465827721404164,24132,1671465827720912085,enu,-0.0047,0.0052,-0.0019,0.0,0.0,0.0,0.000256,0.0,0.0,0.0,0.0,0.0,0.0,0.000256,0.0,0.0,0.0,0.0,0.0,0.0,0.0001,0.0,0.0,0.0,0.0,0.0,0.0,0.0,0.0,0.0,0.0,0.0,0.0,0.0,0.0,0.0,0.0,0.0,0.0,0.0,0.0,0.0
1671465827741249466,24133,1671465827740805801,enu,-0.0046,0.0052,-0.0018,0.0,0.0,0.0,0.000256,0.0,0.0,0.0,0.0,0.0,0.0,0.000256,0.0,0.0,0.0,0.0,0.0,0.0,0.0001,0.0,0.0,0.0,0.0,0.0,0.0,0.0,0.0,0.0,0.0,0.0,0.0,0.0,0.0,0.0,0.0,0.0,0.0,0.0,0.0,0.0
1671465827761407401,24134,1671465827760901675,enu,-0.0045,0.0051,-0.0018,0.0,0.0,0.0,0.000256,0.0,0.0,0.0,0.0,0.0,0.0,0.000256,0.0,0.0,0.0,0.0,0.0,0.0,0.0001,0.0,0.0,0.0,0.0,0.0,0.0,0.0,0.0,0.0,0.0,0.0,0.0,0.0,0.0,0.0,0.0,0.0,0.0,0.0,0.0,0.0
1671465827781298943,24135,1671465827780842508,enu,-0.0045,0.0051,-0.0018,0.0,0.0,0.0,0.000256,0.0,0.0,0.0,0.0,0.0,0.0,0.000256,0.0,0.0,0.0,0.0,0.0,0.0,0.0001,0.0,0.0,0.0,0.0,0.0,0.0,0.0,0.0,0.0,0.0,0.0,0.0,0.0,0.0,0.0,0.0,0.0,0.0,0.0,0.0,0.0
1671465827801383179,24136,1671465827800823221,enu,-0.0045,0.0051,-0.0018,0.0,0.0,0.0,0.000256,0.0,0.0,0.0,0.0,0.0,0.0,0.000256,0.0,0.0,0.0,0.0,0.0,0.0,0.0001,0.0,0.0,0.0,0.0,0.0,0.0,0.0,0.0,0.0,0.0,0.0,0.0,0.0,0.0,0.0,0.0,0.0,0.0,0.0,0.0,0.0
1671465827821493398,24137,1671465827821013046,enu,-0.0044,0.0051,-0.0019,0.0,0.0,0.0,0.000256,0.0,0.0,0.0,0.0,0.0,0.0,0.000256,0.0,0.0,0.0,0.0,0.0,0.0,0.0001,0.0,0.0,0.0,0.0,0.0,0.0,0.0,0.0,0.0,0.0,0.0,0.0,0.0,0.0,0.0,0.0,0.0,0.0,0.0,0.0,0.0
1671465827841347417,24138,1671465827840897444,enu,-0.0043,0.0051,-0.0019,0.0,0.0,0.0,0.000256,0.0,0.0,0.0,0.0,0.0,0.0,0.000256,0.0,0.0,0.0,0.0,0.0,0.0,0.0001,0.0,0.0,0.0,0.0,0.0,0.0,0.0,0.0,0.0,0.0,0.0,0.0,0.0,0.0,0.0,0.0,0.0,0.0,0.0,0.0,0.0
1671465827861314253,24139,1671465827860813862,enu,-0.0042,0.0051,-0.0019,0.0,0.0,0.0,0.000256,0.0,0.0,0.0,0.0,0.0,0.0,0.000256,0.0,0.0,0.0,0.0,0.0,0.0,0.0001,0.0,0.0,0.0,0.0,0.0,0.0,0.0,0.0,0.0,0.0,0.0,0.0,0.0,0.0,0.0,0.0,0.0,0.0,0.0,0.0,0.0
1671465827881391001,24140,1671465827880853238,enu,-0.0042,0.0051,-0.0019,0.0,0.0,0.0,0.000256,0.0,0.0,0.0,0.0,0.0,0.0,0.000256,0.0,0.0,0.0,0.0,0.0,0.0,0.0001,0.0,0.0,0.0,0.0,0.0,0.0,0.0,0.0,0.0,0.0,0.0,0.0,0.0,0.0,0.0,0.0,0.0,0.0,0.0,0.0,0.0
1671465827901438528,24141,1671465827900910792,enu,-0.0041,0.0051,-0.0019,0.0,0.0,0.0,0.000256,0.0,0.0,0.0,0.0,0.0,0.0,0.000256,0.0,0.0,0.0,0.0,0.0,0.0,0.0001,0.0,0.0,0.0,0.0,0.0,0.0,0.0,0.0,0.0,0.0,0.0,0.0,0.0,0.0,0.0,0.0,0.0,0.0,0.0,0.0,0.0
1671465827921319308,24142,1671465827920835257,enu,-0.0042,0.0051,-0.002,0.0,0.0,0.0,0.000256,0.0,0.0,0.0,0.0,0.0,0.0,0.000256,0.0,0.0,0.0,0.0,0.0,0.0,0.0001,0.0,0.0,0.0,0.0,0.0,0.0,0.0,0.0,0.0,0.0,0.0,0.0,0.0,0.0,0.0,0.0,0.0,0.0,0.0,0.0,0.0
1671465827941415821,24143,1671465827940878970,enu,-0.0042,0.0051,-0.0019,0.0,0.0,0.0,0.000256,0.0,0.0,0.0,0.0,0.0,0.0,0.000256,0.0,0.0,0.0,0.0,0.0,0.0,0.0001,0.0,0.0,0.0,0.0,0.0,0.0,0.0,0.0,0.0,0.0,0.0,0.0,0.0,0.0,0.0,0.0,0.0,0.0,0.0,0.0,0.0
1671465827961528635,24144,1671465827960906989,enu,-0.0043,0.0052,-0.002,0.0,0.0,0.0,0.000256,0.0,0.0,0.0,0.0,0.0,0.0,0.000256,0.0,0.0,0.0,0.0,0.0,0.0,0.0001,0.0,0.0,0.0,0.0,0.0,0.0,0.0,0.0,0.0,0.0,0.0,0.0,0.0,0.0,0.0,0.0,0.0,0.0,0.0,0.0,0.0
1671465827981315296,24145,1671465827980846768,enu,-0.0043,0.0052,-0.0019,0.0,0.0,0.0,0.000256,0.0,0.0,0.0,0.0,0.0,0.0,0.000256,0.0,0.0,0.0,0.0,0.0,0.0,0.0001,0.0,0.0,0.0,0.0,0.0,0.0,0.0,0.0,0.0,0.0,0.0,0.0,0.0,0.0,0.0,0.0,0.0,0.0,0.0,0.0,0.0
1671465828001479538,24146,1671465828000794693,enu,-0.0043,0.0051,-0.0018,0.0,0.0,0.0,0.000256,0.0,0.0,0.0,0.0,0.0,0.0,0.000256,0.0,0.0,0.0,0.0,0.0,0.0,0.0001,0.0,0.0,0.0,0.0,0.0,0.0,0.0,0.0,0.0,0.0,0.0,0.0,0.0,0.0,0.0,0.0,0.0,0.0,0.0,0.0,0.0
1671465828021390223,24147,1671465828020903148,enu,-0.0044,0.0052,-0.0019,0.0,0.0,0.0,0.000256,0.0,0.0,0.0,0.0,0.0,0.0,0.000256,0.0,0.0,0.0,0.0,0.0,0.0,0.0001,0.0,0.0,0.0,0.0,0.0,0.0,0.0,0.0,0.0,0.0,0.0,0.0,0.0,0.0,0.0,0.0,0.0,0.0,0.0,0.0,0.0
1671465828041522571,24148,1671465828040922761,enu,-0.0044,0.0053,-0.0019,0.0,0.0,0.0,0.000256,0.0,0.0,0.0,0.0,0.0,0.0,0.000256,0.0,0.0,0.0,0.0,0.0,0.0,0.0001,0.0,0.0,0.0,0.0,0.0,0.0,0.0,0.0,0.0,0.0,0.0,0.0,0.0,0.0,0.0,0.0,0.0,0.0,0.0,0.0,0.0
1671465828061482300,24149,1671465828060935135,enu,-0.0042,0.0052,-0.0018,0.0,0.0,0.0,0.000256,0.0,0.0,0.0,0.0,0.0,0.0,0.000256,0.0,0.0,0.0,0.0,0.0,0.0,0.0001,0.0,0.0,0.0,0.0,0.0,0.0,0.0,0.0,0.0,0.0,0.0,0.0,0.0,0.0,0.0,0.0,0.0,0.0,0.0,0.0,0.0
1671465828081502289,24150,1671465828081017880,enu,-0.0042,0.0052,-0.0019,0.0,0.0,0.0,0.000256,0.0,0.0,0.0,0.0,0.0,0.0,0.000256,0.0,0.0,0.0,0.0,0.0,0.0,0.0001,0.0,0.0,0.0,0.0,0.0,0.0,0.0,0.0,0.0,0.0,0.0,0.0,0.0,0.0,0.0,0.0,0.0,0.0,0.0,0.0,0.0
1671465828101428740,24151,1671465828100944633,enu,-0.004,0.0051,-0.0019,0.0,0.0,0.0,0.000256,0.0,0.0,0.0,0.0,0.0,0.0,0.000256,0.0,0.0,0.0,0.0,0.0,0.0,0.0001,0.0,0.0,0.0,0.0,0.0,0.0,0.0,0.0,0.0,0.0,0.0,0.0,0.0,0.0,0.0,0.0,0.0,0.0,0.0,0.0,0.0
1671465828121369399,24152,1671465828120868933,enu,-0.0041,0.0051,-0.002,0.0,0.0,0.0,0.000256,0.0,0.0,0.0,0.0,0.0,0.0,0.000256,0.0,0.0,0.0,0.0,0.0,0.0,0.0001,0.0,0.0,0.0,0.0,0.0,0.0,0.0,0.0,0.0,0.0,0.0,0.0,0.0,0.0,0.0,0.0,0.0,0.0,0.0,0.0,0.0
1671465828141427305,24153,1671465828140924150,enu,-0.004,0.0052,-0.002,0.0,0.0,0.0,0.000256,0.0,0.0,0.0,0.0,0.0,0.0,0.000256,0.0,0.0,0.0,0.0,0.0,0.0,0.0001,0.0,0.0,0.0,0.0,0.0,0.0,0.0,0.0,0.0,0.0,0.0,0.0,0.0,0.0,0.0,0.0,0.0,0.0,0.0,0.0,0.0
1671465828161557638,24154,1671465828160920552,enu,-0.004,0.0051,-0.002,0.0,0.0,0.0,0.000256,0.0,0.0,0.0,0.0,0.0,0.0,0.000256,0.0,0.0,0.0,0.0,0.0,0.0,0.0001,0.0,0.0,0.0,0.0,0.0,0.0,0.0,0.0,0.0,0.0,0.0,0.0,0.0,0.0,0.0,0.0,0.0,0.0,0.0,0.0,0.0
1671465828181284118,24155,1671465828180826285,enu,-0.0041,0.0051,-0.002,0.0,0.0,0.0,0.000256,0.0,0.0,0.0,0.0,0.0,0.0,0.000256,0.0,0.0,0.0,0.0,0.0,0.0,0.0001,0.0,0.0,0.0,0.0,0.0,0.0,0.0,0.0,0.0,0.0,0.0,0.0,0.0,0.0,0.0,0.0,0.0,0.0,0.0,0.0,0.0
1671465828201386588,24156,1671465828200863206,enu,-0.0042,0.0052,-0.002,0.0,0.0,0.0,0.000256,0.0,0.0,0.0,0.0,0.0,0.0,0.000256,0.0,0.0,0.0,0.0,0.0,0.0,0.0001,0.0,0.0,0.0,0.0,0.0,0.0,0.0,0.0,0.0,0.0,0.0,0.0,0.0,0.0,0.0,0.0,0.0,0.0,0.0,0.0,0.0
1671465828221440282,24157,1671465828220872418,enu,-0.0042,0.0052,-0.0019,0.0,0.0,0.0,0.000256,0.0,0.0,0.0,0.0,0.0,0.0,0.000256,0.0,0.0,0.0,0.0,0.0,0.0,0.0001,0.0,0.0,0.0,0.0,0.0,0.0,0.0,0.0,0.0,0.0,0.0,0.0,0.0,0.0,0.0,0.0,0.0,0.0,0.0,0.0,0.0
1671465828241294154,24158,1671465828240828041,enu,-0.0042,0.0052,-0.0019,0.0,0.0,0.0,0.000256,0.0,0.0,0.0,0.0,0.0,0.0,0.000256,0.0,0.0,0.0,0.0,0.0,0.0,0.0001,0.0,0.0,0.0,0.0,0.0,0.0,0.0,0.0,0.0,0.0,0.0,0.0,0.0,0.0,0.0,0.0,0.0,0.0,0.0,0.0,0.0
1671465828261393149,24159,1671465828260887691,enu,-0.0042,0.0054,-0.0019,0.0,0.0,0.0,0.000256,0.0,0.0,0.0,0.0,0.0,0.0,0.000256,0.0,0.0,0.0,0.0,0.0,0.0,0.0001,0.0,0.0,0.0,0.0,0.0,0.0,0.0,0.0,0.0,0.0,0.0,0.0,0.0,0.0,0.0,0.0,0.0,0.0,0.0,0.0,0.0
1671465828281357798,24160,1671465828280896467,enu,-0.0041,0.0053,-0.0018,0.0,0.0,0.0,0.000256,0.0,0.0,0.0,0.0,0.0,0.0,0.000256,0.0,0.0,0.0,0.0,0.0,0.0,0.0001,0.0,0.0,0.0,0.0,0.0,0.0,0.0,0.0,0.0,0.0,0.0,0.0,0.0,0.0,0.0,0.0,0.0,0.0,0.0,0.0,0.0
1671465828301296156,24161,1671465828300826002,enu,-0.004,0.0054,-0.0019,0.0,0.0,0.0,0.000256,0.0,0.0,0.0,0.0,0.0,0.0,0.000256,0.0,0.0,0.0,0.0,0.0,0.0,0.0001,0.0,0.0,0.0,0.0,0.0,0.0,0.0,0.0,0.0,0.0,0.0,0.0,0.0,0.0,0.0,0.0,0.0,0.0,0.0,0.0,0.0
1671465828321549834,24162,1671465828320940115,enu,-0.0038,0.0054,-0.002,0.0,0.0,0.0,0.000256,0.0,0.0,0.0,0.0,0.0,0.0,0.000256,0.0,0.0,0.0,0.0,0.0,0.0,0.0001,0.0,0.0,0.0,0.0,0.0,0.0,0.0,0.0,0.0,0.0,0.0,0.0,0.0,0.0,0.0,0.0,0.0,0.0,0.0,0.0,0.0
1671465828341457683,24163,1671465828340908754,enu,-0.0037,0.0054,-0.002,0.0,0.0,0.0,0.000256,0.0,0.0,0.0,0.0,0.0,0.0,0.000256,0.0,0.0,0.0,0.0,0.0,0.0,0.0001,0.0,0.0,0.0,0.0,0.0,0.0,0.0,0.0,0.0,0.0,0.0,0.0,0.0,0.0,0.0,0.0,0.0,0.0,0.0,0.0,0.0
1671465828361396698,24164,1671465828360868252,enu,-0.0036,0.0054,-0.0021,0.0,0.0,0.0,0.000256,0.0,0.0,0.0,0.0,0.0,0.0,0.000256,0.0,0.0,0.0,0.0,0.0,0.0,0.0001,0.0,0.0,0.0,0.0,0.0,0.0,0.0,0.0,0.0,0.0,0.0,0.0,0.0,0.0,0.0,0.0,0.0,0.0,0.0,0.0,0.0
1671465828381374566,24165,1671465828380860925,enu,-0.0035,0.0054,-0.0021,0.0,0.0,0.0,0.000256,0.0,0.0,0.0,0.0,0.0,0.0,0.000256,0.0,0.0,0.0,0.0,0.0,0.0,0.0001,0.0,0.0,0.0,0.0,0.0,0.0,0.0,0.0,0.0,0.0,0.0,0.0,0.0,0.0,0.0,0.0,0.0,0.0,0.0,0.0,0.0
1671465828401486219,24166,1671465828400917572,enu,-0.0036,0.0054,-0.0021,0.0,0.0,0.0,0.000256,0.0,0.0,0.0,0.0,0.0,0.0,0.000256,0.0,0.0,0.0,0.0,0.0,0.0,0.0001,0.0,0.0,0.0,0.0,0.0,0.0,0.0,0.0,0.0,0.0,0.0,0.0,0.0,0.0,0.0,0.0,0.0,0.0,0.0,0.0,0.0
1671465828421352591,24167,1671465828420866388,enu,-0.0037,0.0053,-0.0021,0.0,0.0,0.0,0.000256,0.0,0.0,0.0,0.0,0.0,0.0,0.000256,0.0,0.0,0.0,0.0,0.0,0.0,0.0001,0.0,0.0,0.0,0.0,0.0,0.0,0.0,0.0,0.0,0.0,0.0,0.0,0.0,0.0,0.0,0.0,0.0,0.0,0.0,0.0,0.0
1671465828441336887,24168,1671465828440862830,enu,-0.0038,0.0053,-0.002,0.0,0.0,0.0,0.000256,0.0,0.0,0.0,0.0,0.0,0.0,0.000256,0.0,0.0,0.0,0.0,0.0,0.0,0.0001,0.0,0.0,0.0,0.0,0.0,0.0,0.0,0.0,0.0,0.0,0.0,0.0,0.0,0.0,0.0,0.0,0.0,0.0,0.0,0.0,0.0
1671465828461452613,24169,1671465828460975162,enu,-0.0039,0.0052,-0.002,0.0,0.0,0.0,0.000256,0.0,0.0,0.0,0.0,0.0,0.0,0.000256,0.0,0.0,0.0,0.0,0.0,0.0,0.0001,0.0,0.0,0.0,0.0,0.0,0.0,0.0,0.0,0.0,0.0,0.0,0.0,0.0,0.0,0.0,0.0,0.0,0.0,0.0,0.0,0.0
1671465828481373484,24170,1671465828480899877,enu,-0.004,0.0051,-0.0019,0.0,0.0,0.0,0.000256,0.0,0.0,0.0,0.0,0.0,0.0,0.000256,0.0,0.0,0.0,0.0,0.0,0.0,0.0001,0.0,0.0,0.0,0.0,0.0,0.0,0.0,0.0,0.0,0.0,0.0,0.0,0.0,0.0,0.0,0.0,0.0,0.0,0.0,0.0,0.0
1671465828501357772,24171,1671465828500917559,enu,-0.0041,0.0051,-0.0019,0.0,0.0,0.0,0.000256,0.0,0.0,0.0,0.0,0.0,0.0,0.000256,0.0,0.0,0.0,0.0,0.0,0.0,0.0001,0.0,0.0,0.0,0.0,0.0,0.0,0.0,0.0,0.0,0.0,0.0,0.0,0.0,0.0,0.0,0.0,0.0,0.0,0.0,0.0,0.0
1671465828521406902,24172,1671465828520965193,enu,-0.0042,0.0051,-0.0019,0.0,0.0,0.0,0.000256,0.0,0.0,0.0,0.0,0.0,0.0,0.000256,0.0,0.0,0.0,0.0,0.0,0.0,0.0001,0.0,0.0,0.0,0.0,0.0,0.0,0.0,0.0,0.0,0.0,0.0,0.0,0.0,0.0,0.0,0.0,0.0,0.0,0.0,0.0,0.0
1671465828541326939,24173,1671465828540909613,enu,-0.0041,0.005,-0.0019,0.0,0.0,0.0,0.000256,0.0,0.0,0.0,0.0,0.0,0.0,0.000256,0.0,0.0,0.0,0.0,0.0,0.0,0.0001,0.0,0.0,0.0,0.0,0.0,0.0,0.0,0.0,0.0,0.0,0.0,0.0,0.0,0.0,0.0,0.0,0.0,0.0,0.0,0.0,0.0
1671465828561396349,24174,1671465828560935913,enu,-0.0042,0.0051,-0.0021,0.0,0.0,0.0,0.000256,0.0,0.0,0.0,0.0,0.0,0.0,0.000256,0.0,0.0,0.0,0.0,0.0,0.0,0.0001,0.0,0.0,0.0,0.0,0.0,0.0,0.0,0.0,0.0,0.0,0.0,0.0,0.0,0.0,0.0,0.0,0.0,0.0,0.0,0.0,0.0
1671465828581474546,24175,1671465828581024191,enu,-0.0039,0.0051,-0.0021,0.0,0.0,0.0,0.000256,0.0,0.0,0.0,0.0,0.0,0.0,0.000256,0.0,0.0,0.0,0.0,0.0,0.0,0.0001,0.0,0.0,0.0,0.0,0.0,0.0,0.0,0.0,0.0,0.0,0.0,0.0,0.0,0.0,0.0,0.0,0.0,0.0,0.0,0.0,0.0
1671465828601394140,24176,1671465828600896472,enu,-0.0038,0.0051,-0.0022,0.0,0.0,0.0,0.000256,0.0,0.0,0.0,0.0,0.0,0.0,0.000256,0.0,0.0,0.0,0.0,0.0,0.0,0.0001,0.0,0.0,0.0,0.0,0.0,0.0,0.0,0.0,0.0,0.0,0.0,0.0,0.0,0.0,0.0,0.0,0.0,0.0,0.0,0.0,0.0
1671465828621461365,24177,1671465828621013504,enu,-0.0038,0.0052,-0.0023,0.0,0.0,0.0,0.000256,0.0,0.0,0.0,0.0,0.0,0.0,0.000256,0.0,0.0,0.0,0.0,0.0,0.0,0.0001,0.0,0.0,0.0,0.0,0.0,0.0,0.0,0.0,0.0,0.0,0.0,0.0,0.0,0.0,0.0,0.0,0.0,0.0,0.0,0.0,0.0
1671465828641479543,24178,1671465828640995479,enu,-0.0036,0.0053,-0.0023,0.0,0.0,0.0,0.000256,0.0,0.0,0.0,0.0,0.0,0.0,0.000256,0.0,0.0,0.0,0.0,0.0,0.0,0.0001,0.0,0.0,0.0,0.0,0.0,0.0,0.0,0.0,0.0,0.0,0.0,0.0,0.0,0.0,0.0,0.0,0.0,0.0,0.0,0.0,0.0
1671465828661380964,24179,1671465828660885984,enu,-0.0035,0.0054,-0.0022,0.0,0.0,0.0,0.000256,0.0,0.0,0.0,0.0,0.0,0.0,0.000256,0.0,0.0,0.0,0.0,0.0,0.0,0.0001,0.0,0.0,0.0,0.0,0.0,0.0,0.0,0.0,0.0,0.0,0.0,0.0,0.0,0.0,0.0,0.0,0.0,0.0,0.0,0.0,0.0
