%time,field.header.seq,field.header.stamp,field.header.frame_id,field.status.status,field.status.service,field.latitude,field.longitude,field.altitude,field.position_covariance0,field.position_covariance1,field.position_covariance2,field.position_covariance3,field.position_covariance4,field.position_covariance5,field.position_covariance6,field.position_covariance7,field.position_covariance8,field.position_covariance_type
1671465829263727582,727825,1671465829275989217,gps,2,1,42.3009687895,-83.6976852681,272.754302979,0.0001,0.0,0.0,0.0,0.000121,0.0,0.0,0.0,0.000961,2
1671465829273705396,727826,1671465829286014985,gps,2,1,42.3009687899,-83.697685268,272.754302979,0.0001,0.0,0.0,0.0,0.000121,0.0,0.0,0.0,0.000961,2
1671465829283582571,727827,1671465829295973726,gps,2,1,42.3009687902,-83.6976852679,272.754302979,0.0001,0.0,0.0,0.0,0.000121,0.0,0.0,0.0,0.000961,2
1671465829293632369,727828,1671465829305996643,gps,2,1,42.3009687896,-83.6976852704,272.754302979,0.0001,0.0,0.0,0.0,0.000121,0.0,0.0,0.0,0.000961,2
1671465829303935787,727829,1671465829316051603,gps,2,1,42.30096879,-83.6976852703,272.754302979,0.0001,0.0,0.0,0.0,0.000121,0.0,0.0,0.0,0.000961,2
1671465829313692846,727830,1671465829325976803,gps,2,1,42.3009687903,-83.6976852702,272.754333496,0.0001,0.0,0.0,0.0,0.000121,0.0,0.0,0.0,0.000961,2
1671465829324043223,727831,1671465829335964271,gps,2,1,42.3009687896,-83.6976852726,272.754333496,0.0001,0.0,0.0,0.0,0.000121,0.0,0.0,0.0,0.000961,2
1671465829333990355,727832,1671465829345960157,gps,2,1,42.3009687899,-83.6976852725,272.754333496,0.0001,0.0,0.0,0.0,0.000121,0.0,0.0,0.0,0.000961,2
1671465829343981392,727833,1671465829356043789,gps,2,1,42.3009687903,-83.6976852725,272.754333496,0.0001,0.0,0.0,0.0,0.000121,0.0,0.0,0.0,0.000961,2
1671465829353980376,727834,1671465829365970391,gps,2,1,42.3009687896,-83.6976852748,272.754333496,0.0001,0.0,0.0,0.0,0.000121,0.0,0.0,0.0,0.000961,2
1671465829363566899,727835,1671465829375969722,gps,2,1,42.3009687898,-83.6976852748,272.754364014,0.0001,0.0,0.0,0.0,0.000121,0.0,0.0,0.0,0.000961,2
1671465829373873718,727836,1671465829386060002,gps,2,1,42.30096879,-83.6976852746,272.754364014,0.0001,0.0,0.0,0.0,0.000121,0.0,0.0,0.0,0.000961,2
1671465829383949324,727837,1671465829395974721,gps,2,1,42.3009687895,-83.6976852768,272.754364014,0.0001,0.0,0.0,0.0,0.000121,0.0,0.0,0.0,0.000961,2
1671465829393861062,727838,1671465829405988514,gps,2,1,42.3009687896,-83.6976852768,272.754364014,0.0001,0.0,0.0,0.0,0.000121,0.0,0.0,0.0,0.000961,2
1671465829404156518,727839,1671465829416168252,gps,2,1,42.3009687898,-83.6976852767,272.754364014,0.0001,0.0,0.0,0.0,0.000121,0.0,0.0,0.0,0.000961,2
1671465829413795433,727840,1671465829425943242,gps,2,1,42.3009687893,-83.6976852789,272.754364014,0.0001,0.0,0.0,0.0,0.000121,0.0,0.0,0.0,0.000961,2
1671465829423700785,727841,1671465829436019331,gps,2,1,42.3009687893,-83.6976852787,272.754364014,0.0001,0.0,0.0,0.0,0.000121,0.0,0.0,0.0,0.000961,2
1671465829433702896,727842,1671465829445966928,gps,2,1,42.3009687895,-83.6976852788,272.754394531,0.0001,0.0,0.0,0.0,0.000121,0.0,0.0,0.0,0.000961,2
1671465829443607502,727843,1671465829455949800,gps,2,1,42.300968789,-83.6976852809,272.754364014,0.0001,0.0,0.0,0.0,0.000121,0.0,0.0,0.0,0.000961,2
1671465829453914397,727844,1671465829466030729,gps,2,1,42.3009687891,-83.697685281,272.754364014,0.0001,0.0,0.0,0.0,0.000121,0.0,0.0,0.0,0.000961,2
1671465829464021111,727845,1671465829476022159,gps,2,1,42.3009687893,-83.697685281,272.754394531,0.0001,0.0,0.0,0.0,0.000121,0.0,0.0,0.0,0.000961,2
1671465829473744494,727846,1671465829486084803,gps,2,1,42.3009687888,-83.6976852831,272.754364014,0.0001,0.0,0.0,0.0,0.000121,0.0,0.0,0.0,0.000961,2
1671465829483915123,727847,1671465829495961546,gps,2,1,42.3009687889,-83.6976852832,272.754364014,0.0001,0.0,0.0,0.0,0.000121,0.0,0.0,0.0,0.000961,2
1671465829493733919,727848,1671465829506026024,gps,2,1,42.3009687891,-83.6976852832,272.754364014,0.0001,0.0,0.0,0.0,0.000121,0.0,0.0,0.0,0.000961,2
1671465829503913781,727849,1671465829516087488,gps,2,1,42.3009687887,-83.6976852853,272.754364014,0.0001,0.0,0.0,0.0,0.000121,0.0,0.0,0.0,0.000961,2
1671465829513874420,727850,1671465829526049969,gps,2,1,42.3009687888,-83.6976852853,272.754333496,0.0001,0.0,0.0,0.0,0.000121,0.0,0.0,0.0,0.000961,2
1671465829523775744,727851,1671465829536026146,gps,2,1,42.3009687889,-83.6976852854,272.754333496,0.0001,0.0,0.0,0.0,0.000121,0.0,0.0,0.0,0.000961,2
1671465829533804840,727852,1671465829546050002,gps,2,1,42.3009687886,-83.6976852874,272.754333496,0.0001,0.0,0.0,0.0,0.000121,0.0,0.0,0.0,0.000961,2
1671465829543796530,727853,1671465829556070076,gps,2,1,42.3009687888,-83.6976852875,272.754333496,0.0001,0.0,0.0,0.0,0.000121,0.0,0.0,0.0,0.000961,2
1671465829553691786,727854,1671465829566058401,gps,2,1,42.300968789,-83.6976852876,272.754333496,0.0001,0.0,0.0,0.0,0.000121,0.0,0.0,0.0,0.000961,2
1671465829563626185,727855,1671465829576044617,gps,2,1,42.3009687891,-83.6976852883,272.754180908,0.0001,0.0,0.0,0.0,0.000121,0.0,0.0,0.0,0.000961,2
1671465829573657394,727856,1671465829586066037,gps,2,1,42.3009687894,-83.6976852883,272.754180908,0.0001,0.0,0.0,0.0,0.000121,0.0,0.0,0.0,0.000961,2
1671465829584138967,727857,1671465829596079145,gps,2,1,42.3009687897,-83.6976852884,272.754180908,0.0001,0.0,0.0,0.0,0.000121,0.0,0.0,0.0,0.000961,2
1671465829593688564,727858,1671465829605988955,gps,2,1,42.3009687898,-83.6976852891,272.75402832,0.0001,0.0,0.0,0.0,0.000121,0.0,0.0,0.0,0.000961,2
1671465829603911287,727859,1671465829615971263,gps,2,1,42.3009687901,-83.6976852892,272.75402832,0.0001,0.0,0.0,0.0,0.000121,0.0,0.0,0.0,0.000961,2
1671465829614105424,727860,1671465829626047945,gps,2,1,42.3009687904,-83.6976852893,272.754058838,0.0001,0.0,0.0,0.0,0.000121,0.0,0.0,0.0,0.000961,2
1671465829623825320,727861,1671465829635968585,gps,2,1,42.3009687906,-83.6976852899,272.75390625,0.0001,0.0,0.0,0.0,0.000121,0.0,0.0,0.0,0.000961,2
1671465829633695251,727862,1671465829645985348,gps,2,1,42.3009687908,-83.6976852899,272.75390625,0.0001,0.0,0.0,0.0,0.000121,0.0,0.0,0.0,0.000961,2
1671465829643676337,727863,1671465829656061583,gps,2,1,42.3009687912,-83.69768529,272.753936768,0.0001,0.0,0.0,0.0,0.000121,0.0,0.0,0.0,0.000961,2
1671465829653822588,727864,1671465829666052596,gps,2,1,42.3009687911,-83.6976852906,272.75378418,0.0001,0.0,0.0,0.0,0.000121,0.0,0.0,0.0,0.000961,2
1671465829663661933,727865,1671465829675967540,gps,2,1,42.3009687913,-83.6976852907,272.75378418,0.0001,0.0,0.0,0.0,0.000121,0.0,0.0,0.0,0.000961,2
1671465829673640802,727866,1671465829686043904,gps,2,1,42.3009687915,-83.6976852907,272.753814697,0.0001,0.0,0.0,0.0,0.000121,0.0,0.0,0.0,0.000961,2
1671465829683667697,727867,1671465829695956234,gps,2,1,42.3009687915,-83.6976852912,272.753692627,0.0001,0.0,0.0,0.0,0.000121,0.0,0.0,0.0,0.000961,2
1671465829693638259,727868,1671465829705967945,gps,2,1,42.3009687916,-83.6976852912,272.753662109,0.0001,0.0,0.0,0.0,0.000121,0.0,0.0,0.0,0.000961,2
1671465829703642997,727869,1671465829716040411,gps,2,1,42.3009687917,-83.6976852912,272.753662109,0.0001,0.0,0.0,0.0,0.000121,0.0,0.0,0.0,0.000961,2
1671465829713636310,727870,1671465829725967313,gps,2,1,42.3009687916,-83.6976852916,272.753540039,0.0001,0.0,0.0,0.0,0.000121,0.0,0.0,0.0,0.000961,2
1671465829724028850,727871,1671465829736086528,gps,2,1,42.3009687917,-83.6976852915,272.753540039,0.0001,0.0,0.0,0.0,0.000121,0.0,0.0,0.0,0.000961,2
1671465829733922193,727872,1671465829746048219,gps,2,1,42.3009687918,-83.6976852915,272.753509521,0.0001,0.0,0.0,0.0,0.000121,0.0,0.0,0.0,0.000961,2
1671465829743835462,727873,1671465829755969622,gps,2,1,42.3009687916,-83.6976852919,272.753387451,0.0001,0.0,0.0,0.0,0.000121,0.0,0.0,0.0,0.000961,2
1671465829753690313,727874,1671465829766006123,gps,2,1,42.3009687917,-83.6976852918,272.753356934,0.0001,0.0,0.0,0.0,0.000121,0.0,0.0,0.0,0.000961,2
1671465829764038256,727875,1671465829776048059,gps,2,1,42.3009687919,-83.6976852918,272.753326416,0.0001,0.0,0.0,0.0,0.000121,0.0,0.0,0.0,0.000961,2
1671465829773700196,727876,1671465829785965933,gps,2,1,42.3009687918,-83.6976852922,272.753204346,0.0001,0.0,0.0,0.0,0.000121,0.0,0.0,0.0,0.000961,2
1671465829783848468,727877,1671465829795973093,gps,2,1,42.300968792,-83.6976852921,272.753204346,0.0001,0.0,0.0,0.0,0.000121,0.0,0.0,0.0,0.000961,2
1671465829793716210,727878,1671465829806027652,gps,2,1,42.3009687921,-83.697685292,272.753204346,0.0001,0.0,0.0,0.0,0.000121,0.0,0.0,0.0,0.000961,2
1671465829803629790,727879,1671465829815969125,gps,2,1,42.3009687921,-83.6976852924,272.753082275,0.0001,0.0,0.0,0.0,0.000121,0.0,0.0,0.0,0.000961,2
1671465829813986803,727880,1671465829825986919,gps,2,1,42.3009687924,-83.6976852924,272.753082275,0.0001,0.0,0.0,0.0,0.000121,0.0,0.0,0.0,0.000961,2
1671465829823784103,727881,1671465829836027400,gps,2,1,42.3009687926,-83.6976852923,272.753082275,0.0001,0.0,0.0,0.0,0.000121,0.0,0.0,0.0,0.000961,2
1671465829833830943,727882,1671465829845970712,gps,2,1,42.3009687926,-83.6976852928,272.752990723,0.0001,0.0,0.0,0.0,0.000121,0.0,0.0,0.0,0.000961,2
1671465829843624547,727883,1671465829855957698,gps,2,1,42.300968793,-83.6976852928,272.75302124,0.0001,0.0,0.0,0.0,0.000121,0.0,0.0,0.0,0.000961,2
1671465829853919093,727884,1671465829866104558,gps,2,1,42.3009687932,-83.6976852929,272.75302124,0.0001,0.0,0.0,0.0,0.000121,0.0,0.0,0.0,0.000961,2
1671465829863592131,727885,1671465829875954440,gps,2,1,42.3009687933,-83.6976852934,272.752929688,0.0001,0.0,0.0,0.0,0.000121,0.0,0.0,0.0,0.000961,2
1671465829873505903,727886,1671465829885959923,gps,2,1,42.3009687937,-83.6976852936,272.752929688,0.0001,0.0,0.0,0.0,0.000121,0.0,0.0,0.0,0.000961,2
1671465829883874444,727887,1671465829896054773,gps,2,1,42.3009687941,-83.6976852936,272.752960205,0.0001,0.0,0.0,0.0,0.000121,0.0,0.0,0.0,0.000961,2
1671465829893770206,727888,1671465829905972893,gps,2,1,42.3009687942,-83.6976852944,272.752868652,0.0001,0.0,0.0,0.0,0.000121,0.0,0.0,0.0,0.000961,2
1671465829903858894,727889,1671465829916064159,gps,2,1,42.3009687947,-83.6976852946,272.752838135,0.0001,0.0,0.0,0.0,0.000121,0.0,0.0,0.0,0.000961,2
1671465829913869203,727890,1671465829926038271,gps,2,1,42.300968795,-83.6976852947,272.752868652,0.0001,0.0,0.0,0.0,0.000121,0.0,0.0,0.0,0.000961,2
1671465829923870018,727891,1671465829935950405,gps,2,1,42.3009687951,-83.6976852954,272.752746582,0.0001,0.0,0.0,0.0,0.000121,0.0,0.0,0.0,0.000961,2
1671465829933586209,727892,1671465829945970626,gps,2,1,42.3009687954,-83.6976852956,272.752746582,0.0001,0.0,0.0,0.0,0.000121,0.0,0.0,0.0,0.000961,2
1671465829943662710,727893,1671465829956024304,gps,2,1,42.3009687958,-83.6976852957,272.752746582,0.0001,0.0,0.0,0.0,0.000121,0.0,0.0,0.0,0.000961,2
1671465829953615997,727894,1671465829965962933,gps,2,1,42.3009687958,-83.6976852965,272.752655029,0.0001,0.0,0.0,0.0,0.000121,0.0,0.0,0.0,0.000961,2
1671465829963604094,727895,1671465829975967640,gps,2,1,42.3009687961,-83.6976852966,272.752624512,0.0001,0.0,0.0,0.0,0.000121,0.0,0.0,0.0,0.000961,2
1671465829973691491,727896,1671465829986105246,gps,2,1,42.3009687964,-83.6976852968,272.752624512,0.0001,0.0,0.0,0.0,0.000121,0.0,0.0,0.0,0.000961,2
1671465829983738217,727897,1671465829995955223,gps,2,1,42.3009687965,-83.6976852975,272.752532959,0.0001,0.0,0.0,0.0,0.000121,0.0,0.0,0.0,0.000961,2
1671465829993564800,727898,1671465830005950747,gps,2,1,42.3009687967,-83.6976852975,272.752532959,0.0001,0.0,0.0,0.0,0.000121,0.0,0.0,0.0,0.000961,2
1671465830004010777,727899,1671465830016202629,gps,2,1,42.300968797,-83.6976852977,272.752532959,0.0001,0.0,0.0,0.0,0.000121,0.0,0.0,0.0,0.000961,2
1671465830013921588,727900,1671465830026014499,gps,2,1,42.300968796,-83.697685298,272.752502441,0.0001,0.0,0.0,0.0,0.000121,0.0,0.0,0.0,0.000961,2
1671465830023976431,727901,1671465830036039556,gps,2,1,42.3009687962,-83.6976852982,272.752502441,0.0001,0.0,0.0,0.0,0.000121,0.0,0.0,0.0,0.000961,2
1671465830033887364,727902,1671465830046108472,gps,2,1,42.3009687965,-83.6976852982,272.752502441,0.0001,0.0,0.0,0.0,0.000121,0.0,0.0,0.0,0.000961,2
1671465830043809088,727903,1671465830056029452,gps,2,1,42.3009687955,-83.6976852986,272.752532959,0.0001,0.0,0.0,0.0,0.000121,0.0,0.0,0.0,0.000961,2
1671465830053687743,727904,1671465830066059162,gps,2,1,42.3009687956,-83.6976852987,272.752532959,0.0001,0.0,0.0,0.0,0.000121,0.0,0.0,0.0,0.000961,2
1671465830063843245,727905,1671465830076002084,gps,2,1,42.3009687958,-83.6976852988,272.752532959,0.0001,0.0,0.0,0.0,0.000121,0.0,0.0,0.0,0.000961,2
1671465830073920748,727906,1671465830086004520,gps,2,1,42.3009687949,-83.6976852991,272.752532959,0.0001,0.0,0.0,0.0,0.000121,0.0,0.0,0.0,0.000961,2
1671465830083923515,727907,1671465830096070113,gps,2,1,42.3009687951,-83.6976852992,272.752532959,0.0001,0.0,0.0,0.0,0.000121,0.0,0.0,0.0,0.000961,2
1671465830093732342,727908,1671465830105975015,gps,2,1,42.3009687953,-83.6976852993,272.752532959,0.0001,0.0,0.0,0.0,0.000121,0.0,0.0,0.0,0.000961,2
1671465830103673373,727909,1671465830115952446,gps,2,1,42.3009687944,-83.6976852997,272.752532959,0.0001,0.0,0.0,0.0,0.000121,0.0,0.0,0.0,0.000961,2
1671465830113616418,727910,1671465830125947068,gps,2,1,42.3009687946,-83.6976852998,272.752563477,0.0001,0.0,0.0,0.0,0.000121,0.0,0.0,0.0,0.000961,2
1671465830123616408,727911,1671465830136034699,gps,2,1,42.3009687949,-83.6976852999,272.752563477,0.0001,0.0,0.0,0.0,0.000121,0.0,0.0,0.0,0.000961,2
1671465830133568891,727912,1671465830145950959,gps,2,1,42.3009687942,-83.6976853002,272.752563477,0.0001,0.0,0.0,0.0,0.000121,0.0,0.0,0.0,0.000961,2
1671465830143614290,727913,1671465830155943222,gps,2,1,42.3009687945,-83.6976853004,272.752563477,0.0001,0.0,0.0,0.0,0.000121,0.0,0.0,0.0,0.000961,2
1671465830153678686,727914,1671465830166087482,gps,2,1,42.3009687947,-83.6976853005,272.752593994,0.0001,0.0,0.0,0.0,0.000121,0.0,0.0,0.0,0.000961,2
1671465830163770390,727915,1671465830175949029,gps,2,1,42.3009687941,-83.6976853008,272.752593994,0.0001,0.0,0.0,0.0,0.000121,0.0,0.0,0.0,0.000961,2
1671465830174018637,727916,1671465830186010085,gps,2,1,42.3009687944,-83.697685301,272.752593994,0.0001,0.0,0.0,0.0,0.000121,0.0,0.0,0.0,0.000961,2
1671465830184100323,727917,1671465830195961947,gps,2,1,42.3009687947,-83.6976853011,272.752593994,0.0001,0.0,0.0,0.0,0.000121,0.0,0.0,0.0,0.000961,2
1671465830193971015,727918,1671465830205945600,gps,2,1,42.3009687941,-83.6976853014,272.752593994,0.0001,0.0,0.0,0.0,0.000121,0.0,0.0,0.0,0.000961,2
1671465830203735710,727919,1671465830216010969,gps,2,1,42.3009687945,-83.6976853015,272.752593994,0.0001,0.0,0.0,0.0,0.000121,0.0,0.0,0.0,0.000961,2
1671465830213646118,727920,1671465830225951874,gps,2,1,42.3009687948,-83.6976853017,272.752593994,0.0001,0.0,0.0,0.0,0.000121,0.0,0.0,0.0,0.000961,2
1671465830223812338,727921,1671465830235941418,gps,2,1,42.3009687943,-83.6976853021,272.752593994,0.0001,0.0,0.0,0.0,0.000121,0.0,0.0,0.0,0.000961,2
1671465830233780144,727922,1671465830246017857,gps,2,1,42.3009687946,-83.6976853022,272.752563477,0.0001,0.0,0.0,0.0,0.000121,0.0,0.0,0.0,0.000961,2
1671465830243779406,727923,1671465830255949362,gps,2,1,42.300968795,-83.6976853025,272.752563477,0.0001,0.0,0.0,0.0,0.000121,0.0,0.0,0.0,0.000961,2
1671465830253792932,727924,1671465830265939650,gps,2,1,42.3009687944,-83.6976853028,272.752563477,4.9e-05,0.0,0.0,0.0,6.4e-05,0.0,0.0,0.0,0.0009,2
1671465830264020538,727925,1671465830275985248,gps,2,1,42.3009687946,-83.6976853031,272.752563477,4.9e-05,0.0,0.0,0.0,6.4e-05,0.0,0.0,0.0,0.0009,2
1671465830273695328,727926,1671465830285995301,gps,2,1,42.3009687949,-83.6976853032,272.752563477,4.9e-05,0.0,0.0,0.0,6.4e-05,0.0,0.0,0.0,0.0009,2
1671465830283656867,727927,1671465830295930625,gps,2,1,42.3009687943,-83.6976853036,272.752532959,4.9e-05,0.0,0.0,0.0,6.4e-05,0.0,0.0,0.0,0.0009,2
1671465830293849938,727928,1671465830305992517,gps,2,1,42.3009687945,-83.6976853038,272.752532959,4.9e-05,0.0,0.0,0.0,6.4e-05,0.0,0.0,0.0,0.0009,2
1671465830304052705,727929,1671465830316028895,gps,2,1,42.3009687946,-83.6976853041,272.752532959,4.9e-05,0.0,0.0,0.0,6.4e-05,0.0,0.0,0.0,0.0009,2
1671465830313463645,727930,1671465830325956677,gps,2,1,42.300968794,-83.6976853045,272.752532959,4.9e-05,0.0,0.0,0.0,6.4e-05,0.0,0.0,0.0,0.0009,2
1671465830324122468,727931,1671465830336015926,gps,2,1,42.3009687941,-83.6976853049,272.752532959,4.9e-05,0.0,0.0,0.0,6.4e-05,0.0,0.0,0.0,0.0009,2
1671465830333906643,727932,1671465830345950580,gps,2,1,42.3009687943,-83.697685305,272.752532959,4.9e-05,0.0,0.0,0.0,6.4e-05,0.0,0.0,0.0,0.0009,2
1671465830343820638,727933,1671465830355954970,gps,2,1,42.3009687937,-83.6976853055,272.752532959,4.9e-05,0.0,0.0,0.0,6.4e-05,0.0,0.0,0.0,0.0009,2
1671465830353777400,727934,1671465830366018662,gps,2,1,42.3009687938,-83.6976853057,272.752563477,4.9e-05,0.0,0.0,0.0,6.4e-05,0.0,0.0,0.0,0.0009,2
1671465830363709711,727935,1671465830375943742,gps,2,1,42.300968794,-83.6976853057,272.752563477,4.9e-05,0.0,0.0,0.0,6.4e-05,0.0,0.0,0.0,0.0009,2
1671465830373720769,727936,1671465830385944599,gps,2,1,42.3009687934,-83.6976853062,272.752563477,4.9e-05,0.0,0.0,0.0,6.4e-05,0.0,0.0,0.0,0.0009,2
1671465830383688197,727937,1671465830396022843,gps,2,1,42.3009687936,-83.6976853064,272.752563477,4.9e-05,0.0,0.0,0.0,6.4e-05,0.0,0.0,0.0,0.0009,2
1671465830393646093,727938,1671465830406027356,gps,2,1,42.3009687938,-83.6976853067,272.752563477,4.9e-05,0.0,0.0,0.0,6.4e-05,0.0,0.0,0.0,0.0009,2
1671465830403651884,727939,1671465830416088831,gps,2,1,42.300968793,-83.697685307,272.752563477,4.9e-05,0.0,0.0,0.0,6.4e-05,0.0,0.0,0.0,0.0009,2
1671465830413599648,727940,1671465830425959897,gps,2,1,42.3009687931,-83.6976853073,272.752532959,4.9e-05,0.0,0.0,0.0,6.4e-05,0.0,0.0,0.0,0.0009,2
1671465830423550958,727941,1671465830435991787,gps,2,1,42.3009687933,-83.6976853075,272.752532959,4.9e-05,0.0,0.0,0.0,6.4e-05,0.0,0.0,0.0,0.0009,2
1671465830433560167,727942,1671465830445939764,gps,2,1,42.3009687925,-83.6976853078,272.752532959,4.9e-05,0.0,0.0,0.0,6.4e-05,0.0,0.0,0.0,0.0009,2
1671465830443444696,727943,1671465830455954404,gps,2,1,42.3009687928,-83.6976853079,272.752502441,4.9e-05,0.0,0.0,0.0,6.4e-05,0.0,0.0,0.0,0.0009,2
1671465830453886840,727944,1671465830466003161,gps,2,1,42.3009687929,-83.6976853081,272.752502441,4.9e-05,0.0,0.0,0.0,6.4e-05,0.0,0.0,0.0,0.0009,2
1671465830463897100,727945,1671465830475983774,gps,2,1,42.3009687923,-83.6976853082,272.752471924,4.9e-05,0.0,0.0,0.0,6.4e-05,0.0,0.0,0.0,0.0009,2
1671465830474012637,727946,1671465830486129989,gps,2,1,42.3009687925,-83.6976853082,272.752471924,4.9e-05,0.0,0.0,0.0,6.4e-05,0.0,0.0,0.0,0.0009,2
1671465830483937131,727947,1671465830495946531,gps,2,1,42.3009687928,-83.6976853084,272.752441406,4.9e-05,0.0,0.0,0.0,6.4e-05,0.0,0.0,0.0,0.0009,2
1671465830494029157,727948,1671465830505941216,gps,2,1,42.3009687922,-83.6976853084,272.752441406,4.9e-05,0.0,0.0,0.0,6.4e-05,0.0,0.0,0.0,0.0009,2
1671465830503819742,727949,1671465830516172378,gps,2,1,42.3009687925,-83.6976853083,272.752441406,4.9e-05,0.0,0.0,0.0,6.4e-05,0.0,0.0,0.0,0.0009,2
1671465830513839662,727950,1671465830525969929,gps,2,1,42.3009687927,-83.6976853083,272.752410889,4.9e-05,0.0,0.0,0.0,6.4e-05,0.0,0.0,0.0,0.0009,2
1671465830523710596,727951,1671465830535987386,gps,2,1,42.3009687904,-83.6976853066,272.752380371,4.9e-05,0.0,0.0,0.0,6.4e-05,0.0,0.0,0.0,0.0009,2
1671465830533986190,727952,1671465830546051362,gps,2,1,42.3009687907,-83.6976853064,272.752380371,4.9e-05,0.0,0.0,0.0,6.4e-05,0.0,0.0,0.0,0.0009,2
1671465830543590957,727953,1671465830555943278,gps,2,1,42.300968791,-83.6976853063,272.752380371,4.9e-05,0.0,0.0,0.0,6.4e-05,0.0,0.0,0.0,0.0009,2
1671465830553813173,727954,1671465830566025000,gps,2,1,42.3009687887,-83.6976853046,272.752349854,4.9e-05,0.0,0.0,0.0,6.4e-05,0.0,0.0,0.0,0.0009,2
1671465830564029461,727955,1671465830576080933,gps,2,1,42.3009687889,-83.6976853044,272.752380371,4.9e-05,0.0,0.0,0.0,6.4e-05,0.0,0.0,0.0,0.0009,2
1671465830573565039,727956,1671465830585963132,gps,2,1,42.3009687892,-83.6976853043,272.752380371,4.9e-05,0.0,0.0,0.0,6.4e-05,0.0,0.0,0.0,0.0009,2
1671465830583529073,727957,1671465830595944499,gps,2,1,42.300968787,-83.6976853026,272.752349854,4.9e-05,0.0,0.0,0.0,6.4e-05,0.0,0.0,0.0,0.0009,2
1671465830593923110,727958,1671465830606016475,gps,2,1,42.3009687872,-83.6976853024,272.752380371,4.9e-05,0.0,0.0,0.0,6.4e-05,0.0,0.0,0.0,0.0009,2
1671465830604020927,727959,1671465830615950951,gps,2,1,42.3009687874,-83.6976853022,272.752380371,4.9e-05,0.0,0.0,0.0,6.4e-05,0.0,0.0,0.0,0.0009,2
1671465830614001211,727960,1671465830625942768,gps,2,1,42.3009687853,-83.6976853006,272.752380371,4.9e-05,0.0,0.0,0.0,6.4e-05,0.0,0.0,0.0,0.0009,2
1671465830623935764,727961,1671465830636019086,gps,2,1,42.3009687855,-83.6976853005,272.752410889,4.9e-05,0.0,0.0,0.0,6.4e-05,0.0,0.0,0.0,0.0009,2
1671465830633952564,727962,1671465830645955485,gps,2,1,42.3009687858,-83.6976853004,272.752410889,4.9e-05,0.0,0.0,0.0,6.4e-05,0.0,0.0,0.0,0.0009,2
1671465830643680864,727963,1671465830655934024,gps,2,1,42.3009687838,-83.6976852988,272.752410889,4.9e-05,0.0,0.0,0.0,6.4e-05,0.0,0.0,0.0,0.0009,2
1671465830653808260,727964,1671465830666083960,gps,2,1,42.3009687841,-83.6976852987,272.752441406,4.9e-05,0.0,0.0,0.0,6.4e-05,0.0,0.0,0.0,0.0009,2
1671465830663805881,727965,1671465830675943250,gps,2,1,42.3009687844,-83.6976852987,272.752441406,4.9e-05,0.0,0.0,0.0,6.4e-05,0.0,0.0,0.0,0.0009,2
1671465830673612449,727966,1671465830685926438,gps,2,1,42.3009687825,-83.6976852973,272.752441406,4.9e-05,0.0,0.0,0.0,6.4e-05,0.0,0.0,0.0,0.0009,2
1671465830683654703,727967,1671465830695992490,gps,2,1,42.3009687828,-83.6976852974,272.752441406,4.9e-05,0.0,0.0,0.0,6.4e-05,0.0,0.0,0.0,0.0009,2
1671465830693600617,727968,1671465830705925696,gps,2,1,42.3009687831,-83.6976852974,272.752471924,4.9e-05,0.0,0.0,0.0,6.4e-05,0.0,0.0,0.0,0.0009,2
1671465830703633879,727969,1671465830715925028,gps,2,1,42.3009687813,-83.6976852962,272.752441406,4.9e-05,0.0,0.0,0.0,6.4e-05,0.0,0.0,0.0,0.0009,2
1671465830713562918,727970,1671465830725991831,gps,2,1,42.3009687816,-83.6976852965,272.752410889,4.9e-05,0.0,0.0,0.0,6.4e-05,0.0,0.0,0.0,0.0009,2
1671465830723503444,727971,1671465830735931291,gps,2,1,42.3009687819,-83.6976852966,272.752441406,4.9e-05,0.0,0.0,0.0,6.4e-05,0.0,0.0,0.0,0.0009,2
1671465830733655681,727972,1671465830745937047,gps,2,1,42.30096878,-83.6976852956,272.752380371,4.9e-05,0.0,0.0,0.0,6.4e-05,0.0,0.0,0.0,0.0009,2
1671465830743926637,727973,1671465830756005217,gps,2,1,42.3009687801,-83.697685296,272.752349854,4.9e-05,0.0,0.0,0.0,6.4e-05,0.0,0.0,0.0,0.0009,2
1671465830753797624,727974,1671465830765973325,gps,2,1,42.3009687803,-83.6976852963,272.752349854,4.9e-05,0.0,0.0,0.0,6.4e-05,0.0,0.0,0.0,0.0009,2
1671465830763879566,727975,1671465830775962353,gps,2,1,42.3009687783,-83.6976852954,272.752288818,4.9e-05,0.0,0.0,0.0,6.4e-05,0.0,0.0,0.0,0.0009,2
1671465830773705993,727976,1671465830785993468,gps,2,1,42.3009687783,-83.6976852958,272.752258301,4.9e-05,0.0,0.0,0.0,6.4e-05,0.0,0.0,0.0,0.0009,2
1671465830783907274,727977,1671465830795955003,gps,2,1,42.3009687782,-83.6976852963,272.752197266,4.9e-05,0.0,0.0,0.0,6.4e-05,0.0,0.0,0.0,0.0009,2
1671465830793625252,727978,1671465830805926810,gps,2,1,42.3009687762,-83.6976852954,272.75213623,4.9e-05,0.0,0.0,0.0,6.4e-05,0.0,0.0,0.0,0.0009,2
1671465830803877776,727979,1671465830816007533,gps,2,1,42.3009687761,-83.6976852957,272.75213623,4.9e-05,0.0,0.0,0.0,6.4e-05,0.0,0.0,0.0,0.0009,2
1671465830813638659,727980,1671465830825948391,gps,2,1,42.300968776,-83.697685296,272.752105713,4.9e-05,0.0,0.0,0.0,6.4e-05,0.0,0.0,0.0,0.0009,2
1671465830823635149,727981,1671465830835946028,gps,2,1,42.300968774,-83.6976852951,272.752075195,4.9e-05,0.0,0.0,0.0,6.4e-05,0.0,0.0,0.0,0.0009,2
1671465830833680534,727982,1671465830845965300,gps,2,1,42.300968774,-83.6976852951,272.752075195,4.9e-05,0.0,0.0,0.0,6.4e-05,0.0,0.0,0.0,0.0009,2
1671465830843570909,727983,1671465830855941277,gps,2,1,42.3009687738,-83.6976852955,272.752075195,4.9e-05,0.0,0.0,0.0,6.4e-05,0.0,0.0,0.0,0.0009,2
1671465830853484988,727984,1671465830865915032,gps,2,1,42.300968772,-83.6976852944,272.752075195,4.9e-05,0.0,0.0,0.0,6.4e-05,0.0,0.0,0.0,0.0009,2
1671465830864021545,727985,1671465830876029275,gps,2,1,42.3009687721,-83.6976852944,272.752105713,4.9e-05,0.0,0.0,0.0,6.4e-05,0.0,0.0,0.0,0.0009,2
1671465830873570031,727986,1671465830885953670,gps,2,1,42.3009687721,-83.6976852946,272.752105713,4.9e-05,0.0,0.0,0.0,6.4e-05,0.0,0.0,0.0,0.0009,2
1671465830883818032,727987,1671465830895940084,gps,2,1,42.3009687704,-83.6976852934,272.75213623,4.9e-05,0.0,0.0,0.0,6.4e-05,0.0,0.0,0.0,0.0009,2
1671465830893837150,727988,1671465830906009821,gps,2,1,42.3009687707,-83.6976852933,272.752166748,4.9e-05,0.0,0.0,0.0,6.4e-05,0.0,0.0,0.0,0.0009,2
1671465830903872538,727989,1671465830916045947,gps,2,1,42.3009687709,-83.6976852933,272.752197266,4.9e-05,0.0,0.0,0.0,6.4e-05,0.0,0.0,0.0,0.0009,2
1671465830913883532,727990,1671465830925939632,gps,2,1,42.3009687694,-83.6976852921,272.752227783,4.9e-05,0.0,0.0,0.0,6.4e-05,0.0,0.0,0.0,0.0009,2
1671465830923705145,727991,1671465830936005765,gps,2,1,42.3009687699,-83.6976852921,272.752258301,4.9e-05,0.0,0.0,0.0,6.4e-05,0.0,0.0,0.0,0.0009,2
1671465830933595699,727992,1671465830945947658,gps,2,1,42.3009687702,-83.6976852921,272.752288818,4.9e-05,0.0,0.0,0.0,6.4e-05,0.0,0.0,0.0,0.0009,2
1671465830943593487,727993,1671465830955938333,gps,2,1,42.3009687688,-83.6976852909,272.752288818,4.9e-05,0.0,0.0,0.0,6.4e-05,0.0,0.0,0.0,0.0009,2
1671465830953550481,727994,1671465830965989647,gps,2,1,42.3009687693,-83.697685291,272.752288818,4.9e-05,0.0,0.0,0.0,6.4e-05,0.0,0.0,0.0,0.0009,2
1671465830963637391,727995,1671465830975925628,gps,2,1,42.3009687698,-83.697685291,272.752319336,4.9e-05,0.0,0.0,0.0,6.4e-05,0.0,0.0,0.0,0.0009,2
1671465830973650318,727996,1671465830985930962,gps,2,1,42.3009687685,-83.69768529,272.752288818,4.9e-05,0.0,0.0,0.0,6.4e-05,0.0,0.0,0.0,0.0009,2
1671465830983662166,727997,1671465830995996820,gps,2,1,42.3009687689,-83.6976852902,272.752288818,4.9e-05,0.0,0.0,0.0,6.4e-05,0.0,0.0,0.0,0.0009,2
1671465830993508429,727998,1671465831005928520,gps,2,1,42.3009687694,-83.6976852903,272.752288818,4.9e-05,0.0,0.0,0.0,6.4e-05,0.0,0.0,0.0,0.0009,2
1671465831004002447,727999,1671465831016075913,gps,2,1,42.3009687681,-83.6976852896,272.752258301,4.9e-05,0.0,0.0,0.0,6.4e-05,0.0,0.0,0.0,0.0009,2
1671465831013840142,728000,1671465831026080004,gps,2,1,42.3009687684,-83.6976852899,272.752227783,4.9e-05,0.0,0.0,0.0,6.4e-05,0.0,0.0,0.0,0.0009,2
1671465831023976126,728001,1671465831036068813,gps,2,1,42.3009687688,-83.6976852901,272.752227783,4.9e-05,0.0,0.0,0.0,6.4e-05,0.0,0.0,0.0,0.0009,2
1671465831033854032,728002,1671465831045952217,gps,2,1,42.3009687663,-83.6976852887,272.752258301,4.9e-05,0.0,0.0,0.0,6.4e-05,0.0,0.0,0.0,0.0009,2
1671465831043841743,728003,1671465831055986626,gps,2,1,42.3009687664,-83.6976852891,272.752227783,4.9e-05,0.0,0.0,0.0,6.4e-05,0.0,0.0,0.0,0.0009,2
1671465831053710310,728004,1671465831066061621,gps,2,1,42.3009687666,-83.6976852894,272.752227783,4.9e-05,0.0,0.0,0.0,6.4e-05,0.0,0.0,0.0,0.0009,2
1671465831063845989,728005,1671465831075936228,gps,2,1,42.300968764,-83.6976852882,272.752258301,4.9e-05,0.0,0.0,0.0,6.4e-05,0.0,0.0,0.0,0.0009,2
1671465831073662241,728006,1671465831085984670,gps,2,1,42.3009687639,-83.6976852886,272.752258301,4.9e-05,0.0,0.0,0.0,6.4e-05,0.0,0.0,0.0,0.0009,2
1671465831083989169,728007,1671465831096101560,gps,2,1,42.300968764,-83.6976852891,272.752258301,4.9e-05,0.0,0.0,0.0,6.4e-05,0.0,0.0,0.0,0.0009,2
1671465831093579868,728008,1671465831105970275,gps,2,1,42.3009687612,-83.6976852879,272.752319336,4.9e-05,0.0,0.0,0.0,6.4e-05,0.0,0.0,0.0,0.0009,2
1671465831103753074,728009,1671465831115951369,gps,2,1,42.3009687611,-83.6976852883,272.752319336,4.9e-05,0.0,0.0,0.0,6.4e-05,0.0,0.0,0.0,0.0009,2
1671465831113842856,728010,1671465831125998039,gps,2,1,42.3009687611,-83.6976852887,272.752319336,4.9e-05,0.0,0.0,0.0,6.4e-05,0.0,0.0,0.0,0.0009,2
1671465831123577260,728011,1671465831135940178,gps,2,1,42.3009687584,-83.6976852874,272.752380371,4.9e-05,0.0,0.0,0.0,6.4e-05,0.0,0.0,0.0,0.0009,2
1671465831133484557,728012,1671465831145914800,gps,2,1,42.3009687583,-83.6976852875,272.752380371,4.9e-05,0.0,0.0,0.0,6.4e-05,0.0,0.0,0.0,0.0009,2
1671465831143660323,728013,1671465831156016124,gps,2,1,42.3009687582,-83.6976852879,272.752410889,4.9e-05,0.0,0.0,0.0,6.4e-05,0.0,0.0,0.0,0.0009,2
1671465831153874760,728014,1671465831166009933,gps,2,1,42.3009687557,-83.6976852866,272.752471924,4.9e-05,0.0,0.0,0.0,6.4e-05,0.0,0.0,0.0,0.0009,2
1671465831164083456,728015,1671465831175921353,gps,2,1,42.3009687557,-83.6976852866,272.752471924,4.9e-05,0.0,0.0,0.0,6.4e-05,0.0,0.0,0.0,0.0009,2
1671465831173916491,728016,1671465831186002800,gps,2,1,42.3009687556,-83.6976852867,272.752471924,4.9e-05,0.0,0.0,0.0,6.4e-05,0.0,0.0,0.0,0.0009,2
1671465831183855338,728017,1671465831195928068,gps,2,1,42.3009687533,-83.6976852852,272.752532959,4.9e-05,0.0,0.0,0.0,6.4e-05,0.0,0.0,0.0,0.0009,2
1671465831193944591,728018,1671465831205949850,gps,2,1,42.3009687535,-83.6976852849,272.752532959,4.9e-05,0.0,0.0,0.0,6.4e-05,0.0,0.0,0.0,0.0009,2
1671465831203636250,728019,1671465831215996106,gps,2,1,42.3009687535,-83.6976852849,272.752563477,4.9e-05,0.0,0.0,0.0,6.4e-05,0.0,0.0,0.0,0.0009,2
1671465831213661229,728020,1671465831225944408,gps,2,1,42.3009687514,-83.6976852832,272.752593994,4.9e-05,0.0,0.0,0.0,6.4e-05,0.0,0.0,0.0,0.0009,2
1671465831223616150,728021,1671465831235927780,gps,2,1,42.3009687517,-83.6976852829,272.752593994,4.9e-05,0.0,0.0,0.0,6.4e-05,0.0,0.0,0.0,0.0009,2
1671465831233628384,728022,1671465831246001813,gps,2,1,42.3009687518,-83.6976852826,272.752593994,4.9e-05,0.0,0.0,0.0,6.4e-05,0.0,0.0,0.0,0.0009,2
1671465831243629729,728023,1671465831255915299,gps,2,1,42.3009687499,-83.697685281,272.752593994,4.9e-05,0.0,0.0,0.0,6.4e-05,0.0,0.0,0.0,0.0009,2
1671465831253597108,728024,1671465831265943511,gps,2,1,42.3009687502,-83.6976852807,272.752563477,0.0001,0.0,0.0,0.0,0.000121,0.0,0.0,0.0,0.000961,2
1671465831263653677,728025,1671465831275994149,gps,2,1,42.3009687505,-83.6976852803,272.752563477,0.0001,0.0,0.0,0.0,0.000121,0.0,0.0,0.0,0.000961,2
1671465831273610898,728026,1671465831285928332,gps,2,1,42.3009687487,-83.6976852787,272.752593994,0.0001,0.0,0.0,0.0,0.000121,0.0,0.0,0.0,0.000961,2
1671465831283572083,728027,1671465831295922985,gps,2,1,42.300968749,-83.6976852785,272.752563477,0.0001,0.0,0.0,0.0,0.000121,0.0,0.0,0.0,0.000961,2
1671465831293950154,728028,1671465831306000354,gps,2,1,42.3009687493,-83.6976852782,272.752532959,0.0001,0.0,0.0,0.0,0.000121,0.0,0.0,0.0,0.000961,2
1671465831303592420,728029,1671465831315923994,gps,2,1,42.3009687475,-83.6976852768,272.752532959,0.0001,0.0,0.0,0.0,0.000121,0.0,0.0,0.0,0.000961,2
1671465831313990033,728030,1671465831325938837,gps,2,1,42.3009687478,-83.6976852767,272.752532959,0.0001,0.0,0.0,0.0,0.000121,0.0,0.0,0.0,0.000961,2
1671465831323559635,728031,1671465831335989215,gps,2,1,42.3009687481,-83.6976852765,272.752502441,0.0001,0.0,0.0,0.0,0.000121,0.0,0.0,0.0,0.000961,2
1671465831334114736,728032,1671465831345939180,gps,2,1,42.3009687462,-83.6976852753,272.752532959,0.0001,0.0,0.0,0.0,0.000121,0.0,0.0,0.0,0.000961,2
1671465831344008308,728033,1671465831355924201,gps,2,1,42.3009687463,-83.6976852754,272.752532959,0.0001,0.0,0.0,0.0,0.000121,0.0,0.0,0.0,0.000961,2
1671465831353830019,728034,1671465831365972731,gps,2,1,42.3009687465,-83.6976852754,272.752532959,0.0001,0.0,0.0,0.0,0.000121,0.0,0.0,0.0,0.000961,2
1671465831363602877,728035,1671465831375933939,gps,2,1,42.3009687445,-83.6976852743,272.752563477,0.0001,0.0,0.0,0.0,0.000121,0.0,0.0,0.0,0.000961,2
1671465831373792298,728036,1671465831385929328,gps,2,1,42.3009687445,-83.6976852745,272.752593994,0.0001,0.0,0.0,0.0,0.000121,0.0,0.0,0.0,0.000961,2
1671465831383712475,728037,1671465831396039705,gps,2,1,42.3009687445,-83.6976852746,272.752593994,0.0001,0.0,0.0,0.0,0.000121,0.0,0.0,0.0,0.000961,2
1671465831393713403,728038,1671465831405963358,gps,2,1,42.3009687426,-83.6976852736,272.752624512,0.0001,0.0,0.0,0.0,0.000121,0.0,0.0,0.0,0.000961,2
1671465831403595911,728039,1671465831416028169,gps,2,1,42.3009687424,-83.6976852738,272.752655029,0.0001,0.0,0.0,0.0,0.000121,0.0,0.0,0.0,0.000961,2
1671465831413845332,728040,1671465831425970786,gps,2,1,42.3009687423,-83.697685274,272.752685547,0.0001,0.0,0.0,0.0,0.000121,0.0,0.0,0.0,0.000961,2
1671465831423487671,728041,1671465831435901394,gps,2,1,42.3009687403,-83.697685273,272.752716064,0.0001,0.0,0.0,0.0,0.000121,0.0,0.0,0.0,0.000961,2
1671465831433515730,728042,1671465831445922423,gps,2,1,42.3009687399,-83.6976852732,272.752746582,0.0001,0.0,0.0,0.0,0.000121,0.0,0.0,0.0,0.000961,2
1671465831443892227,728043,1671465831455980110,gps,2,1,42.3009687397,-83.6976852735,272.7527771,0.0001,0.0,0.0,0.0,0.000121,0.0,0.0,0.0,0.000961,2
1671465831454056578,728044,1671465831465924146,gps,2,1,42.3009687377,-83.6976852725,272.752807617,0.0001,0.0,0.0,0.0,0.000121,0.0,0.0,0.0,0.000961,2
1671465831463780487,728045,1671465831475961817,gps,2,1,42.3009687374,-83.6976852726,272.752807617,0.0001,0.0,0.0,0.0,0.000121,0.0,0.0,0.0,0.000961,2
1671465831473830705,728046,1671465831486089613,gps,2,1,42.3009687371,-83.6976852728,272.752838135,0.0001,0.0,0.0,0.0,0.000121,0.0,0.0,0.0,0.000961,2
1671465831483963806,728047,1671465831495909156,gps,2,1,42.3009687351,-83.6976852718,272.752868652,0.0001,0.0,0.0,0.0,0.000121,0.0,0.0,0.0,0.000961,2
1671465831493657835,728048,1671465831505916033,gps,2,1,42.300968735,-83.6976852718,272.752868652,0.0001,0.0,0.0,0.0,0.000121,0.0,0.0,0.0,0.000961,2
1671465831503700916,728049,1671465831516032532,gps,2,1,42.3009687346,-83.6976852719,272.752868652,0.0001,0.0,0.0,0.0,0.000121,0.0,0.0,0.0,0.000961,2
1671465831513749202,728050,1671465831525984857,gps,2,1,42.3009687349,-83.697685272,272.752838135,0.0001,0.0,0.0,0.0,0.000121,0.0,0.0,0.0,0.000961,2
1671465831523872075,728051,1671465831535985423,gps,2,1,42.3009687349,-83.697685272,272.752807617,0.0001,0.0,0.0,0.0,0.000121,0.0,0.0,0.0,0.000961,2
1671465831533636549,728052,1671465831545954568,gps,2,1,42.3009687347,-83.6976852721,272.752807617,0.0001,0.0,0.0,0.0,0.000121,0.0,0.0,0.0,0.000961,2
1671465831543696951,728053,1671465831555961676,gps,2,1,42.3009687352,-83.6976852721,272.7527771,0.0001,0.0,0.0,0.0,0.000121,0.0,0.0,0.0,0.000961,2
1671465831553795522,728054,1671465831566039787,gps,2,1,42.3009687354,-83.6976852721,272.752746582,0.0001,0.0,0.0,0.0,0.000121,0.0,0.0,0.0,0.000961,2
1671465831564047415,728055,1671465831576048062,gps,2,1,42.3009687354,-83.6976852722,272.752746582,0.0001,0.0,0.0,0.0,0.000121,0.0,0.0,0.0,0.000961,2
1671465831573874766,728056,1671465831585958627,gps,2,1,42.3009687361,-83.6976852721,272.752685547,0.0001,0.0,0.0,0.0,0.000121,0.0,0.0,0.0,0.000961,2
1671465831583858795,728057,1671465831595881517,gps,2,1,42.3009687364,-83.6976852721,272.752685547,0.0001,0.0,0.0,0.0,0.000121,0.0,0.0,0.0,0.000961,2
1671465831593429802,728058,1671465831605854949,gps,2,1,42.3009687366,-83.6976852721,272.752685547,0.0001,0.0,0.0,0.0,0.000121,0.0,0.0,0.0,0.000961,2
1671465831603822415,728059,1671465831615868326,gps,2,1,42.3009687373,-83.697685272,272.752655029,0.0001,0.0,0.0,0.0,0.000121,0.0,0.0,0.0,0.000961,2
1671465831613899817,728060,1671465831625990144,gps,2,1,42.3009687377,-83.697685272,272.752655029,0.0001,0.0,0.0,0.0,0.000121,0.0,0.0,0.0,0.000961,2
1671465831623969891,728061,1671465831635989494,gps,2,1,42.300968738,-83.697685272,272.752624512,0.0001,0.0,0.0,0.0,0.000121,0.0,0.0,0.0,0.000961,2
1671465831633850242,728062,1671465831645968877,gps,2,1,42.3009687387,-83.6976852718,272.752593994,0.0001,0.0,0.0,0.0,0.000121,0.0,0.0,0.0,0.000961,2
1671465831643585177,728063,1671465831655908687,gps,2,1,42.3009687389,-83.6976852718,272.752593994,0.0001,0.0,0.0,0.0,0.000121,0.0,0.0,0.0,0.000961,2
1671465831653985825,728064,1671465831666064614,gps,2,1,42.3009687392,-83.6976852717,272.752593994,0.0001,0.0,0.0,0.0,0.000121,0.0,0.0,0.0,0.000961,2
1671465831663723043,728065,1671465831675899306,gps,2,1,42.3009687396,-83.6976852716,272.752563477,0.0001,0.0,0.0,0.0,0.000121,0.0,0.0,0.0,0.000961,2
1671465831673624676,728066,1671465831685911725,gps,2,1,42.3009687398,-83.6976852715,272.752563477,0.0001,0.0,0.0,0.0,0.000121,0.0,0.0,0.0,0.000961,2
1671465831683681851,728067,1671465831695969851,gps,2,1,42.30096874,-83.6976852714,272.752563477,0.0001,0.0,0.0,0.0,0.000121,0.0,0.0,0.0,0.000961,2
1671465831693648706,728068,1671465831705881628,gps,2,1,42.3009687402,-83.6976852713,272.752532959,0.0001,0.0,0.0,0.0,0.000121,0.0,0.0,0.0,0.000961,2
1671465831703523021,728069,1671465831715890497,gps,2,1,42.3009687402,-83.6976852712,272.752532959,0.0001,0.0,0.0,0.0,0.000121,0.0,0.0,0.0,0.000961,2
1671465831713694568,728070,1671465831725968112,gps,2,1,42.3009687403,-83.6976852711,272.752532959,0.0001,0.0,0.0,0.0,0.000121,0.0,0.0,0.0,0.000961,2
1671465831723470804,728071,1671465831735900300,gps,2,1,42.3009687404,-83.697685271,272.752502441,0.0001,0.0,0.0,0.0,0.000121,0.0,0.0,0.0,0.000961,2
1671465831733822864,728072,1671465831745931929,gps,2,1,42.3009687402,-83.697685271,272.752502441,0.0001,0.0,0.0,0.0,0.000121,0.0,0.0,0.0,0.000961,2
1671465831743958098,728073,1671465831755960467,gps,2,1,42.3009687402,-83.6976852709,272.752502441,0.0001,0.0,0.0,0.0,0.000121,0.0,0.0,0.0,0.000961,2
1671465831753649692,728074,1671465831765903300,gps,2,1,42.3009687402,-83.6976852708,272.752441406,0.0001,0.0,0.0,0.0,0.000121,0.0,0.0,0.0,0.000961,2
1671465831763920820,728075,1671465831775940078,gps,2,1,42.30096874,-83.6976852708,272.752441406,0.0001,0.0,0.0,0.0,0.000121,0.0,0.0,0.0,0.000961,2
1671465831773699557,728076,1671465831785977078,gps,2,1,42.3009687398,-83.6976852708,272.752441406,0.0001,0.0,0.0,0.0,0.000121,0.0,0.0,0.0,0.000961,2
1671465831783779192,728077,1671465831795904722,gps,2,1,42.3009687398,-83.6976852707,272.752410889,0.0001,0.0,0.0,0.0,0.000121,0.0,0.0,0.0,0.000961,2
1671465831793643970,728078,1671465831805920225,gps,2,1,42.3009687396,-83.6976852708,272.752410889,0.0001,0.0,0.0,0.0,0.000121,0.0,0.0,0.0,0.000961,2
1671465831803693104,728079,1671465831815966551,gps,2,1,42.3009687394,-83.6976852708,272.752410889,0.0001,0.0,0.0,0.0,0.000121,0.0,0.0,0.0,0.000961,2
1671465831813682478,728080,1671465831825909623,gps,2,1,42.3009687394,-83.6976852707,272.752380371,0.0001,0.0,0.0,0.0,0.000121,0.0,0.0,0.0,0.000961,2
1671465831823553932,728081,1671465831835890058,gps,2,1,42.3009687393,-83.6976852708,272.752380371,0.0001,0.0,0.0,0.0,0.000121,0.0,0.0,0.0,0.000961,2
1671465831833589654,728082,1671465831845977917,gps,2,1,42.3009687392,-83.6976852708,272.752380371,0.0001,0.0,0.0,0.0,0.000121,0.0,0.0,0.0,0.000961,2
1671465831843515912,728083,1671465831855894000,gps,2,1,42.3009687392,-83.6976852708,272.752349854,0.0001,0.0,0.0,0.0,0.000121,0.0,0.0,0.0,0.000961,2
1671465831853493322,728084,1671465831865975352,gps,2,1,42.3009687392,-83.6976852708,272.752319336,0.0001,0.0,0.0,0.0,0.000121,0.0,0.0,0.0,0.000961,2
1671465831863906999,728085,1671465831875963255,gps,2,1,42.3009687391,-83.6976852709,272.752319336,0.0001,0.0,0.0,0.0,0.000121,0.0,0.0,0.0,0.000961,2
1671465831873699996,728086,1671465831885917306,gps,2,1,42.3009687393,-83.6976852708,272.752288818,0.0001,0.0,0.0,0.0,0.000121,0.0,0.0,0.0,0.000961,2
1671465831883981109,728087,1671465831895904089,gps,2,1,42.3009687393,-83.6976852708,272.752288818,0.0001,0.0,0.0,0.0,0.000121,0.0,0.0,0.0,0.000961,2
1671465831893831564,728088,1671465831905967099,gps,2,1,42.3009687393,-83.6976852708,272.752288818,0.0001,0.0,0.0,0.0,0.000121,0.0,0.0,0.0,0.000961,2
1671465831903704235,728089,1671465831916035817,gps,2,1,42.3009687395,-83.6976852707,272.752258301,0.0001,0.0,0.0,0.0,0.000121,0.0,0.0,0.0,0.000961,2
1671465831913615424,728090,1671465831925908651,gps,2,1,42.3009687397,-83.6976852707,272.752258301,0.0001,0.0,0.0,0.0,0.000121,0.0,0.0,0.0,0.000961,2
1671465831923792267,728091,1671465831935968496,gps,2,1,42.3009687398,-83.6976852706,272.752258301,0.0001,0.0,0.0,0.0,0.000121,0.0,0.0,0.0,0.000961,2
1671465831933615822,728092,1671465831945903904,gps,2,1,42.3009687402,-83.6976852705,272.752227783,0.0001,0.0,0.0,0.0,0.000121,0.0,0.0,0.0,0.000961,2
1671465831943621822,728093,1671465831955907997,gps,2,1,42.3009687403,-83.6976852704,272.752227783,0.0001,0.0,0.0,0.0,0.000121,0.0,0.0,0.0,0.000961,2
1671465831953620875,728094,1671465831965933731,gps,2,1,42.3009687404,-83.6976852703,272.752197266,0.0001,0.0,0.0,0.0,0.000121,0.0,0.0,0.0,0.000961,2
1671465831963661520,728095,1671465831975897043,gps,2,1,42.3009687408,-83.6976852702,272.752166748,0.0001,0.0,0.0,0.0,0.000121,0.0,0.0,0.0,0.000961,2
1671465831973622844,728096,1671465831985885111,gps,2,1,42.3009687409,-83.6976852701,272.752166748,0.0001,0.0,0.0,0.0,0.000121,0.0,0.0,0.0,0.000961,2
1671465831983630820,728097,1671465831995936122,gps,2,1,42.3009687411,-83.69768527,272.752166748,0.0001,0.0,0.0,0.0,0.000121,0.0,0.0,0.0,0.000961,2
1671465831993545037,728098,1671465832005879372,gps,2,1,42.3009687414,-83.69768527,272.75213623,0.0001,0.0,0.0,0.0,0.000121,0.0,0.0,0.0,0.000961,2
1671465832003973884,728099,1671465832015950801,gps,2,1,42.3009687415,-83.6976852703,272.75213623,0.0001,0.0,0.0,0.0,0.000121,0.0,0.0,0.0,0.000961,2
1671465832014193273,728100,1671465832026032626,gps,2,1,42.3009687416,-83.6976852703,272.75213623,0.0001,0.0,0.0,0.0,0.000121,0.0,0.0,0.0,0.000961,2
1671465832024004464,728101,1671465832035990559,gps,2,1,42.3009687418,-83.6976852704,272.752105713,0.0001,0.0,0.0,0.0,0.000121,0.0,0.0,0.0,0.000961,2
1671465832033931447,728102,1671465832046015688,gps,2,1,42.3009687418,-83.6976852706,272.752105713,0.0001,0.0,0.0,0.0,0.000121,0.0,0.0,0.0,0.000961,2
1671465832043762641,728103,1671465832055945526,gps,2,1,42.3009687419,-83.697685271,272.752105713,0.0001,0.0,0.0,0.0,0.000121,0.0,0.0,0.0,0.000961,2
1671465832053870685,728104,1671465832065952087,gps,2,1,42.3009687433,-83.6976852719,272.752044678,0.0001,0.0,0.0,0.0,0.000121,0.0,0.0,0.0,0.000961,2
1671465832063878689,728105,1671465832076007216,gps,2,1,42.3009687432,-83.697685272,272.752075195,0.0001,0.0,0.0,0.0,0.000121,0.0,0.0,0.0,0.000961,2
1671465832073700863,728106,1671465832085961131,gps,2,1,42.3009687432,-83.6976852723,272.752075195,0.0001,0.0,0.0,0.0,0.000121,0.0,0.0,0.0,0.000961,2
1671465832083825131,728107,1671465832095978988,gps,2,1,42.3009687445,-83.6976852732,272.75201416,0.0001,0.0,0.0,0.0,0.000121,0.0,0.0,0.0,0.000961,2
1671465832093699052,728108,1671465832106001516,gps,2,1,42.3009687444,-83.6976852732,272.752044678,0.0001,0.0,0.0,0.0,0.000121,0.0,0.0,0.0,0.000961,2
1671465832103785250,728109,1671465832115944661,gps,2,1,42.3009687444,-83.6976852733,272.752044678,0.0001,0.0,0.0,0.0,0.000121,0.0,0.0,0.0,0.000961,2
1671465832113640911,728110,1671465832125943465,gps,2,1,42.3009687456,-83.6976852741,272.75201416,0.0001,0.0,0.0,0.0,0.000121,0.0,0.0,0.0,0.000961,2
1671465832123661128,728111,1671465832135980636,gps,2,1,42.3009687456,-83.6976852741,272.75201416,0.0001,0.0,0.0,0.0,0.000121,0.0,0.0,0.0,0.000961,2
1671465832133557057,728112,1671465832145968440,gps,2,1,42.3009687455,-83.6976852742,272.75201416,0.0001,0.0,0.0,0.0,0.000121,0.0,0.0,0.0,0.000961,2
1671465832143506455,728113,1671465832155959883,gps,2,1,42.3009687466,-83.6976852747,272.751983643,0.0001,0.0,0.0,0.0,0.000121,0.0,0.0,0.0,0.000961,2
1671465832154095279,728114,1671465832166084875,gps,2,1,42.3009687466,-83.6976852745,272.751983643,0.0001,0.0,0.0,0.0,0.000121,0.0,0.0,0.0,0.000961,2
1671465832163906632,728115,1671465832175947631,gps,2,1,42.3009687465,-83.6976852745,272.751983643,0.0001,0.0,0.0,0.0,0.000121,0.0,0.0,0.0,0.000961,2
1671465832173920527,728116,1671465832185945736,gps,2,1,42.3009687476,-83.697685275,272.751922607,0.0001,0.0,0.0,0.0,0.000121,0.0,0.0,0.0,0.000961,2
1671465832183992909,728117,1671465832196002525,gps,2,1,42.3009687476,-83.6976852749,272.751922607,0.0001,0.0,0.0,0.0,0.000121,0.0,0.0,0.0,0.000961,2
1671465832193750070,728118,1671465832205982788,gps,2,1,42.3009687477,-83.6976852748,272.751922607,0.0001,0.0,0.0,0.0,0.000121,0.0,0.0,0.0,0.000961,2
1671465832203862003,728119,1671465832215972078,gps,2,1,42.3009687488,-83.6976852753,272.751861572,0.0001,0.0,0.0,0.0,0.000121,0.0,0.0,0.0,0.000961,2
1671465832213957114,728120,1671465832225925538,gps,2,1,42.3009687489,-83.6976852753,272.751831055,0.0001,0.0,0.0,0.0,0.000121,0.0,0.0,0.0,0.000961,2
1671465832223729179,728121,1671465832235980092,gps,2,1,42.300968749,-83.6976852752,272.751831055,0.0001,0.0,0.0,0.0,0.000121,0.0,0.0,0.0,0.000961,2
1671465832233701291,728122,1671465832245894762,gps,2,1,42.3009687501,-83.6976852758,272.75177002,0.0001,0.0,0.0,0.0,0.000121,0.0,0.0,0.0,0.000961,2
1671465832243848738,728123,1671465832255955610,gps,2,1,42.3009687502,-83.6976852757,272.75177002,0.0001,0.0,0.0,0.0,0.000121,0.0,0.0,0.0,0.000961,2
1671465832253630054,728124,1671465832265882794,gps,2,1,42.3009687503,-83.6976852757,272.75177002,0.0001,0.0,0.0,0.0,0.000121,0.0,0.0,0.0,0.000961,2
1671465832263889740,728125,1671465832275905019,gps,2,1,42.3009687514,-83.6976852762,272.751739502,0.0001,0.0,0.0,0.0,0.000121,0.0,0.0,0.0,0.000961,2
1671465832273625866,728126,1671465832285952164,gps,2,1,42.3009687515,-83.6976852762,272.751739502,0.0001,0.0,0.0,0.0,0.000121,0.0,0.0,0.0,0.000961,2
1671465832283709798,728127,1671465832295884890,gps,2,1,42.3009687515,-83.6976852761,272.751739502,0.0001,0.0,0.0,0.0,0.000121,0.0,0.0,0.0,0.000961,2
1671465832293645583,728128,1671465832305929734,gps,2,1,42.3009687526,-83.6976852766,272.751708984,0.0001,0.0,0.0,0.0,0.000121,0.0,0.0,0.0,0.000961,2
1671465832303934235,728129,1671465832315962368,gps,2,1,42.3009687526,-83.6976852767,272.751708984,0.0001,0.0,0.0,0.0,0.000121,0.0,0.0,0.0,0.000961,2
1671465832313945233,728130,1671465832325901218,gps,2,1,42.3009687526,-83.6976852767,272.751708984,0.0001,0.0,0.0,0.0,0.000121,0.0,0.0,0.0,0.000961,2
1671465832323728639,728131,1671465832335887687,gps,2,1,42.3009687536,-83.6976852773,272.751678467,0.0001,0.0,0.0,0.0,0.000121,0.0,0.0,0.0,0.000961,2
1671465832333571076,728132,1671465832345980752,gps,2,1,42.3009687536,-83.6976852773,272.751708984,0.0001,0.0,0.0,0.0,0.000121,0.0,0.0,0.0,0.000961,2
1671465832343727689,728133,1671465832355899858,gps,2,1,42.3009687536,-83.6976852774,272.751708984,0.0001,0.0,0.0,0.0,0.000121,0.0,0.0,0.0,0.000961,2
1671465832353848434,728134,1671465832365906015,gps,2,1,42.3009687545,-83.697685278,272.751678467,0.0001,0.0,0.0,0.0,0.000121,0.0,0.0,0.0,0.000961,2
1671465832363640514,728135,1671465832375904614,gps,2,1,42.3009687544,-83.6976852781,272.751678467,0.0001,0.0,0.0,0.0,0.000121,0.0,0.0,0.0,0.000961,2
1671465832373814851,728136,1671465832385992296,gps,2,1,42.3009687544,-83.6976852782,272.751678467,0.0001,0.0,0.0,0.0,0.000121,0.0,0.0,0.0,0.000961,2
1671465832383554402,728137,1671465832395896162,gps,2,1,42.3009687554,-83.6976852789,272.751617432,0.0001,0.0,0.0,0.0,0.000121,0.0,0.0,0.0,0.000961,2
1671465832393768148,728138,1671465832405982622,gps,2,1,42.3009687553,-83.6976852791,272.751617432,0.0001,0.0,0.0,0.0,0.000121,0.0,0.0,0.0,0.000961,2
1671465832404086944,728139,1671465832416080275,gps,2,1,42.3009687553,-83.6976852793,272.751617432,0.0001,0.0,0.0,0.0,0.000121,0.0,0.0,0.0,0.000961,2
1671465832413597216,728140,1671465832425880373,gps,2,1,42.3009687563,-83.69768528,272.751556396,0.0001,0.0,0.0,0.0,0.000121,0.0,0.0,0.0,0.000961,2
1671465832423597168,728141,1671465832435968097,gps,2,1,42.3009687563,-83.6976852803,272.751556396,0.0001,0.0,0.0,0.0,0.000121,0.0,0.0,0.0,0.000961,2
1671465832433568045,728142,1671465832445908745,gps,2,1,42.3009687562,-83.6976852806,272.751556396,0.0001,0.0,0.0,0.0,0.000121,0.0,0.0,0.0,0.000961,2
1671465832443880315,728143,1671465832455892466,gps,2,1,42.3009687572,-83.6976852814,272.751495361,0.0001,0.0,0.0,0.0,0.000121,0.0,0.0,0.0,0.000961,2
1671465832453863392,728144,1671465832465945545,gps,2,1,42.3009687573,-83.6976852819,272.751495361,0.0001,0.0,0.0,0.0,0.000121,0.0,0.0,0.0,0.000961,2
1671465832464002972,728145,1671465832475951683,gps,2,1,42.3009687574,-83.6976852823,272.751464844,0.0001,0.0,0.0,0.0,0.000121,0.0,0.0,0.0,0.000961,2
1671465832473920748,728146,1671465832485908050,gps,2,1,42.3009687584,-83.6976852834,272.751434326,0.0001,0.0,0.0,0.0,0.000121,0.0,0.0,0.0,0.000961,2
1671465832483720222,728147,1671465832495969245,gps,2,1,42.3009687585,-83.6976852847,272.751434326,0.0001,0.0,0.0,0.0,0.000121,0.0,0.0,0.0,0.000961,2
1671465832493715022,728148,1671465832505910063,gps,2,1,42.3009687586,-83.6976852855,272.751403809,0.0001,0.0,0.0,0.0,0.000121,0.0,0.0,0.0,0.000961,2
1671465832503797505,728149,1671465832515912191,gps,2,1,42.3009687597,-83.6976852877,272.751373291,0.0001,0.0,0.0,0.0,0.000121,0.0,0.0,0.0,0.000961,2
1671465832513891703,728150,1671465832525972346,gps,2,1,42.3009687598,-83.6976852902,272.751342773,0.0001,0.0,0.0,0.0,0.000121,0.0,0.0,0.0,0.000961,2
1671465832523799465,728151,1671465832536038307,gps,2,1,42.30096876,-83.6976852915,272.751312256,0.0001,0.0,0.0,0.0,0.000121,0.0,0.0,0.0,0.000961,2
1671465832533758701,728152,1671465832545956550,gps,2,1,42.300968761,-83.6976852946,272.751281738,0.0001,0.0,0.0,0.0,0.000121,0.0,0.0,0.0,0.000961,2
1671465832543739108,728153,1671465832555953282,gps,2,1,42.300968761,-83.6976852979,272.751251221,0.0001,0.0,0.0,0.0,0.000121,0.0,0.0,0.0,0.000961,2
1671465832554031207,728154,1671465832566041513,gps,2,1,42.3009687611,-83.6976853006,272.751220703,0.0001,0.0,0.0,0.0,0.000121,0.0,0.0,0.0,0.000961,2
1671465832563657238,728155,1671465832575922929,gps,2,1,42.3009687611,-83.6976853055,272.751251221,0.0001,0.0,0.0,0.0,0.000121,0.0,0.0,0.0,0.000961,2
1671465832574089202,728156,1671465832585913206,gps,2,1,42.3009687612,-83.6976853101,272.751251221,0.0001,0.0,0.0,0.0,0.000121,0.0,0.0,0.0,0.000961,2
1671465832584093472,728157,1671465832596059154,gps,2,1,42.3009687611,-83.6976853136,272.751220703,0.0001,0.0,0.0,0.0,0.000121,0.0,0.0,0.0,0.000961,2
1671465832593962330,728158,1671465832605920270,gps,2,1,42.3009687612,-83.6976853198,272.751220703,0.0001,0.0,0.0,0.0,0.000121,0.0,0.0,0.0,0.000961,2
1671465832603874017,728159,1671465832615901103,gps,2,1,42.3009687611,-83.6976853256,272.751220703,0.0001,0.0,0.0,0.0,0.000121,0.0,0.0,0.0,0.000961,2
1671465832613840268,728160,1671465832625948600,gps,2,1,42.3009687611,-83.6976853304,272.751190186,0.0001,0.0,0.0,0.0,0.000121,0.0,0.0,0.0,0.000961,2
1671465832623930194,728161,1671465832635870989,gps,2,1,42.3009687611,-83.6976853376,272.751220703,0.0001,0.0,0.0,0.0,0.000121,0.0,0.0,0.0,0.000961,2
1671465832633790304,728162,1671465832645955770,gps,2,1,42.300968761,-83.6976853445,272.751220703,0.0001,0.0,0.0,0.0,0.000121,0.0,0.0,0.0,0.000961,2
1671465832643681838,728163,1671465832655892313,gps,2,1,42.3009687609,-83.6976853505,272.751190186,0.0001,0.0,0.0,0.0,0.000121,0.0,0.0,0.0,0.000961,2
1671465832653752587,728164,1671465832665962799,gps,2,1,42.3009687609,-83.6976853589,272.751220703,0.0001,0.0,0.0,0.0,0.000121,0.0,0.0,0.0,0.000961,2
1671465832663762334,728165,1671465832675881903,gps,2,1,42.3009687609,-83.6976853669,272.751190186,0.0001,0.0,0.0,0.0,0.000121,0.0,0.0,0.0,0.000961,2
1671465832673729631,728166,1671465832685956040,gps,2,1,42.3009687608,-83.697685374,272.751159668,0.0001,0.0,0.0,0.0,0.000121,0.0,0.0,0.0,0.000961,2
1671465832683835793,728167,1671465832695877536,gps,2,1,42.3009687607,-83.6976853836,272.751190186,0.0001,0.0,0.0,0.0,0.000121,0.0,0.0,0.0,0.000961,2
1671465832693599592,728168,1671465832705868857,gps,2,1,42.3009687607,-83.697685393,272.75112915,0.0001,0.0,0.0,0.0,0.000121,0.0,0.0,0.0,0.000961,2
1671465832703594124,728169,1671465832715954198,gps,2,1,42.3009687606,-83.6976854011,272.75112915,0.0001,0.0,0.0,0.0,0.000121,0.0,0.0,0.0,0.000961,2
1671465832713667540,728170,1671465832725874395,gps,2,1,42.3009687606,-83.697685412,272.75112915,0.0001,0.0,0.0,0.0,0.000121,0.0,0.0,0.0,0.000961,2
1671465832723567553,728171,1671465832735891919,gps,2,1,42.3009687606,-83.6976854227,272.751098633,0.0001,0.0,0.0,0.0,0.000121,0.0,0.0,0.0,0.000961,2
1671465832733910635,728172,1671465832745939760,gps,2,1,42.3009687606,-83.6976854323,272.751068115,0.0001,0.0,0.0,0.0,0.000121,0.0,0.0,0.0,0.000961,2
1671465832743972265,728173,1671465832755870439,gps,2,1,42.3009687606,-83.6976854446,272.751037598,0.0001,0.0,0.0,0.0,0.000121,0.0,0.0,0.0,0.000961,2
1671465832753619824,728174,1671465832765880109,gps,2,1,42.3009687606,-83.6976854567,272.75100708,0.0001,0.0,0.0,0.0,0.000121,0.0,0.0,0.0,0.000961,2
1671465832763730028,728175,1671465832775952082,gps,2,1,42.3009687606,-83.6976854676,272.750976562,0.0001,0.0,0.0,0.0,0.000121,0.0,0.0,0.0,0.000961,2
1671465832773602190,728176,1671465832785885586,gps,2,1,42.3009687607,-83.6976854811,272.750946045,0.0001,0.0,0.0,0.0,0.000121,0.0,0.0,0.0,0.000961,2
1671465832783685074,728177,1671465832795931729,gps,2,1,42.3009687607,-83.6976854947,272.750915527,0.0001,0.0,0.0,0.0,0.000121,0.0,0.0,0.0,0.000961,2
1671465832793683895,728178,1671465832805887466,gps,2,1,42.3009687607,-83.697685507,272.750854492,0.0001,0.0,0.0,0.0,0.000121,0.0,0.0,0.0,0.000961,2
1671465832803597744,728179,1671465832815875018,gps,2,1,42.3009687607,-83.697685522,272.750854492,0.0001,0.0,0.0,0.0,0.000121,0.0,0.0,0.0,0.000961,2
1671465832813667928,728180,1671465832825872090,gps,2,1,42.3009687607,-83.6976855369,272.750793457,0.0001,0.0,0.0,0.0,0.000121,0.0,0.0,0.0,0.000961,2
1671465832823811043,728181,1671465832835923044,gps,2,1,42.3009687608,-83.6976855507,272.750762939,0.0001,0.0,0.0,0.0,0.000121,0.0,0.0,0.0,0.000961,2
1671465832833573912,728182,1671465832845906223,gps,2,1,42.3009687609,-83.6976855672,272.750732422,0.0001,0.0,0.0,0.0,0.000121,0.0,0.0,0.0,0.000961,2
1671465832843627408,728183,1671465832855884612,gps,2,1,42.3009687609,-83.6976855836,272.750701904,0.0001,0.0,0.0,0.0,0.000121,0.0,0.0,0.0,0.000961,2
1671465832853485221,728184,1671465832865933842,gps,2,1,42.3009687609,-83.6976855988,272.750671387,0.0001,0.0,0.0,0.0,0.000121,0.0,0.0,0.0,0.000961,2
1671465832863415960,728185,1671465832875868891,gps,2,1,42.300968761,-83.6976856167,272.750640869,0.0001,0.0,0.0,0.0,0.000121,0.0,0.0,0.0,0.000961,2
1671465832873846154,728186,1671465832885874613,gps,2,1,42.300968761,-83.6976856346,272.750610352,0.0001,0.0,0.0,0.0,0.000121,0.0,0.0,0.0,0.000961,2
1671465832884149524,728187,1671465832895950029,gps,2,1,42.3009687611,-83.6976856513,272.750549316,0.0001,0.0,0.0,0.0,0.000121,0.0,0.0,0.0,0.000961,2
1671465832893816183,728188,1671465832905870476,gps,2,1,42.3009687612,-83.6976856705,272.750549316,0.0001,0.0,0.0,0.0,0.000121,0.0,0.0,0.0,0.000961,2
1671465832903782985,728189,1671465832915973405,gps,2,1,42.3009687612,-83.6976856901,272.750488281,0.0001,0.0,0.0,0.0,0.000121,0.0,0.0,0.0,0.000961,2
1671465832913864305,728190,1671465832925939474,gps,2,1,42.3009687612,-83.6976857083,272.750457764,0.0001,0.0,0.0,0.0,0.000121,0.0,0.0,0.0,0.000961,2
1671465832923799122,728191,1671465832935865567,gps,2,1,42.3009687613,-83.6976857292,272.750427246,0.0001,0.0,0.0,0.0,0.000121,0.0,0.0,0.0,0.000961,2
1671465832933651536,728192,1671465832945872123,gps,2,1,42.3009687613,-83.6976857504,272.750366211,0.0001,0.0,0.0,0.0,0.000121,0.0,0.0,0.0,0.000961,2
1671465832943753274,728193,1671465832955944495,gps,2,1,42.3009687614,-83.6976857701,272.750335693,0.0001,0.0,0.0,0.0,0.000121,0.0,0.0,0.0,0.000961,2
1671465832953663413,728194,1671465832965868199,gps,2,1,42.3009687615,-83.6976857925,272.750305176,0.0001,0.0,0.0,0.0,0.000121,0.0,0.0,0.0,0.000961,2
1671465832963650059,728195,1671465832975861721,gps,2,1,42.3009687615,-83.6976858153,272.750244141,0.0001,0.0,0.0,0.0,0.000121,0.0,0.0,0.0,0.000961,2
1671465832973699747,728196,1671465832985927188,gps,2,1,42.3009687615,-83.6976858369,272.750183105,0.0001,0.0,0.0,0.0,0.000121,0.0,0.0,0.0,0.000961,2
1671465832983573842,728197,1671465832995851340,gps,2,1,42.3009687617,-83.697685861,272.750152588,0.0001,0.0,0.0,0.0,0.000121,0.0,0.0,0.0,0.000961,2
1671465832993628173,728198,1671465833005855905,gps,2,1,42.3009687617,-83.6976858855,272.75012207,0.0001,0.0,0.0,0.0,0.000121,0.0,0.0,0.0,0.000961,2
1671465833003865052,728199,1671465833015996421,gps,2,1,42.3009687618,-83.6976859086,272.750061035,0.0001,0.0,0.0,0.0,0.000121,0.0,0.0,0.0,0.000961,2
1671465833013870870,728200,1671465833025957914,gps,2,1,42.3009687616,-83.6976859348,272.749938965,0.0001,0.0,0.0,0.0,0.000121,0.0,0.0,0.0,0.000961,2
1671465833023852292,728201,1671465833036022805,gps,2,1,42.3009687617,-83.6976859609,272.74987793,0.0001,0.0,0.0,0.0,0.000121,0.0,0.0,0.0,0.000961,2
1671465833033905786,728202,1671465833045910833,gps,2,1,42.3009687618,-83.6976859857,272.749847412,0.0001,0.0,0.0,0.0,0.000121,0.0,0.0,0.0,0.000961,2
1671465833044020580,728203,1671465833055914026,gps,2,1,42.3009687617,-83.6976860135,272.749694824,0.0001,0.0,0.0,0.0,0.000121,0.0,0.0,0.0,0.000961,2
1671465833053933428,728204,1671465833065938603,gps,2,1,42.3009687618,-83.6976860412,272.749664307,0.0001,0.0,0.0,0.0,0.000121,0.0,0.0,0.0,0.000961,2
1671465833063871976,728205,1671465833075929555,gps,2,1,42.3009687619,-83.6976860678,272.749603271,0.0001,0.0,0.0,0.0,0.000121,0.0,0.0,0.0,0.000961,2
1671465833073732837,728206,1671465833085917965,gps,2,1,42.3009687618,-83.6976860973,272.749481201,0.0001,0.0,0.0,0.0,0.000121,0.0,0.0,0.0,0.000961,2
1671465833083756934,728207,1671465833096064094,gps,2,1,42.3009687619,-83.6976861267,272.749450684,0.0001,0.0,0.0,0.0,0.000121,0.0,0.0,0.0,0.000961,2
1671465833093702471,728208,1671465833105938107,gps,2,1,42.300968762,-83.6976861547,272.749389648,0.0001,0.0,0.0,0.0,0.000121,0.0,0.0,0.0,0.000961,2
1671465833103642202,728209,1671465833115870772,gps,2,1,42.300968762,-83.6976861858,272.749267578,0.0001,0.0,0.0,0.0,0.000121,0.0,0.0,0.0,0.000961,2
1671465833113763015,728210,1671465833125879210,gps,2,1,42.300968762,-83.6976862169,272.749206543,0.0001,0.0,0.0,0.0,0.000121,0.0,0.0,0.0,0.000961,2
1671465833123512247,728211,1671465833135930185,gps,2,1,42.3009687622,-83.6976862466,272.749176025,0.0001,0.0,0.0,0.0,0.000121,0.0,0.0,0.0,0.000961,2
1671465833133509643,728212,1671465833145876396,gps,2,1,42.300968762,-83.6976862794,272.749053955,0.0001,0.0,0.0,0.0,0.000121,0.0,0.0,0.0,0.000961,2
1671465833143434642,728213,1671465833155871721,gps,2,1,42.300968762,-83.6976863122,272.749023438,0.0001,0.0,0.0,0.0,0.000121,0.0,0.0,0.0,0.000961,2
1671465833154046390,728214,1671465833166012744,gps,2,1,42.3009687621,-83.6976863436,272.748962402,0.0001,0.0,0.0,0.0,0.000121,0.0,0.0,0.0,0.000961,2
1671465833163858839,728215,1671465833175866530,gps,2,1,42.300968762,-83.6976863781,272.748840332,0.0001,0.0,0.0,0.0,0.000121,0.0,0.0,0.0,0.000961,2
1671465833173921053,728216,1671465833185929666,gps,2,1,42.300968762,-83.6976864127,272.748809814,0.0001,0.0,0.0,0.0,0.000121,0.0,0.0,0.0,0.000961,2
1671465833183781727,728217,1671465833195871831,gps,2,1,42.300968762,-83.6976864459,272.748748779,0.0001,0.0,0.0,0.0,0.000121,0.0,0.0,0.0,0.000961,2
1671465833193827745,728218,1671465833205859600,gps,2,1,42.3009687619,-83.6976864821,272.748626709,0.0001,0.0,0.0,0.0,0.000121,0.0,0.0,0.0,0.000961,2
1671465833203744217,728219,1671465833215954816,gps,2,1,42.3009687619,-83.6976865184,272.748565674,0.0001,0.0,0.0,0.0,0.000121,0.0,0.0,0.0,0.000961,2
1671465833213731820,728220,1671465833225872614,gps,2,1,42.3009687619,-83.6976865534,272.748535156,0.0001,0.0,0.0,0.0,0.000121,0.0,0.0,0.0,0.000961,2
1671465833223723398,728221,1671465833235890972,gps,2,1,42.3009687618,-83.6976865913,272.748413086,0.0001,0.0,0.0,0.0,0.000121,0.0,0.0,0.0,0.000961,2
1671465833233655847,728222,1671465833245878774,gps,2,1,42.3009687619,-83.6976866293,272.748352051,0.0001,0.0,0.0,0.0,0.000121,0.0,0.0,0.0,0.000961,2
1671465833243687627,728223,1671465833255930332,gps,2,1,42.3009687619,-83.697686666,272.748291016,0.0001,0.0,0.0,0.0,0.000121,0.0,0.0,0.0,0.000961,2
1671465833253650486,728224,1671465833265856355,gps,2,1,42.3009687618,-83.6976867055,272.748199463,4.9e-05,0.0,0.0,0.0,6.4e-05,0.0,0.0,0.0,0.0009,2
1671465833263655225,728225,1671465833275895139,gps,2,1,42.3009687619,-83.6976867453,272.74810791,4.9e-05,0.0,0.0,0.0,6.4e-05,0.0,0.0,0.0,0.0009,2
1671465833273621521,728226,1671465833285934125,gps,2,1,42.300968762,-83.6976867836,272.748077393,4.9e-05,0.0,0.0,0.0,6.4e-05,0.0,0.0,0.0,0.0009,2
