%time,field.header.seq,field.header.stamp,field.header.frame_id,field.status.status,field.status.service,field.latitude,field.longitude,field.altitude,field.position_covariance0,field.position_covariance1,field.position_covariance2,field.position_covariance3,field.position_covariance4,field.position_covariance5,field.position_covariance6,field.position_covariance7,field.position_covariance8,field.position_covariance_type
1671466039833732662,34740,1671466039833395853,gps,2,1,42.2999934186,-83.6985477679,270.535339355,0.001225,0.0,0.0,0.0,0.001225,0.0,0.0,0.0,0.004489,2
1671466039853910969,34741,1671466039853500058,gps,2,1,42.2999934167,-83.6985477757,270.53527832,0.001225,0.0,0.0,0.0,0.001225,0.0,0.0,0.0,0.004489,2
1671466039873914192,34742,1671466039873402938,gps,2,1,42.2999934148,-83.6985477843,270.535217285,0.001225,0.0,0.0,0.0,0.001225,0.0,0.0,0.0,0.004489,2
1671466039893927326,34743,1671466039893445595,gps,2,1,42.2999934117,-83.6985477766,270.535217285,0.001225,0.0,0.0,0.0,0.001225,0.0,0.0,0.0,0.004489,2
1671466039913948548,34744,1671466039913493307,gps,2,1,42.2999934097,-83.6985477846,270.53515625,0.001225,0.0,0.0,0.0,0.001225,0.0,0.0,0.0,0.004489,2
1671466039933865653,34745,1671466039933403869,gps,2,1,42.2999934077,-83.6985477922,270.535095215,0.001225,0.0,0.0,0.0,0.001225,0.0,0.0,0.0,0.004489,2
1671466039953938742,34746,1671466039953413841,gps,2,1,42.2999934046,-83.6985477847,270.535095215,0.001225,0.0,0.0,0.0,0.001225,0.0,0.0,0.0,0.004489,2
1671466039973984203,34747,1671466039973476493,gps,2,1,42.2999934024,-83.6985477919,270.53503418,0.001225,0.0,0.0,0.0,0.001225,0.0,0.0,0.0,0.004489,2
1671466039993916119,34748,1671466039993427645,gps,2,1,42.2999934003,-83.6985477982,270.534973145,0.001225,0.0,0.0,0.0,0.001225,0.0,0.0,0.0,0.004489,2
1671466040014049924,34749,1671466040013506751,gps,2,1,42.2999933971,-83.6985477908,270.534973145,0.001225,0.0,0.0,0.0,0.001225,0.0,0.0,0.0,0.004489,2
1671466040034106461,34750,1671466040033525128,gps,2,1,42.2999933954,-83.6985478015,270.534942627,0.001225,0.0,0.0,0.0,0.001225,0.0,0.0,0.0,0.004489,2
1671466040053983400,34751,1671466040053468471,gps,2,1,42.2999933935,-83.6985478116,270.534912109,0.001225,0.0,0.0,0.0,0.001225,0.0,0.0,0.0,0.004489,2
1671466040073921649,34752,1671466040073524689,gps,2,1,42.2999933904,-83.6985478043,270.534912109,0.001225,0.0,0.0,0.0,0.001225,0.0,0.0,0.0,0.004489,2
1671466040093973530,34753,1671466040093443062,gps,2,1,42.2999933892,-83.6985478149,270.534851074,0.001225,0.0,0.0,0.0,0.001225,0.0,0.0,0.0,0.004489,2
1671466040113825794,34754,1671466040113382334,gps,2,1,42.299993388,-83.6985478248,270.534820557,0.001225,0.0,0.0,0.0,0.001225,0.0,0.0,0.0,0.004489,2
1671466040134020137,34755,1671466040133436213,gps,2,1,42.2999933848,-83.6985478177,270.534820557,0.001225,0.0,0.0,0.0,0.001225,0.0,0.0,0.0,0.004489,2
1671466040154170579,34756,1671466040153576385,gps,2,1,42.2999933834,-83.6985478271,270.534790039,0.001225,0.0,0.0,0.0,0.001225,0.0,0.0,0.0,0.004489,2
1671466040173936715,34757,1671466040173405831,gps,2,1,42.2999933818,-83.6985478359,270.534759521,0.001225,0.0,0.0,0.0,0.001225,0.0,0.0,0.0,0.004489,2
1671466040193886196,34758,1671466040193379432,gps,2,1,42.2999933785,-83.6985478288,270.534729004,0.001225,0.0,0.0,0.0,0.001225,0.0,0.0,0.0,0.004489,2
1671466040213940274,34759,1671466040213455546,gps,2,1,42.299993377,-83.6985478378,270.534729004,0.001225,0.0,0.0,0.0,0.001225,0.0,0.0,0.0,0.004489,2
1671466040233912942,34760,1671466040233341611,gps,2,1,42.2999933756,-83.6985478463,270.534698486,0.001225,0.0,0.0,0.0,0.001225,0.0,0.0,0.0,0.004489,2
1671466040253878312,34761,1671466040253377215,gps,2,1,42.2999933721,-83.6985478393,270.534667969,0.001225,0.0,0.0,0.0,0.001225,0.0,0.0,0.0,0.004489,2
1671466040273926156,34762,1671466040273441204,gps,2,1,42.2999933705,-83.6985478474,270.534667969,0.001225,0.0,0.0,0.0,0.001225,0.0,0.0,0.0,0.004489,2
1671466040293807510,34763,1671466040293361849,gps,2,1,42.2999933691,-83.6985478553,270.534637451,0.001225,0.0,0.0,0.0,0.001225,0.0,0.0,0.0,0.004489,2
1671466040313815336,34764,1671466040313370794,gps,2,1,42.2999933656,-83.6985478485,270.534637451,0.001225,0.0,0.0,0.0,0.001225,0.0,0.0,0.0,0.004489,2
1671466040333879446,34765,1671466040333443131,gps,2,1,42.2999933641,-83.698547856,270.534606934,0.001225,0.0,0.0,0.0,0.001225,0.0,0.0,0.0,0.004489,2
1671466040353870233,34766,1671466040353378462,gps,2,1,42.2999933626,-83.6985478632,270.534606934,0.001225,0.0,0.0,0.0,0.001225,0.0,0.0,0.0,0.004489,2
1671466040373953200,34767,1671466040373462039,gps,2,1,42.2999933592,-83.6985478565,270.534606934,0.001225,0.0,0.0,0.0,0.001225,0.0,0.0,0.0,0.004489,2
1671466040393925960,34768,1671466040393444597,gps,2,1,42.299993358,-83.6985478641,270.534576416,0.001225,0.0,0.0,0.0,0.001225,0.0,0.0,0.0,0.004489,2
1671466040413772011,34769,1671466040413379664,gps,2,1,42.2999933566,-83.6985478713,270.534576416,0.001225,0.0,0.0,0.0,0.001225,0.0,0.0,0.0,0.004489,2
1671466040433865810,34770,1671466040433377699,gps,2,1,42.2999933532,-83.6985478647,270.534576416,0.001225,0.0,0.0,0.0,0.001225,0.0,0.0,0.0,0.004489,2
1671466040453982522,34771,1671466040453422435,gps,2,1,42.2999933518,-83.6985478715,270.534576416,0.001225,0.0,0.0,0.0,0.001225,0.0,0.0,0.0,0.004489,2
1671466040473962760,34772,1671466040473410331,gps,2,1,42.2999933504,-83.698547879,270.534545898,0.001225,0.0,0.0,0.0,0.001225,0.0,0.0,0.0,0.004489,2
1671466040493868277,34773,1671466040493378649,gps,2,1,42.2999933469,-83.6985478726,270.534515381,0.001225,0.0,0.0,0.0,0.001225,0.0,0.0,0.0,0.004489,2
1671466040514010357,34774,1671466040513425667,gps,2,1,42.2999933453,-83.6985478797,270.534515381,0.001225,0.0,0.0,0.0,0.001225,0.0,0.0,0.0,0.004489,2
1671466040533995485,34775,1671466040533606146,gps,2,1,42.2999933437,-83.6985478862,270.534484863,0.001225,0.0,0.0,0.0,0.001225,0.0,0.0,0.0,0.004489,2
1671466040553983623,34776,1671466040553409956,gps,2,1,42.29999334,-83.6985478799,270.534484863,0.001225,0.0,0.0,0.0,0.001225,0.0,0.0,0.0,0.004489,2
1671466040574039438,34777,1671466040573568341,gps,2,1,42.2999933389,-83.6985478906,270.534484863,0.001225,0.0,0.0,0.0,0.001225,0.0,0.0,0.0,0.004489,2
1671466040594003721,34778,1671466040593388490,gps,2,1,42.2999933378,-83.6985479007,270.534484863,0.001225,0.0,0.0,0.0,0.001225,0.0,0.0,0.0,0.004489,2
1671466040613824738,34779,1671466040613382407,gps,2,1,42.2999933341,-83.6985478945,270.534484863,0.001225,0.0,0.0,0.0,0.001225,0.0,0.0,0.0,0.004489,2
1671466040633898106,34780,1671466040633428906,gps,2,1,42.2999933329,-83.6985479041,270.534515381,0.001225,0.0,0.0,0.0,0.001225,0.0,0.0,0.0,0.004489,2
1671466040654111587,34781,1671466040653508743,gps,2,1,42.2999933316,-83.6985479133,270.534515381,0.001225,0.0,0.0,0.0,0.001225,0.0,0.0,0.0,0.004489,2
1671466040674001589,34782,1671466040673468688,gps,2,1,42.2999933278,-83.6985479071,270.534515381,0.001225,0.0,0.0,0.0,0.001225,0.0,0.0,0.0,0.004489,2
1671466040693994448,34783,1671466040693481734,gps,2,1,42.2999933272,-83.6985479161,270.534484863,0.000961,0.0,0.0,0.0,0.000961,0.0,0.0,0.0,0.004225,2
1671466040713832440,34784,1671466040713400186,gps,2,1,42.2999933265,-83.6985479246,270.534454346,0.000961,0.0,0.0,0.0,0.000961,0.0,0.0,0.0,0.004225,2
1671466040733849819,34785,1671466040733392432,gps,2,1,42.2999933228,-83.6985479186,270.534454346,0.000961,0.0,0.0,0.0,0.000961,0.0,0.0,0.0,0.004225,2
1671466040753823132,34786,1671466040753385916,gps,2,1,42.2999933219,-83.6985479267,270.534423828,0.000961,0.0,0.0,0.0,0.000961,0.0,0.0,0.0,0.004225,2
1671466040774145887,34787,1671466040773439082,gps,2,1,42.299993321,-83.6985479343,270.534423828,0.000961,0.0,0.0,0.0,0.000961,0.0,0.0,0.0,0.004225,2
1671466040793844087,34788,1671466040793415336,gps,2,1,42.2999933172,-83.6985479285,270.534393311,0.000961,0.0,0.0,0.0,0.000961,0.0,0.0,0.0,0.004225,2
1671466040813895730,34789,1671466040813405311,gps,2,1,42.2999933167,-83.6985479363,270.534393311,0.000961,0.0,0.0,0.0,0.000961,0.0,0.0,0.0,0.004225,2
1671466040833848278,34790,1671466040833408983,gps,2,1,42.299993316,-83.6985479437,270.534393311,0.000961,0.0,0.0,0.0,0.000961,0.0,0.0,0.0,0.004225,2
1671466040853836836,34791,1671466040853358553,gps,2,1,42.2999933122,-83.698547938,270.534362793,0.000961,0.0,0.0,0.0,0.000961,0.0,0.0,0.0,0.004225,2
1671466040873923317,34792,1671466040873405305,gps,2,1,42.2999933114,-83.698547945,270.534362793,0.000961,0.0,0.0,0.0,0.000961,0.0,0.0,0.0,0.004225,2
1671466040893959056,34793,1671466040893463605,gps,2,1,42.2999933104,-83.6985479515,270.534332275,0.000961,0.0,0.0,0.0,0.000961,0.0,0.0,0.0,0.004225,2
1671466040913914168,34794,1671466040913460281,gps,2,1,42.2999933065,-83.6985479459,270.534332275,0.000961,0.0,0.0,0.0,0.000961,0.0,0.0,0.0,0.004225,2
1671466040933956533,34795,1671466040933477169,gps,2,1,42.2999933048,-83.6985479525,270.534332275,0.000961,0.0,0.0,0.0,0.000961,0.0,0.0,0.0,0.004225,2
1671466040953899705,34796,1671466040953398380,gps,2,1,42.299993303,-83.6985479587,270.534301758,0.000961,0.0,0.0,0.0,0.000961,0.0,0.0,0.0,0.004225,2
1671466040973902002,34797,1671466040973436279,gps,2,1,42.299993299,-83.6985479531,270.534301758,0.000961,0.0,0.0,0.0,0.000961,0.0,0.0,0.0,0.004225,2
1671466040993947597,34798,1671466040993479413,gps,2,1,42.2999932975,-83.6985479598,270.534301758,0.000961,0.0,0.0,0.0,0.000961,0.0,0.0,0.0,0.004225,2
1671466041013970840,34799,1671466041013484185,gps,2,1,42.299993296,-83.6985479661,270.534301758,0.000961,0.0,0.0,0.0,0.000961,0.0,0.0,0.0,0.004225,2
1671466041033983447,34800,1671466041033501899,gps,2,1,42.2999932919,-83.6985479606,270.53427124,0.000961,0.0,0.0,0.0,0.000961,0.0,0.0,0.0,0.004225,2
1671466041054034506,34801,1671466041053488073,gps,2,1,42.2999932903,-83.6985479666,270.53427124,0.000961,0.0,0.0,0.0,0.000961,0.0,0.0,0.0,0.004225,2
1671466041073955998,34802,1671466041073528092,gps,2,1,42.2999932897,-83.6985479759,270.534332275,0.000961,0.0,0.0,0.0,0.000961,0.0,0.0,0.0,0.004225,2
1671466041094003897,34803,1671466041093436051,gps,2,1,42.2999932857,-83.6985479706,270.534332275,0.000961,0.0,0.0,0.0,0.000961,0.0,0.0,0.0,0.004225,2
1671466041113974631,34804,1671466041113372613,gps,2,1,42.299993286,-83.6985479794,270.534393311,0.000961,0.0,0.0,0.0,0.000961,0.0,0.0,0.0,0.004225,2
1671466041133896913,34805,1671466041133408899,gps,2,1,42.2999932862,-83.6985479877,270.534454346,0.000961,0.0,0.0,0.0,0.000961,0.0,0.0,0.0,0.004225,2
1671466041154089294,34806,1671466041153480866,gps,2,1,42.2999932821,-83.6985479825,270.534454346,0.000961,0.0,0.0,0.0,0.000961,0.0,0.0,0.0,0.004225,2
1671466041173917140,34807,1671466041173432936,gps,2,1,42.2999932821,-83.6985479905,270.534515381,0.000961,0.0,0.0,0.0,0.000961,0.0,0.0,0.0,0.004225,2
1671466041193810858,34808,1671466041193354383,gps,2,1,42.2999932829,-83.698547999,270.534576416,0.000961,0.0,0.0,0.0,0.000961,0.0,0.0,0.0,0.004225,2
1671466041213867159,34809,1671466041213373758,gps,2,1,42.2999932787,-83.6985479939,270.534576416,0.000961,0.0,0.0,0.0,0.000961,0.0,0.0,0.0,0.004225,2
1671466041234016183,34810,1671466041233457121,gps,2,1,42.2999932792,-83.698548002,270.534637451,0.000961,0.0,0.0,0.0,0.000961,0.0,0.0,0.0,0.004225,2
1671466041253930304,34811,1671466041253358093,gps,2,1,42.2999932795,-83.6985480097,270.534698486,0.000961,0.0,0.0,0.0,0.000961,0.0,0.0,0.0,0.004225,2
1671466041273936912,34812,1671466041273436089,gps,2,1,42.2999932753,-83.6985480046,270.534698486,0.000961,0.0,0.0,0.0,0.000961,0.0,0.0,0.0,0.004225,2
1671466041293906101,34813,1671466041293447538,gps,2,1,42.2999932752,-83.6985480126,270.534698486,0.000961,0.0,0.0,0.0,0.000961,0.0,0.0,0.0,0.004225,2
1671466041313870632,34814,1671466041313402048,gps,2,1,42.299993275,-83.6985480203,270.534729004,0.000961,0.0,0.0,0.0,0.000961,0.0,0.0,0.0,0.004225,2
1671466041333877676,34815,1671466041333398203,gps,2,1,42.2999932708,-83.6985480153,270.534698486,0.000961,0.0,0.0,0.0,0.000961,0.0,0.0,0.0,0.004225,2
1671466041353986563,34816,1671466041353464510,gps,2,1,42.2999932704,-83.6985480226,270.534729004,0.000961,0.0,0.0,0.0,0.000961,0.0,0.0,0.0,0.004225,2
1671466041373897454,34817,1671466041373395680,gps,2,1,42.2999932694,-83.6985480297,270.534790039,0.000961,0.0,0.0,0.0,0.000961,0.0,0.0,0.0,0.004225,2
1671466041393968508,34818,1671466041393400649,gps,2,1,42.2999932652,-83.6985480248,270.534790039,0.000961,0.0,0.0,0.0,0.000961,0.0,0.0,0.0,0.004225,2
1671466041413851772,34819,1671466041413409295,gps,2,1,42.299993264,-83.6985480316,270.534851074,0.000961,0.0,0.0,0.0,0.000961,0.0,0.0,0.0,0.004225,2
1671466041433938208,34820,1671466041433439793,gps,2,1,42.2999932628,-83.698548038,270.534912109,0.000961,0.0,0.0,0.0,0.000961,0.0,0.0,0.0,0.004225,2
1671466041453964622,34821,1671466041453458790,gps,2,1,42.2999932586,-83.6985480332,270.534912109,0.000961,0.0,0.0,0.0,0.000961,0.0,0.0,0.0,0.004225,2
1671466041473862179,34822,1671466041473386974,gps,2,1,42.2999932573,-83.6985480392,270.534973145,0.000961,0.0,0.0,0.0,0.000961,0.0,0.0,0.0,0.004225,2
1671466041493859866,34823,1671466041493397064,gps,2,1,42.2999932569,-83.6985480447,270.53503418,0.000961,0.0,0.0,0.0,0.000961,0.0,0.0,0.0,0.004225,2
1671466041514046969,34824,1671466041513503131,gps,2,1,42.2999932527,-83.6985480401,270.53503418,0.000961,0.0,0.0,0.0,0.000961,0.0,0.0,0.0,0.004225,2
1671466041533920538,34825,1671466041533497400,gps,2,1,42.2999932535,-83.6985480486,270.535186768,0.000961,0.0,0.0,0.0,0.000961,0.0,0.0,0.0,0.004225,2
1671466041553930140,34826,1671466041553473201,gps,2,1,42.2999932541,-83.6985480567,270.535308838,0.000961,0.0,0.0,0.0,0.000961,0.0,0.0,0.0,0.004225,2
1671466041573945110,34827,1671466041573469926,gps,2,1,42.2999932497,-83.6985480522,270.535308838,0.000961,0.0,0.0,0.0,0.000961,0.0,0.0,0.0,0.004225,2
1671466041593862190,34828,1671466041593399326,gps,2,1,42.2999932498,-83.69854806,270.535461426,0.000961,0.0,0.0,0.0,0.000961,0.0,0.0,0.0,0.004225,2
1671466041613809085,34829,1671466041613341254,gps,2,1,42.2999932509,-83.6985480684,270.535583496,0.000961,0.0,0.0,0.0,0.000961,0.0,0.0,0.0,0.004225,2
1671466041633880285,34830,1671466041633421314,gps,2,1,42.2999932463,-83.6985480642,270.535583496,0.000961,0.0,0.0,0.0,0.000961,0.0,0.0,0.0,0.004225,2
1671466041653942150,34831,1671466041653459007,gps,2,1,42.299993247,-83.6985480723,270.535705566,0.000961,0.0,0.0,0.0,0.000961,0.0,0.0,0.0,0.004225,2
1671466041673868984,34832,1671466041673422961,gps,2,1,42.2999932475,-83.6985480799,270.535827637,0.000961,0.0,0.0,0.0,0.000961,0.0,0.0,0.0,0.004225,2
1671466041694037863,34833,1671466041693429216,gps,2,1,42.2999932429,-83.6985480758,270.535827637,0.000961,0.0,0.0,0.0,0.000961,0.0,0.0,0.0,0.004225,2
1671466041713813922,34834,1671466041713389497,gps,2,1,42.2999932435,-83.698548084,270.535919189,0.000961,0.0,0.0,0.0,0.000961,0.0,0.0,0.0,0.004225,2
1671466041733810646,34835,1671466041733380629,gps,2,1,42.299993244,-83.6985480917,270.53604126,0.000961,0.0,0.0,0.0,0.000961,0.0,0.0,0.0,0.004225,2
1671466041753811066,34836,1671466041753382257,gps,2,1,42.2999932395,-83.6985480876,270.53604126,0.000961,0.0,0.0,0.0,0.000961,0.0,0.0,0.0,0.004225,2
1671466041773790644,34837,1671466041773348586,gps,2,1,42.29999324,-83.6985480949,270.536132812,0.000961,0.0,0.0,0.0,0.000961,0.0,0.0,0.0,0.004225,2
1671466041793791625,34838,1671466041793389334,gps,2,1,42.2999932401,-83.6985481008,270.536254883,0.000961,0.0,0.0,0.0,0.000961,0.0,0.0,0.0,0.004225,2
1671466041813918707,34839,1671466041813386183,gps,2,1,42.2999932358,-83.6985480966,270.536254883,0.000961,0.0,0.0,0.0,0.000961,0.0,0.0,0.0,0.004225,2
1671466041833857859,34840,1671466041833392554,gps,2,1,42.299993236,-83.6985481021,270.536376953,0.000961,0.0,0.0,0.0,0.000961,0.0,0.0,0.0,0.004225,2
1671466041853810728,34841,1671466041853381223,gps,2,1,42.2999932361,-83.6985481074,270.536468506,0.000961,0.0,0.0,0.0,0.000961,0.0,0.0,0.0,0.004225,2
1671466041873955601,34842,1671466041873429640,gps,2,1,42.2999932319,-83.6985481032,270.536468506,0.000961,0.0,0.0,0.0,0.000961,0.0,0.0,0.0,0.004225,2
1671466041893754685,34843,1671466041893367606,gps,2,1,42.2999932331,-83.6985481103,270.536560059,0.000961,0.0,0.0,0.0,0.000961,0.0,0.0,0.0,0.004225,2
1671466041913916933,34844,1671466041913376886,gps,2,1,42.2999932341,-83.698548117,270.536621094,0.000961,0.0,0.0,0.0,0.000961,0.0,0.0,0.0,0.004225,2
1671466041933820008,34845,1671466041933398580,gps,2,1,42.2999932298,-83.698548113,270.536621094,0.000961,0.0,0.0,0.0,0.000961,0.0,0.0,0.0,0.004225,2
1671466041953964524,34846,1671466041953448367,gps,2,1,42.2999932303,-83.6985481196,270.536682129,0.000961,0.0,0.0,0.0,0.000961,0.0,0.0,0.0,0.004225,2
1671466041973793880,34847,1671466041973343390,gps,2,1,42.2999932308,-83.6985481252,270.536773682,0.000961,0.0,0.0,0.0,0.000961,0.0,0.0,0.0,0.004225,2
1671466041993867954,34848,1671466041993386247,gps,2,1,42.2999932261,-83.6985481215,270.536773682,0.000961,0.0,0.0,0.0,0.000961,0.0,0.0,0.0,0.004225,2
1671466042014122047,34849,1671466042013499508,gps,2,1,42.2999932262,-83.698548127,270.536865234,0.000961,0.0,0.0,0.0,0.000961,0.0,0.0,0.0,0.004225,2
1671466042033837678,34850,1671466042033404086,gps,2,1,42.2999932276,-83.6985481351,270.53704834,0.000961,0.0,0.0,0.0,0.000961,0.0,0.0,0.0,0.004225,2
1671466042054074789,34851,1671466042053523158,gps,2,1,42.2999932229,-83.6985481316,270.53704834,0.000961,0.0,0.0,0.0,0.000961,0.0,0.0,0.0,0.004225,2
1671466042073985366,34852,1671466042073538232,gps,2,1,42.2999932241,-83.6985481393,270.537261963,0.000961,0.0,0.0,0.0,0.000961,0.0,0.0,0.0,0.004225,2
1671466042093845656,34853,1671466042093419256,gps,2,1,42.2999932251,-83.6985481468,270.537445068,0.000961,0.0,0.0,0.0,0.000961,0.0,0.0,0.0,0.004225,2
1671466042113984876,34854,1671466042113463194,gps,2,1,42.2999932205,-83.6985481432,270.537445068,0.000961,0.0,0.0,0.0,0.000961,0.0,0.0,0.0,0.004225,2
1671466042134020429,34855,1671466042133535926,gps,2,1,42.2999932214,-83.6985481501,270.537628174,0.000961,0.0,0.0,0.0,0.000961,0.0,0.0,0.0,0.004225,2
1671466042154046755,34856,1671466042153556481,gps,2,1,42.2999932222,-83.6985481567,270.537780762,0.000961,0.0,0.0,0.0,0.000961,0.0,0.0,0.0,0.004225,2
1671466042174064144,34857,1671466042173531143,gps,2,1,42.2999932177,-83.698548153,270.537811279,0.000961,0.0,0.0,0.0,0.000961,0.0,0.0,0.0,0.004225,2
1671466042193837124,34858,1671466042193405729,gps,2,1,42.2999932184,-83.6985481592,270.537963867,0.000961,0.0,0.0,0.0,0.000961,0.0,0.0,0.0,0.004225,2
1671466042213946589,34859,1671466042213434920,gps,2,1,42.2999932206,-83.6985481656,270.538085938,0.000961,0.0,0.0,0.0,0.000961,0.0,0.0,0.0,0.004225,2
1671466042234003950,34860,1671466042233557170,gps,2,1,42.2999932162,-83.6985481621,270.538085938,0.000961,0.0,0.0,0.0,0.000961,0.0,0.0,0.0,0.004225,2
1671466042253809484,34861,1671466042253343128,gps,2,1,42.2999932182,-83.6985481683,270.538208008,0.000961,0.0,0.0,0.0,0.000961,0.0,0.0,0.0,0.004225,2
1671466042273828496,34862,1671466042273394938,gps,2,1,42.2999932199,-83.6985481742,270.538330078,0.000961,0.0,0.0,0.0,0.000961,0.0,0.0,0.0,0.004225,2
1671466042293982755,34863,1671466042293482644,gps,2,1,42.2999932154,-83.698548171,270.538360596,0.000961,0.0,0.0,0.0,0.000961,0.0,0.0,0.0,0.004225,2
1671466042313876352,34864,1671466042313386429,gps,2,1,42.2999932162,-83.6985481768,270.538482666,0.000961,0.0,0.0,0.0,0.000961,0.0,0.0,0.0,0.004225,2
1671466042333824604,34865,1671466042333338618,gps,2,1,42.2999932167,-83.6985481823,270.538574219,0.000961,0.0,0.0,0.0,0.000961,0.0,0.0,0.0,0.004225,2
1671466042354083035,34866,1671466042353468219,gps,2,1,42.2999932121,-83.6985481794,270.538604736,0.000961,0.0,0.0,0.0,0.000961,0.0,0.0,0.0,0.004225,2
1671466042373908151,34867,1671466042373383579,gps,2,1,42.2999932123,-83.6985481846,270.538696289,0.000961,0.0,0.0,0.0,0.000961,0.0,0.0,0.0,0.004225,2
1671466042393922423,34868,1671466042393408816,gps,2,1,42.2999932132,-83.69854819,270.538818359,0.000961,0.0,0.0,0.0,0.000961,0.0,0.0,0.0,0.004225,2
1671466042413829011,34869,1671466042413443040,gps,2,1,42.2999932085,-83.698548187,270.538818359,0.000961,0.0,0.0,0.0,0.000961,0.0,0.0,0.0,0.004225,2
1671466042433726644,34870,1671466042433358348,gps,2,1,42.2999932091,-83.698548192,270.538909912,0.000961,0.0,0.0,0.0,0.000961,0.0,0.0,0.0,0.004225,2
1671466042453705068,34871,1671466042453356934,gps,2,1,42.2999932096,-83.6985481968,270.539031982,0.000961,0.0,0.0,0.0,0.000961,0.0,0.0,0.0,0.004225,2
1671466042473892087,34872,1671466042473413809,gps,2,1,42.299993205,-83.6985481937,270.539031982,0.000961,0.0,0.0,0.0,0.000961,0.0,0.0,0.0,0.004225,2
1671466042493796635,34873,1671466042493351601,gps,2,1,42.2999932053,-83.6985481981,270.539123535,0.000961,0.0,0.0,0.0,0.000961,0.0,0.0,0.0,0.004225,2
1671466042513905065,34874,1671466042513481719,gps,2,1,42.2999932059,-83.6985482025,270.539215088,0.000961,0.0,0.0,0.0,0.000961,0.0,0.0,0.0,0.004225,2
1671466042534002454,34875,1671466042533477504,gps,2,1,42.2999932014,-83.6985481995,270.539215088,0.000961,0.0,0.0,0.0,0.000961,0.0,0.0,0.0,0.004225,2
1671466042553925527,34876,1671466042553377737,gps,2,1,42.2999932039,-83.6985482065,270.539367676,0.000961,0.0,0.0,0.0,0.000961,0.0,0.0,0.0,0.004225,2
1671466042573962863,34877,1671466042573458366,gps,2,1,42.2999932061,-83.6985482131,270.539520264,0.000961,0.0,0.0,0.0,0.000961,0.0,0.0,0.0,0.004225,2
1671466042593944828,34878,1671466042593478116,gps,2,1,42.2999932015,-83.6985482102,270.539550781,0.000961,0.0,0.0,0.0,0.000961,0.0,0.0,0.0,0.004225,2
1671466042613929184,34879,1671466042613334515,gps,2,1,42.2999932042,-83.6985482169,270.539703369,0.000961,0.0,0.0,0.0,0.000961,0.0,0.0,0.0,0.004225,2
1671466042633961859,34880,1671466042633413558,gps,2,1,42.2999932067,-83.6985482232,270.539855957,0.000961,0.0,0.0,0.0,0.000961,0.0,0.0,0.0,0.004225,2
1671466042654106574,34881,1671466042653534157,gps,2,1,42.2999932022,-83.6985482206,270.539886475,0.000961,0.0,0.0,0.0,0.000961,0.0,0.0,0.0,0.004225,2
1671466042673822017,34882,1671466042673345251,gps,2,1,42.2999932043,-83.6985482267,270.540008545,0.000961,0.0,0.0,0.0,0.000961,0.0,0.0,0.0,0.004225,2
1671466042693916695,34883,1671466042693386723,gps,2,1,42.2999932062,-83.6985482323,270.540130615,0.001225,0.0,0.0,0.0,0.001225,0.0,0.0,0.0,0.004489,2
1671466042713936882,34884,1671466042713443214,gps,2,1,42.2999932015,-83.6985482298,270.540161133,0.001225,0.0,0.0,0.0,0.001225,0.0,0.0,0.0,0.004489,2
1671466042733816255,34885,1671466042733348361,gps,2,1,42.2999932031,-83.6985482352,270.540252686,0.001225,0.0,0.0,0.0,0.001225,0.0,0.0,0.0,0.004489,2
1671466042753793136,34886,1671466042753378925,gps,2,1,42.2999932045,-83.6985482404,270.540374756,0.001225,0.0,0.0,0.0,0.001225,0.0,0.0,0.0,0.004489,2
1671466042773903943,34887,1671466042773427108,gps,2,1,42.2999931998,-83.698548238,270.540374756,0.001225,0.0,0.0,0.0,0.001225,0.0,0.0,0.0,0.004489,2
1671466042793811726,34888,1671466042793379368,gps,2,1,42.2999932009,-83.6985482429,270.540496826,0.001225,0.0,0.0,0.0,0.001225,0.0,0.0,0.0,0.004489,2
1671466042813827993,34889,1671466042813371985,gps,2,1,42.2999932022,-83.6985482483,270.540588379,0.001225,0.0,0.0,0.0,0.001225,0.0,0.0,0.0,0.004489,2
1671466042833936254,34890,1671466042833445336,gps,2,1,42.2999931976,-83.6985482459,270.540618896,0.001225,0.0,0.0,0.0,0.001225,0.0,0.0,0.0,0.004489,2
1671466042853803196,34891,1671466042853322341,gps,2,1,42.2999931988,-83.6985482511,270.540710449,0.001225,0.0,0.0,0.0,0.001225,0.0,0.0,0.0,0.004489,2
1671466042873864635,34892,1671466042873376947,gps,2,1,42.2999931997,-83.698548256,270.540802002,0.001225,0.0,0.0,0.0,0.001225,0.0,0.0,0.0,0.004489,2
1671466042894108133,34893,1671466042893509048,gps,2,1,42.2999931951,-83.6985482537,270.540802002,0.001225,0.0,0.0,0.0,0.001225,0.0,0.0,0.0,0.004489,2
1671466042913762384,34894,1671466042913359847,gps,2,1,42.2999931962,-83.6985482582,270.540924072,0.001225,0.0,0.0,0.0,0.001225,0.0,0.0,0.0,0.004489,2
1671466042933890759,34895,1671466042933372271,gps,2,1,42.2999931971,-83.6985482624,270.541015625,0.001225,0.0,0.0,0.0,0.001225,0.0,0.0,0.0,0.004489,2
1671466042953964209,34896,1671466042953439058,gps,2,1,42.2999931925,-83.6985482601,270.541046143,0.001225,0.0,0.0,0.0,0.001225,0.0,0.0,0.0,0.004489,2
1671466042973797453,34897,1671466042973343150,gps,2,1,42.2999931931,-83.6985482642,270.541137695,0.001225,0.0,0.0,0.0,0.001225,0.0,0.0,0.0,0.004489,2
1671466042993800808,34898,1671466042993323013,gps,2,1,42.299993194,-83.6985482683,270.541168213,0.001225,0.0,0.0,0.0,0.001225,0.0,0.0,0.0,0.004489,2
1671466043014050944,34899,1671466043013501795,gps,2,1,42.2999931893,-83.6985482661,270.54119873,0.001225,0.0,0.0,0.0,0.001225,0.0,0.0,0.0,0.004489,2
1671466043033977362,34900,1671466043033520877,gps,2,1,42.2999931898,-83.6985482701,270.541229248,0.001225,0.0,0.0,0.0,0.001225,0.0,0.0,0.0,0.004489,2
1671466043053904063,34901,1671466043053456222,gps,2,1,42.299993192,-83.6985482761,270.541259766,0.001225,0.0,0.0,0.0,0.001225,0.0,0.0,0.0,0.004489,2
1671466043073998522,34902,1671466043073465374,gps,2,1,42.2999931873,-83.698548274,270.541290283,0.001225,0.0,0.0,0.0,0.001225,0.0,0.0,0.0,0.004489,2
1671466043093949941,34903,1671466043093445481,gps,2,1,42.2999931892,-83.6985482798,270.541320801,0.001225,0.0,0.0,0.0,0.001225,0.0,0.0,0.0,0.004489,2
1671466043113862630,34904,1671466043113401444,gps,2,1,42.2999931909,-83.6985482862,270.541351318,0.001225,0.0,0.0,0.0,0.001225,0.0,0.0,0.0,0.004489,2
1671466043133849579,34905,1671466043133422543,gps,2,1,42.2999931862,-83.6985482843,270.541381836,0.001225,0.0,0.0,0.0,0.001225,0.0,0.0,0.0,0.004489,2
1671466043153980552,34906,1671466043153476151,gps,2,1,42.2999931877,-83.6985482904,270.541412354,0.001225,0.0,0.0,0.0,0.001225,0.0,0.0,0.0,0.004489,2
1671466043173804808,34907,1671466043173388464,gps,2,1,42.299993189,-83.6985482963,270.541473389,0.001225,0.0,0.0,0.0,0.001225,0.0,0.0,0.0,0.004489,2
1671466043193959823,34908,1671466043193431255,gps,2,1,42.2999931844,-83.6985482945,270.541473389,0.001225,0.0,0.0,0.0,0.001225,0.0,0.0,0.0,0.004489,2
1671466043213808677,34909,1671466043213360731,gps,2,1,42.2999931867,-83.6985482991,270.541534424,0.001225,0.0,0.0,0.0,0.001225,0.0,0.0,0.0,0.004489,2
1671466043233967898,34910,1671466043233368123,gps,2,1,42.2999931889,-83.6985483036,270.541595459,0.001225,0.0,0.0,0.0,0.001225,0.0,0.0,0.0,0.004489,2
1671466043253715590,34911,1671466043253318486,gps,2,1,42.2999931843,-83.6985483018,270.541595459,0.001225,0.0,0.0,0.0,0.001225,0.0,0.0,0.0,0.004489,2
1671466043273976039,34912,1671466043273397089,gps,2,1,42.2999931862,-83.698548306,270.541656494,0.001225,0.0,0.0,0.0,0.001225,0.0,0.0,0.0,0.004489,2
1671466043293448253,34913,1671466043293267485,gps,2,1,42.2999931887,-83.6985483115,270.541717529,0.001225,0.0,0.0,0.0,0.001225,0.0,0.0,0.0,0.004489,2
1671466043313599569,34914,1671466043313374058,gps,2,1,42.2999931841,-83.6985483097,270.541717529,0.001225,0.0,0.0,0.0,0.001225,0.0,0.0,0.0,0.004489,2
1671466043333514086,34915,1671466043333333107,gps,2,1,42.2999931864,-83.698548315,270.541778564,0.001225,0.0,0.0,0.0,0.001225,0.0,0.0,0.0,0.004489,2
1671466043353499417,34916,1671466043353314762,gps,2,1,42.2999931885,-83.69854832,270.541809082,0.001225,0.0,0.0,0.0,0.001225,0.0,0.0,0.0,0.004489,2
1671466043373549540,34917,1671466043373366823,gps,2,1,42.2999931838,-83.6985483184,270.541809082,0.001225,0.0,0.0,0.0,0.001225,0.0,0.0,0.0,0.004489,2
1671466043393564077,34918,1671466043393313311,gps,2,1,42.2999931856,-83.6985483232,270.541870117,0.001225,0.0,0.0,0.0,0.001225,0.0,0.0,0.0,0.004489,2
1671466043413541353,34919,1671466043413350163,gps,2,1,42.2999931874,-83.6985483275,270.541900635,0.001225,0.0,0.0,0.0,0.001225,0.0,0.0,0.0,0.004489,2
1671466043433612607,34920,1671466043433320714,gps,2,1,42.2999931827,-83.698548326,270.541931152,0.001225,0.0,0.0,0.0,0.001225,0.0,0.0,0.0,0.004489,2
1671466043453516928,34921,1671466043453283432,gps,2,1,42.2999931842,-83.6985483303,270.54196167,0.001225,0.0,0.0,0.0,0.001225,0.0,0.0,0.0,0.004489,2
1671466043473609581,34922,1671466043473334442,gps,2,1,42.2999931855,-83.6985483343,270.542022705,0.001225,0.0,0.0,0.0,0.001225,0.0,0.0,0.0,0.004489,2
1671466043493556128,34923,1671466043493358051,gps,2,1,42.2999931808,-83.6985483329,270.542022705,0.001225,0.0,0.0,0.0,0.001225,0.0,0.0,0.0,0.004489,2
1671466043513532724,34924,1671466043513379535,gps,2,1,42.299993182,-83.6985483377,270.542053223,0.001225,0.0,0.0,0.0,0.001225,0.0,0.0,0.0,0.004489,2
1671466043534100915,34925,1671466043533445818,gps,2,1,42.2999931829,-83.6985483422,270.542053223,0.001225,0.0,0.0,0.0,0.001225,0.0,0.0,0.0,0.004489,2
1671466043553898133,34926,1671466043553520573,gps,2,1,42.2999931782,-83.6985483409,270.542053223,0.001225,0.0,0.0,0.0,0.001225,0.0,0.0,0.0,0.004489,2
1671466043573854432,34927,1671466043573394238,gps,2,1,42.299993181,-83.6985483478,270.542053223,0.001225,0.0,0.0,0.0,0.001225,0.0,0.0,0.0,0.004489,2
1671466043593822120,34928,1671466043593399258,gps,2,1,42.2999931836,-83.6985483544,270.542022705,0.001225,0.0,0.0,0.0,0.001225,0.0,0.0,0.0,0.004489,2
1671466043613796998,34929,1671466043613421494,gps,2,1,42.299993179,-83.6985483531,270.542053223,0.001225,0.0,0.0,0.0,0.001225,0.0,0.0,0.0,0.004489,2
1671466043633743995,34930,1671466043633355687,gps,2,1,42.2999931826,-83.6985483592,270.542053223,0.001225,0.0,0.0,0.0,0.001225,0.0,0.0,0.0,0.004489,2
1671466043653853886,34931,1671466043653453306,gps,2,1,42.2999931859,-83.6985483651,270.54208374,0.001225,0.0,0.0,0.0,0.001225,0.0,0.0,0.0,0.004489,2
1671466043673948515,34932,1671466043673423919,gps,2,1,42.2999931813,-83.6985483639,270.542114258,0.001225,0.0,0.0,0.0,0.001225,0.0,0.0,0.0,0.004489,2
1671466043693891689,34933,1671466043693349333,gps,2,1,42.2999931843,-83.6985483695,270.542114258,0.001225,0.0,0.0,0.0,0.001225,0.0,0.0,0.0,0.004489,2
1671466043713918176,34934,1671466043713382511,gps,2,1,42.2999931864,-83.6985483748,270.542114258,0.001225,0.0,0.0,0.0,0.001225,0.0,0.0,0.0,0.004489,2
1671466043733911047,34935,1671466043733404965,gps,2,1,42.2999931818,-83.6985483737,270.542144775,0.001225,0.0,0.0,0.0,0.001225,0.0,0.0,0.0,0.004489,2
1671466043753825550,34936,1671466043753342842,gps,2,1,42.2999931836,-83.6985483789,270.542114258,0.001225,0.0,0.0,0.0,0.001225,0.0,0.0,0.0,0.004489,2
1671466043773946502,34937,1671466043773391168,gps,2,1,42.2999931852,-83.6985483839,270.542114258,0.001225,0.0,0.0,0.0,0.001225,0.0,0.0,0.0,0.004489,2
1671466043793970054,34938,1671466043793406112,gps,2,1,42.2999931806,-83.6985483829,270.542144775,0.001225,0.0,0.0,0.0,0.001225,0.0,0.0,0.0,0.004489,2
1671466043814060267,34939,1671466043813357273,gps,2,1,42.2999931825,-83.6985483874,270.542144775,0.001225,0.0,0.0,0.0,0.001225,0.0,0.0,0.0,0.004489,2
1671466043833815632,34940,1671466043833358157,gps,2,1,42.2999931842,-83.6985483917,270.542175293,0.001225,0.0,0.0,0.0,0.001225,0.0,0.0,0.0,0.004489,2
1671466043853937577,34941,1671466043853417366,gps,2,1,42.2999931796,-83.6985483908,270.542205811,0.001225,0.0,0.0,0.0,0.001225,0.0,0.0,0.0,0.004489,2
1671466043873856138,34942,1671466043873292477,gps,2,1,42.2999931811,-83.6985483951,270.542205811,0.001225,0.0,0.0,0.0,0.001225,0.0,0.0,0.0,0.004489,2
1671466043893918437,34943,1671466043893381434,gps,2,1,42.2999931823,-83.6985483991,270.542236328,0.001225,0.0,0.0,0.0,0.001225,0.0,0.0,0.0,0.004489,2
1671466043913969147,34944,1671466043913401217,gps,2,1,42.2999931777,-83.6985483983,270.542236328,0.001225,0.0,0.0,0.0,0.001225,0.0,0.0,0.0,0.004489,2
1671466043933844584,34945,1671466043933359706,gps,2,1,42.29999318,-83.6985484022,270.542236328,0.001225,0.0,0.0,0.0,0.001225,0.0,0.0,0.0,0.004489,2
1671466043953804028,34946,1671466043953345927,gps,2,1,42.2999931821,-83.698548406,270.542236328,0.001225,0.0,0.0,0.0,0.001225,0.0,0.0,0.0,0.004489,2
1671466043973854191,34947,1671466043973406745,gps,2,1,42.2999931775,-83.6985484053,270.542266846,0.001225,0.0,0.0,0.0,0.001225,0.0,0.0,0.0,0.004489,2
1671466043993969025,34948,1671466043993406425,gps,2,1,42.2999931793,-83.6985484089,270.542266846,0.001225,0.0,0.0,0.0,0.001225,0.0,0.0,0.0,0.004489,2
1671466044013817699,34949,1671466044013317976,gps,2,1,42.2999931812,-83.6985484125,270.542236328,0.001225,0.0,0.0,0.0,0.001225,0.0,0.0,0.0,0.004489,2
1671466044034102480,34950,1671466044033525653,gps,2,1,42.2999931766,-83.6985484118,270.542266846,0.001225,0.0,0.0,0.0,0.001225,0.0,0.0,0.0,0.004489,2
1671466044053883552,34951,1671466044053367165,gps,2,1,42.2999931782,-83.6985484153,270.542266846,0.001225,0.0,0.0,0.0,0.001225,0.0,0.0,0.0,0.004489,2
1671466044073873210,34952,1671466044073403043,gps,2,1,42.2999931817,-83.6985484205,270.542266846,0.001225,0.0,0.0,0.0,0.001225,0.0,0.0,0.0,0.004489,2
1671466044094001656,34953,1671466044093495479,gps,2,1,42.2999931771,-83.6985484199,270.542266846,0.001225,0.0,0.0,0.0,0.001225,0.0,0.0,0.0,0.004489,2
1671466044113816972,34954,1671466044113295837,gps,2,1,42.2999931801,-83.6985484254,270.542236328,0.001225,0.0,0.0,0.0,0.001225,0.0,0.0,0.0,0.004489,2
1671466044133792013,34955,1671466044133326282,gps,2,1,42.2999931829,-83.6985484307,270.542236328,0.001225,0.0,0.0,0.0,0.001225,0.0,0.0,0.0,0.004489,2
1671466044153980239,34956,1671466044153487957,gps,2,1,42.2999931784,-83.6985484301,270.542236328,0.001225,0.0,0.0,0.0,0.001225,0.0,0.0,0.0,0.004489,2
1671466044173831663,34957,1671466044173305361,gps,2,1,42.2999931809,-83.6985484353,270.542236328,0.001225,0.0,0.0,0.0,0.001225,0.0,0.0,0.0,0.004489,2
1671466044193821744,34958,1671466044193307888,gps,2,1,42.2999931838,-83.6985484405,270.542205811,0.001225,0.0,0.0,0.0,0.001225,0.0,0.0,0.0,0.004489,2
1671466044213898576,34959,1671466044213388556,gps,2,1,42.2999931792,-83.6985484401,270.542205811,0.001225,0.0,0.0,0.0,0.001225,0.0,0.0,0.0,0.004489,2
1671466044233973703,34960,1671466044233345779,gps,2,1,42.2999931818,-83.6985484452,270.542205811,0.001225,0.0,0.0,0.0,0.001225,0.0,0.0,0.0,0.004489,2
1671466044253817170,34961,1671466044253335757,gps,2,1,42.2999931843,-83.6985484501,270.542205811,0.001225,0.0,0.0,0.0,0.001225,0.0,0.0,0.0,0.004489,2
1671466044273920388,34962,1671466044273383984,gps,2,1,42.2999931798,-83.6985484498,270.542205811,0.001225,0.0,0.0,0.0,0.001225,0.0,0.0,0.0,0.004489,2
1671466044293816904,34963,1671466044293300398,gps,2,1,42.2999931819,-83.6985484546,270.542175293,0.001225,0.0,0.0,0.0,0.001225,0.0,0.0,0.0,0.004489,2
1671466044313783000,34964,1671466044313261755,gps,2,1,42.2999931841,-83.6985484575,270.542144775,0.001225,0.0,0.0,0.0,0.001225,0.0,0.0,0.0,0.004489,2
1671466044333874883,34965,1671466044333358651,gps,2,1,42.2999931796,-83.6985484573,270.542175293,0.001225,0.0,0.0,0.0,0.001225,0.0,0.0,0.0,0.004489,2
1671466044353728318,34966,1671466044353297005,gps,2,1,42.2999931815,-83.6985484602,270.542144775,0.001225,0.0,0.0,0.0,0.001225,0.0,0.0,0.0,0.004489,2
1671466044373865159,34967,1671466044373332525,gps,2,1,42.2999931833,-83.6985484629,270.542114258,0.001225,0.0,0.0,0.0,0.001225,0.0,0.0,0.0,0.004489,2
1671466044393825545,34968,1671466044393347642,gps,2,1,42.2999931788,-83.6985484627,270.542114258,0.001225,0.0,0.0,0.0,0.001225,0.0,0.0,0.0,0.004489,2
1671466044413770418,34969,1671466044413332094,gps,2,1,42.2999931804,-83.6985484658,270.542114258,0.001225,0.0,0.0,0.0,0.001225,0.0,0.0,0.0,0.004489,2
1671466044433886330,34970,1671466044433340108,gps,2,1,42.2999931818,-83.6985484688,270.54208374,0.001225,0.0,0.0,0.0,0.001225,0.0,0.0,0.0,0.004489,2
1671466044453922203,34971,1671466044453407480,gps,2,1,42.2999931772,-83.6985484686,270.542114258,0.001225,0.0,0.0,0.0,0.001225,0.0,0.0,0.0,0.004489,2
1671466044473841715,34972,1671466044473346937,gps,2,1,42.2999931784,-83.6985484714,270.54208374,0.001225,0.0,0.0,0.0,0.001225,0.0,0.0,0.0,0.004489,2
1671466044493866537,34973,1671466044493365919,gps,2,1,42.2999931793,-83.6985484741,270.54208374,0.001225,0.0,0.0,0.0,0.001225,0.0,0.0,0.0,0.004489,2
1671466044513916872,34974,1671466044513408515,gps,2,1,42.2999931748,-83.6985484739,270.54208374,0.001225,0.0,0.0,0.0,0.001225,0.0,0.0,0.0,0.004489,2
1671466044533960725,34975,1671466044533420615,gps,2,1,42.2999931778,-83.6985484772,270.54208374,0.001225,0.0,0.0,0.0,0.001225,0.0,0.0,0.0,0.004489,2
1671466044553800230,34976,1671466044553303854,gps,2,1,42.2999931826,-83.6985484817,270.542053223,0.001225,0.0,0.0,0.0,0.001225,0.0,0.0,0.0,0.004489,2
1671466044574152206,34977,1671466044573430684,gps,2,1,42.2999931782,-83.6985484816,270.542053223,0.001225,0.0,0.0,0.0,0.001225,0.0,0.0,0.0,0.004489,2
1671466044593934043,34978,1671466044593447702,gps,2,1,42.2999931821,-83.6985484854,270.542053223,0.001225,0.0,0.0,0.0,0.001225,0.0,0.0,0.0,0.004489,2
1671466044613797077,34979,1671466044613330325,gps,2,1,42.2999931859,-83.6985484891,270.542053223,0.001225,0.0,0.0,0.0,0.001225,0.0,0.0,0.0,0.004489,2
1671466044634082521,34980,1671466044633501385,gps,2,1,42.2999931814,-83.6985484891,270.542053223,0.001225,0.0,0.0,0.0,0.001225,0.0,0.0,0.0,0.004489,2
1671466044653757718,34981,1671466044653504681,gps,2,1,42.2999931848,-83.6985484928,270.542053223,0.001225,0.0,0.0,0.0,0.001225,0.0,0.0,0.0,0.004489,2
1671466044673577470,34982,1671466044673313368,gps,2,1,42.2999931887,-83.6985484963,270.542053223,0.001225,0.0,0.0,0.0,0.001225,0.0,0.0,0.0,0.004489,2
1671466044693568665,34983,1671466044693291785,gps,2,1,42.2999931843,-83.6985484964,270.542053223,0.001225,0.0,0.0,0.0,0.001225,0.0,0.0,0.0,0.004489,2
1671466044713627040,34984,1671466044713349160,gps,2,1,42.2999931879,-83.6985484998,270.542053223,0.001225,0.0,0.0,0.0,0.001225,0.0,0.0,0.0,0.004489,2
1671466044733768759,34985,1671466044733290598,gps,2,1,42.2999931912,-83.6985485031,270.542022705,0.001225,0.0,0.0,0.0,0.001225,0.0,0.0,0.0,0.004489,2
1671466044753793727,34986,1671466044753297002,gps,2,1,42.2999931868,-83.6985485032,270.542022705,0.001225,0.0,0.0,0.0,0.001225,0.0,0.0,0.0,0.004489,2
1671466044773870695,34987,1671466044773358759,gps,2,1,42.2999931899,-83.6985485064,270.542022705,0.001225,0.0,0.0,0.0,0.001225,0.0,0.0,0.0,0.004489,2
1671466044793815905,34988,1671466044793302521,gps,2,1,42.2999931925,-83.6985485098,270.541992188,0.001225,0.0,0.0,0.0,0.001225,0.0,0.0,0.0,0.004489,2
1671466044813768821,34989,1671466044813306465,gps,2,1,42.2999931881,-83.6985485099,270.541992188,0.001225,0.0,0.0,0.0,0.001225,0.0,0.0,0.0,0.004489,2
1671466044833971070,34990,1671466044833395201,gps,2,1,42.2999931904,-83.6985485132,270.54196167,0.001225,0.0,0.0,0.0,0.001225,0.0,0.0,0.0,0.004489,2
1671466044853847575,34991,1671466044853275135,gps,2,1,42.2999931925,-83.6985485164,270.54196167,0.001225,0.0,0.0,0.0,0.001225,0.0,0.0,0.0,0.004489,2
1671466044873811333,34992,1671466044873326144,gps,2,1,42.2999931881,-83.6985485166,270.54196167,0.001225,0.0,0.0,0.0,0.001225,0.0,0.0,0.0,0.004489,2
1671466044893814200,34993,1671466044893363421,gps,2,1,42.299993191,-83.6985485195,270.54196167,0.001225,0.0,0.0,0.0,0.001225,0.0,0.0,0.0,0.004489,2
1671466044913730620,34994,1671466044913291225,gps,2,1,42.2999931937,-83.6985485222,270.54196167,0.001225,0.0,0.0,0.0,0.001225,0.0,0.0,0.0,0.004489,2
1671466044933824422,34995,1671466044933297282,gps,2,1,42.2999931893,-83.6985485225,270.54196167,0.001225,0.0,0.0,0.0,0.001225,0.0,0.0,0.0,0.004489,2
1671466044953780223,34996,1671466044953360101,gps,2,1,42.2999931918,-83.6985485252,270.54196167,0.001225,0.0,0.0,0.0,0.001225,0.0,0.0,0.0,0.004489,2
1671466044973769581,34997,1671466044973295733,gps,2,1,42.2999931937,-83.6985485272,270.541931152,0.001225,0.0,0.0,0.0,0.001225,0.0,0.0,0.0,0.004489,2
1671466044993791246,34998,1671466044993285563,gps,2,1,42.2999931894,-83.6985485275,270.541931152,0.001225,0.0,0.0,0.0,0.001225,0.0,0.0,0.0,0.004489,2
1671466045013950188,34999,1671466045013424310,gps,2,1,42.2999931911,-83.6985485295,270.541900635,0.001225,0.0,0.0,0.0,0.001225,0.0,0.0,0.0,0.004489,2
1671466045033853377,35000,1671466045033371183,gps,2,1,42.2999931942,-83.6985485323,270.541900635,0.001225,0.0,0.0,0.0,0.001225,0.0,0.0,0.0,0.004489,2
1671466045053890034,35001,1671466045053457300,gps,2,1,42.2999931899,-83.6985485327,270.541900635,0.001225,0.0,0.0,0.0,0.001225,0.0,0.0,0.0,0.004489,2
1671466045073904839,35002,1671466045073402987,gps,2,1,42.2999931927,-83.6985485354,270.541870117,0.001225,0.0,0.0,0.0,0.001225,0.0,0.0,0.0,0.004489,2
1671466045093825525,35003,1671466045093385355,gps,2,1,42.2999931961,-83.6985485384,270.541870117,0.001225,0.0,0.0,0.0,0.001225,0.0,0.0,0.0,0.004489,2
1671466045113805083,35004,1671466045113296555,gps,2,1,42.2999931918,-83.6985485389,270.541870117,0.001225,0.0,0.0,0.0,0.001225,0.0,0.0,0.0,0.004489,2
1671466045133854972,35005,1671466045133380377,gps,2,1,42.299993195,-83.6985485419,270.5418396,0.001225,0.0,0.0,0.0,0.001225,0.0,0.0,0.0,0.004489,2
1671466045154001690,35006,1671466045153407237,gps,2,1,42.299993198,-83.6985485448,270.5418396,0.001225,0.0,0.0,0.0,0.001225,0.0,0.0,0.0,0.004489,2
1671466045173728208,35007,1671466045173293716,gps,2,1,42.2999931937,-83.6985485452,270.5418396,0.001225,0.0,0.0,0.0,0.001225,0.0,0.0,0.0,0.004489,2
1671466045193880992,35008,1671466045193360075,gps,2,1,42.2999931966,-83.6985485473,270.541809082,0.001225,0.0,0.0,0.0,0.001225,0.0,0.0,0.0,0.004489,2
1671466045213749442,35009,1671466045213274274,gps,2,1,42.2999931993,-83.6985485494,270.541809082,0.001225,0.0,0.0,0.0,0.001225,0.0,0.0,0.0,0.004489,2
1671466045233883359,35010,1671466045233318153,gps,2,1,42.2999931951,-83.6985485499,270.541809082,0.001225,0.0,0.0,0.0,0.001225,0.0,0.0,0.0,0.004489,2
1671466045253809536,35011,1671466045253373260,gps,2,1,42.2999931976,-83.6985485519,270.541809082,0.001225,0.0,0.0,0.0,0.001225,0.0,0.0,0.0,0.004489,2
1671466045273848880,35012,1671466045273305797,gps,2,1,42.2999932006,-83.6985485543,270.541809082,0.001225,0.0,0.0,0.0,0.001225,0.0,0.0,0.0,0.004489,2
1671466045293870564,35013,1671466045293338007,gps,2,1,42.2999931964,-83.6985485548,270.541809082,0.001225,0.0,0.0,0.0,0.001225,0.0,0.0,0.0,0.004489,2
1671466045314028484,35014,1671466045313402690,gps,2,1,42.2999931992,-83.6985485573,270.5418396,0.001225,0.0,0.0,0.0,0.001225,0.0,0.0,0.0,0.004489,2
1671466045333757343,35015,1671466045333323502,gps,2,1,42.2999932018,-83.6985485597,270.5418396,0.001225,0.0,0.0,0.0,0.001225,0.0,0.0,0.0,0.004489,2
1671466045353777389,35016,1671466045353289671,gps,2,1,42.2999931976,-83.6985485602,270.5418396,0.001225,0.0,0.0,0.0,0.001225,0.0,0.0,0.0,0.004489,2
1671466045373818909,35017,1671466045373350241,gps,2,1,42.2999931999,-83.6985485626,270.541870117,0.001225,0.0,0.0,0.0,0.001225,0.0,0.0,0.0,0.004489,2
1671466045393796410,35018,1671466045393306136,gps,2,1,42.2999932024,-83.6985485644,270.5418396,0.001225,0.0,0.0,0.0,0.001225,0.0,0.0,0.0,0.004489,2
1671466045413809508,35019,1671466045413312477,gps,2,1,42.2999931982,-83.698548565,270.5418396,0.001225,0.0,0.0,0.0,0.001225,0.0,0.0,0.0,0.004489,2
1671466045433917561,35020,1671466045433353313,gps,2,1,42.2999932004,-83.6985485668,270.5418396,0.001225,0.0,0.0,0.0,0.001225,0.0,0.0,0.0,0.004489,2
1671466045453713170,35021,1671466045453230617,gps,2,1,42.2999932024,-83.6985485686,270.541809082,0.001225,0.0,0.0,0.0,0.001225,0.0,0.0,0.0,0.004489,2
1671466045473893481,35022,1671466045473347979,gps,2,1,42.2999931982,-83.6985485692,270.541809082,0.001225,0.0,0.0,0.0,0.001225,0.0,0.0,0.0,0.004489,2
1671466045494074632,35023,1671466045493421441,gps,2,1,42.2999932004,-83.6985485717,270.541809082,0.001225,0.0,0.0,0.0,0.001225,0.0,0.0,0.0,0.004489,2
1671466045513782121,35024,1671466045513312144,gps,2,1,42.2999932023,-83.6985485741,270.541809082,0.001225,0.0,0.0,0.0,0.001225,0.0,0.0,0.0,0.004489,2
1671466045533961448,35025,1671466045533413303,gps,2,1,42.2999931982,-83.6985485748,270.541809082,0.001225,0.0,0.0,0.0,0.001225,0.0,0.0,0.0,0.004489,2
1671466045553974731,35026,1671466045553429462,gps,2,1,42.2999932017,-83.6985485778,270.5418396,0.001225,0.0,0.0,0.0,0.001225,0.0,0.0,0.0,0.004489,2
1671466045573879347,35027,1671466045573386984,gps,2,1,42.299993205,-83.6985485807,270.5418396,0.001225,0.0,0.0,0.0,0.001225,0.0,0.0,0.0,0.004489,2
1671466045593965257,35028,1671466045593466416,gps,2,1,42.2999932009,-83.6985485814,270.5418396,0.001225,0.0,0.0,0.0,0.001225,0.0,0.0,0.0,0.004489,2
1671466045613865067,35029,1671466045613354414,gps,2,1,42.2999932046,-83.6985485837,270.5418396,0.001225,0.0,0.0,0.0,0.001225,0.0,0.0,0.0,0.004489,2
1671466045633848295,35030,1671466045633333212,gps,2,1,42.299993208,-83.6985485861,270.5418396,0.001225,0.0,0.0,0.0,0.001225,0.0,0.0,0.0,0.004489,2
1671466045653945291,35031,1671466045653446560,gps,2,1,42.299993204,-83.6985485868,270.5418396,0.001225,0.0,0.0,0.0,0.001225,0.0,0.0,0.0,0.004489,2
1671466045673872754,35032,1671466045673354469,gps,2,1,42.2999932071,-83.6985485891,270.5418396,0.001225,0.0,0.0,0.0,0.001225,0.0,0.0,0.0,0.004489,2
1671466045693753402,35033,1671466045693278060,gps,2,1,42.2999932106,-83.6985485906,270.541870117,0.001225,0.0,0.0,0.0,0.001225,0.0,0.0,0.0,0.004489,2
1671466045713919144,35034,1671466045713406723,gps,2,1,42.2999932065,-83.6985485914,270.541870117,0.001225,0.0,0.0,0.0,0.001225,0.0,0.0,0.0,0.004489,2
1671466045733779688,35035,1671466045733277925,gps,2,1,42.2999932097,-83.698548593,270.541900635,0.001225,0.0,0.0,0.0,0.001225,0.0,0.0,0.0,0.004489,2
1671466045753833573,35036,1671466045753319788,gps,2,1,42.2999932128,-83.6985485946,270.541900635,0.001225,0.0,0.0,0.0,0.001225,0.0,0.0,0.0,0.004489,2
1671466045773872780,35037,1671466045773370483,gps,2,1,42.2999932087,-83.6985485954,270.541900635,0.001225,0.0,0.0,0.0,0.001225,0.0,0.0,0.0,0.004489,2
1671466045793895662,35038,1671466045793360598,gps,2,1,42.2999932115,-83.698548597,270.541900635,0.001225,0.0,0.0,0.0,0.001225,0.0,0.0,0.0,0.004489,2
1671466045813779800,35039,1671466045813317756,gps,2,1,42.2999932143,-83.6985485989,270.541931152,0.001225,0.0,0.0,0.0,0.001225,0.0,0.0,0.0,0.004489,2
1671466045834162094,35040,1671466045833447655,gps,2,1,42.2999932103,-83.6985485998,270.541931152,0.001225,0.0,0.0,0.0,0.001225,0.0,0.0,0.0,0.004489,2
1671466045853791606,35041,1671466045853319819,gps,2,1,42.2999932128,-83.6985486017,270.541931152,0.001225,0.0,0.0,0.0,0.001225,0.0,0.0,0.0,0.004489,2
1671466045873876420,35042,1671466045873363577,gps,2,1,42.2999932151,-83.6985486035,270.541931152,0.001225,0.0,0.0,0.0,0.001225,0.0,0.0,0.0,0.004489,2
1671466045893902276,35043,1671466045893357166,gps,2,1,42.2999932111,-83.6985486044,270.541931152,0.001225,0.0,0.0,0.0,0.001225,0.0,0.0,0.0,0.004489,2
1671466045913754030,35044,1671466045913311016,gps,2,1,42.2999932142,-83.698548606,270.541931152,0.001225,0.0,0.0,0.0,0.001225,0.0,0.0,0.0,0.004489,2
1671466045933764132,35045,1671466045933310694,gps,2,1,42.299993217,-83.6985486075,270.541931152,0.001225,0.0,0.0,0.0,0.001225,0.0,0.0,0.0,0.004489,2
1671466045953849864,35046,1671466045953393044,gps,2,1,42.2999932131,-83.6985486084,270.541931152,0.001225,0.0,0.0,0.0,0.001225,0.0,0.0,0.0,0.004489,2
1671466045973961975,35047,1671466045973299090,gps,2,1,42.2999932157,-83.6985486099,270.541931152,0.001225,0.0,0.0,0.0,0.001225,0.0,0.0,0.0,0.004489,2
1671466045993829379,35048,1671466045993285980,gps,2,1,42.2999932178,-83.6985486109,270.541931152,0.001225,0.0,0.0,0.0,0.001225,0.0,0.0,0.0,0.004489,2
1671466046013943254,35049,1671466046013421206,gps,2,1,42.2999932139,-83.6985486119,270.541931152,0.001225,0.0,0.0,0.0,0.001225,0.0,0.0,0.0,0.004489,2
1671466046033962690,35050,1671466046033399686,gps,2,1,42.2999932159,-83.6985486128,270.54196167,0.001225,0.0,0.0,0.0,0.001225,0.0,0.0,0.0,0.004489,2
1671466046053769166,35051,1671466046053333190,gps,2,1,42.2999932191,-83.6985486142,270.541992188,0.001225,0.0,0.0,0.0,0.001225,0.0,0.0,0.0,0.004489,2
1671466046073958651,35052,1671466046073412385,gps,2,1,42.2999932152,-83.6985486152,270.541992188,0.001225,0.0,0.0,0.0,0.001225,0.0,0.0,0.0,0.004489,2
1671466046093787340,35053,1671466046093352726,gps,2,1,42.2999932182,-83.6985486166,270.542022705,0.001225,0.0,0.0,0.0,0.001225,0.0,0.0,0.0,0.004489,2
1671466046113826815,35054,1671466046113307269,gps,2,1,42.2999932212,-83.6985486178,270.542053223,0.001225,0.0,0.0,0.0,0.001225,0.0,0.0,0.0,0.004489,2
1671466046133892516,35055,1671466046133354765,gps,2,1,42.2999932174,-83.6985486189,270.542053223,0.001225,0.0,0.0,0.0,0.001225,0.0,0.0,0.0,0.004489,2
1671466046153894403,35056,1671466046153353711,gps,2,1,42.2999932201,-83.6985486201,270.54208374,0.001225,0.0,0.0,0.0,0.001225,0.0,0.0,0.0,0.004489,2
1671466046173872993,35057,1671466046173340627,gps,2,1,42.2999932227,-83.6985486213,270.542114258,0.001225,0.0,0.0,0.0,0.001225,0.0,0.0,0.0,0.004489,2
1671466046193829804,35058,1671466046193365121,gps,2,1,42.2999932188,-83.6985486224,270.542114258,0.001225,0.0,0.0,0.0,0.001225,0.0,0.0,0.0,0.004489,2
1671466046213735743,35059,1671466046213270314,gps,2,1,42.2999932218,-83.6985486231,270.542175293,0.001225,0.0,0.0,0.0,0.001225,0.0,0.0,0.0,0.004489,2
1671466046233607098,35060,1671466046233262451,gps,2,1,42.2999932245,-83.6985486239,270.542205811,0.001225,0.0,0.0,0.0,0.001225,0.0,0.0,0.0,0.004489,2
1671466046253508791,35061,1671466046253304708,gps,2,1,42.2999932207,-83.698548625,270.542205811,0.001225,0.0,0.0,0.0,0.001225,0.0,0.0,0.0,0.004489,2
1671466046273482413,35062,1671466046273265325,gps,2,1,42.2999932232,-83.6985486258,270.542266846,0.001225,0.0,0.0,0.0,0.001225,0.0,0.0,0.0,0.004489,2
1671466046293485427,35063,1671466046293256269,gps,2,1,42.2999932248,-83.6985486265,270.542236328,0.001225,0.0,0.0,0.0,0.001225,0.0,0.0,0.0,0.004489,2
1671466046313463858,35064,1671466046313287384,gps,2,1,42.299993221,-83.6985486277,270.542236328,0.001225,0.0,0.0,0.0,0.001225,0.0,0.0,0.0,0.004489,2
1671466046333542788,35065,1671466046333311064,gps,2,1,42.2999932224,-83.6985486284,270.542236328,0.001225,0.0,0.0,0.0,0.001225,0.0,0.0,0.0,0.004489,2
1671466046353409346,35066,1671466046353223911,gps,2,1,42.2999932238,-83.6985486291,270.542236328,0.001225,0.0,0.0,0.0,0.001225,0.0,0.0,0.0,0.004489,2
1671466046373557037,35067,1671466046373275100,gps,2,1,42.2999932199,-83.6985486303,270.542236328,0.001225,0.0,0.0,0.0,0.001225,0.0,0.0,0.0,0.004489,2
1671466046393870246,35068,1671466046393240323,gps,2,1,42.299993221,-83.6985486311,270.542205811,0.001225,0.0,0.0,0.0,0.001225,0.0,0.0,0.0,0.004489,2
1671466046413376472,35069,1671466046413188323,gps,2,1,42.2999932234,-83.6985486331,270.542205811,0.001225,0.0,0.0,0.0,0.001225,0.0,0.0,0.0,0.004489,2
1671466046433463154,35070,1671466046433276695,gps,2,1,42.2999932196,-83.6985486343,270.542205811,0.001225,0.0,0.0,0.0,0.001225,0.0,0.0,0.0,0.004489,2
1671466046453543728,35071,1671466046453382254,gps,2,1,42.2999932219,-83.6985486362,270.542175293,0.001225,0.0,0.0,0.0,0.001225,0.0,0.0,0.0,0.004489,2
1671466046473435294,35072,1671466046473258195,gps,2,1,42.2999932238,-83.6985486382,270.542175293,0.001225,0.0,0.0,0.0,0.001225,0.0,0.0,0.0,0.004489,2
1671466046493551960,35073,1671466046493316594,gps,2,1,42.29999322,-83.6985486394,270.542175293,0.001225,0.0,0.0,0.0,0.001225,0.0,0.0,0.0,0.004489,2
1671466046513846849,35074,1671466046513278864,gps,2,1,42.2999932222,-83.6985486402,270.542205811,0.001225,0.0,0.0,0.0,0.001225,0.0,0.0,0.0,0.004489,2
1671466046534075703,35075,1671466046533410351,gps,2,1,42.2999932242,-83.698548641,270.542236328,0.001225,0.0,0.0,0.0,0.001225,0.0,0.0,0.0,0.004489,2
1671466046553922844,35076,1671466046553395999,gps,2,1,42.2999932204,-83.6985486423,270.542236328,0.001225,0.0,0.0,0.0,0.001225,0.0,0.0,0.0,0.004489,2
1671466046573919887,35077,1671466046573304852,gps,2,1,42.2999932236,-83.6985486432,270.542266846,0.001225,0.0,0.0,0.0,0.001225,0.0,0.0,0.0,0.004489,2
1671466046593828934,35078,1671466046593327124,gps,2,1,42.2999932271,-83.6985486443,270.542266846,0.001225,0.0,0.0,0.0,0.001225,0.0,0.0,0.0,0.004489,2
1671466046614009768,35079,1671466046613403653,gps,2,1,42.2999932233,-83.6985486457,270.542266846,0.001225,0.0,0.0,0.0,0.001225,0.0,0.0,0.0,0.004489,2
1671466046633981035,35080,1671466046633357138,gps,2,1,42.2999932266,-83.6985486468,270.542297363,0.001225,0.0,0.0,0.0,0.001225,0.0,0.0,0.0,0.004489,2
1671466046653695491,35081,1671466046653346106,gps,2,1,42.2999932296,-83.698548648,270.542297363,0.001225,0.0,0.0,0.0,0.001225,0.0,0.0,0.0,0.004489,2
1671466046673669719,35082,1671466046673282195,gps,2,1,42.2999932258,-83.6985486493,270.542297363,0.001225,0.0,0.0,0.0,0.001225,0.0,0.0,0.0,0.004489,2
1671466046693711012,35083,1671466046693338974,gps,2,1,42.2999932285,-83.6985486505,270.542327881,0.000961,0.0,0.0,0.0,0.001024,0.0,0.0,0.0,0.004225,2
1671466046713633594,35084,1671466046713287508,gps,2,1,42.299993231,-83.6985486506,270.542327881,0.000961,0.0,0.0,0.0,0.001024,0.0,0.0,0.0,0.004225,2
1671466046733697670,35085,1671466046733363918,gps,2,1,42.2999932273,-83.698548652,270.542327881,0.000961,0.0,0.0,0.0,0.001024,0.0,0.0,0.0,0.004225,2
1671466046753812896,35086,1671466046753326981,gps,2,1,42.2999932295,-83.6985486522,270.542358398,0.000961,0.0,0.0,0.0,0.001024,0.0,0.0,0.0,0.004225,2
1671466046773748198,35087,1671466046773322155,gps,2,1,42.2999932315,-83.6985486524,270.542388916,0.000961,0.0,0.0,0.0,0.001024,0.0,0.0,0.0,0.004225,2
1671466046793823903,35088,1671466046793365059,gps,2,1,42.2999932279,-83.6985486538,270.542388916,0.000961,0.0,0.0,0.0,0.001024,0.0,0.0,0.0,0.004225,2
1671466046813767459,35089,1671466046813288125,gps,2,1,42.2999932302,-83.6985486544,270.542419434,0.000961,0.0,0.0,0.0,0.001024,0.0,0.0,0.0,0.004225,2
1671466046833772888,35090,1671466046833369184,gps,2,1,42.2999932323,-83.6985486551,270.542419434,0.000961,0.0,0.0,0.0,0.001024,0.0,0.0,0.0,0.004225,2
1671466046853812763,35091,1671466046853363863,gps,2,1,42.2999932287,-83.6985486566,270.542419434,0.000961,0.0,0.0,0.0,0.001024,0.0,0.0,0.0,0.004225,2
1671466046873706350,35092,1671466046873305092,gps,2,1,42.2999932306,-83.6985486573,270.542449951,0.000961,0.0,0.0,0.0,0.001024,0.0,0.0,0.0,0.004225,2
1671466046893785304,35093,1671466046893330519,gps,2,1,42.2999932324,-83.698548658,270.542480469,0.000961,0.0,0.0,0.0,0.001024,0.0,0.0,0.0,0.004225,2
1671466046913792782,35094,1671466046913309121,gps,2,1,42.2999932287,-83.6985486595,270.542480469,0.000961,0.0,0.0,0.0,0.001024,0.0,0.0,0.0,0.004225,2
1671466046933819548,35095,1671466046933364157,gps,2,1,42.2999932307,-83.6985486604,270.542510986,0.000961,0.0,0.0,0.0,0.001024,0.0,0.0,0.0,0.004225,2
1671466046953659358,35096,1671466046953273839,gps,2,1,42.2999932325,-83.6985486612,270.542510986,0.000961,0.0,0.0,0.0,0.001024,0.0,0.0,0.0,0.004225,2
1671466046973782711,35097,1671466046973323566,gps,2,1,42.2999932288,-83.6985486627,270.542510986,0.000961,0.0,0.0,0.0,0.001024,0.0,0.0,0.0,0.004225,2
1671466046993803780,35098,1671466046993352277,gps,2,1,42.2999932304,-83.6985486631,270.542541504,0.000961,0.0,0.0,0.0,0.001024,0.0,0.0,0.0,0.004225,2
1671466047013637796,35099,1671466047013267811,gps,2,1,42.2999932318,-83.6985486635,270.542541504,0.000961,0.0,0.0,0.0,0.001024,0.0,0.0,0.0,0.004225,2
1671466047033965826,35100,1671466047033410431,gps,2,1,42.2999932281,-83.6985486651,270.542541504,0.000961,0.0,0.0,0.0,0.001024,0.0,0.0,0.0,0.004225,2
1671466047053929663,35101,1671466047053438213,gps,2,1,42.2999932308,-83.698548666,270.542602539,0.000961,0.0,0.0,0.0,0.001024,0.0,0.0,0.0,0.004225,2
1671466047073776064,35102,1671466047073320634,gps,2,1,42.2999932333,-83.6985486676,270.542633057,0.000961,0.0,0.0,0.0,0.001024,0.0,0.0,0.0,0.004225,2
1671466047093989859,35103,1671466047093484965,gps,2,1,42.2999932297,-83.6985486691,270.542633057,0.000961,0.0,0.0,0.0,0.001024,0.0,0.0,0.0,0.004225,2
1671466047113958192,35104,1671466047113426582,gps,2,1,42.2999932321,-83.6985486708,270.542633057,0.000961,0.0,0.0,0.0,0.001024,0.0,0.0,0.0,0.004225,2
1671466047133811330,35105,1671466047133344172,gps,2,1,42.2999932342,-83.6985486724,270.542663574,0.000961,0.0,0.0,0.0,0.001024,0.0,0.0,0.0,0.004225,2
1671466047154022504,35106,1671466047153502027,gps,2,1,42.2999932306,-83.698548674,270.542663574,0.000961,0.0,0.0,0.0,0.001024,0.0,0.0,0.0,0.004225,2
1671466047173889892,35107,1671466047173405486,gps,2,1,42.2999932326,-83.6985486757,270.542694092,0.000961,0.0,0.0,0.0,0.001024,0.0,0.0,0.0,0.004225,2
1671466047193764145,35108,1671466047193300723,gps,2,1,42.2999932346,-83.6985486761,270.542724609,0.000961,0.0,0.0,0.0,0.001024,0.0,0.0,0.0,0.004225,2
1671466047213852479,35109,1671466047213390951,gps,2,1,42.2999932311,-83.6985486777,270.542724609,0.000961,0.0,0.0,0.0,0.001024,0.0,0.0,0.0,0.004225,2
1671466047233796094,35110,1671466047233365442,gps,2,1,42.299993233,-83.6985486782,270.542724609,0.000961,0.0,0.0,0.0,0.001024,0.0,0.0,0.0,0.004225,2
1671466047253733361,35111,1671466047253283402,gps,2,1,42.2999932347,-83.6985486786,270.542755127,0.000961,0.0,0.0,0.0,0.001024,0.0,0.0,0.0,0.004225,2
1671466047273882562,35112,1671466047273337982,gps,2,1,42.2999932311,-83.6985486803,270.542755127,0.000961,0.0,0.0,0.0,0.001024,0.0,0.0,0.0,0.004225,2
1671466047293830466,35113,1671466047293351131,gps,2,1,42.299993234,-83.6985486808,270.542755127,0.000961,0.0,0.0,0.0,0.001024,0.0,0.0,0.0,0.004225,2
1671466047313797252,35114,1671466047313288479,gps,2,1,42.2999932367,-83.6985486814,270.542755127,0.000961,0.0,0.0,0.0,0.001024,0.0,0.0,0.0,0.004225,2
1671466047333834242,35115,1671466047333379359,gps,2,1,42.2999932332,-83.698548683,270.542755127,0.000961,0.0,0.0,0.0,0.001024,0.0,0.0,0.0,0.004225,2
1671466047353772016,35116,1671466047353347647,gps,2,1,42.2999932357,-83.6985486837,270.542755127,0.000961,0.0,0.0,0.0,0.001024,0.0,0.0,0.0,0.004225,2
1671466047373778527,35117,1671466047373294378,gps,2,1,42.2999932382,-83.6985486841,270.542785645,0.000961,0.0,0.0,0.0,0.001024,0.0,0.0,0.0,0.004225,2
1671466047393815809,35118,1671466047393289212,gps,2,1,42.2999932347,-83.6985486858,270.542785645,0.000961,0.0,0.0,0.0,0.001024,0.0,0.0,0.0,0.004225,2
1671466047414087324,35119,1671466047413355125,gps,2,1,42.299993237,-83.6985486863,270.542785645,0.000961,0.0,0.0,0.0,0.001024,0.0,0.0,0.0,0.004225,2
1671466047433769192,35120,1671466047433291206,gps,2,1,42.2999932392,-83.6985486868,270.542816162,0.000961,0.0,0.0,0.0,0.001024,0.0,0.0,0.0,0.004225,2
1671466047453769366,35121,1671466047453291337,gps,2,1,42.2999932357,-83.6985486886,270.542816162,0.000961,0.0,0.0,0.0,0.001024,0.0,0.0,0.0,0.004225,2
1671466047473849095,35122,1671466047473287562,gps,2,1,42.2999932378,-83.6985486892,270.542816162,0.000961,0.0,0.0,0.0,0.001024,0.0,0.0,0.0,0.004225,2
1671466047493900915,35123,1671466047493316535,gps,2,1,42.2999932396,-83.6985486899,270.54284668,0.000961,0.0,0.0,0.0,0.001024,0.0,0.0,0.0,0.004225,2
1671466047513943105,35124,1671466047513471793,gps,2,1,42.2999932362,-83.6985486917,270.54284668,0.000961,0.0,0.0,0.0,0.001024,0.0,0.0,0.0,0.004225,2
1671466047533877699,35125,1671466047533319380,gps,2,1,42.2999932381,-83.6985486925,270.54284668,0.000961,0.0,0.0,0.0,0.001024,0.0,0.0,0.0,0.004225,2
1671466047553975355,35126,1671466047553367319,gps,2,1,42.2999932415,-83.6985486934,270.54284668,0.000961,0.0,0.0,0.0,0.001024,0.0,0.0,0.0,0.004225,2
1671466047574129898,35127,1671466047573486747,gps,2,1,42.2999932378,-83.6985486951,270.54284668,0.000961,0.0,0.0,0.0,0.001024,0.0,0.0,0.0,0.004225,2
1671466047593883058,35128,1671466047593320886,gps,2,1,42.2999932405,-83.6985486959,270.542877197,0.000961,0.0,0.0,0.0,0.001024,0.0,0.0,0.0,0.004225,2
1671466047613854200,35129,1671466047613367343,gps,2,1,42.2999932429,-83.6985486964,270.54284668,0.000961,0.0,0.0,0.0,0.001024,0.0,0.0,0.0,0.004225,2
1671466047633769782,35130,1671466047633363765,gps,2,1,42.2999932389,-83.698548698,270.542816162,0.000961,0.0,0.0,0.0,0.001024,0.0,0.0,0.0,0.004225,2
1671466047653840766,35131,1671466047653384116,gps,2,1,42.2999932408,-83.6985486985,270.542785645,0.000961,0.0,0.0,0.0,0.001024,0.0,0.0,0.0,0.004225,2
1671466047673732657,35132,1671466047673299524,gps,2,1,42.2999932427,-83.698548699,270.542724609,0.000961,0.0,0.0,0.0,0.001024,0.0,0.0,0.0,0.004225,2
1671466047693810193,35133,1671466047693366076,gps,2,1,42.2999932388,-83.6985487007,270.542694092,0.000961,0.0,0.0,0.0,0.001024,0.0,0.0,0.0,0.004225,2
1671466047713785294,35134,1671466047713332563,gps,2,1,42.2999932415,-83.6985487023,270.542633057,0.000961,0.0,0.0,0.0,0.001024,0.0,0.0,0.0,0.004225,2
1671466047733797353,35135,1671466047733268549,gps,2,1,42.299993244,-83.6985487038,270.542602539,0.000961,0.0,0.0,0.0,0.001024,0.0,0.0,0.0,0.004225,2
1671466047753836906,35136,1671466047753293969,gps,2,1,42.2999932405,-83.6985487057,270.542572021,0.000961,0.0,0.0,0.0,0.001024,0.0,0.0,0.0,0.004225,2
1671466047773782391,35137,1671466047773313106,gps,2,1,42.2999932432,-83.6985487076,270.542541504,0.000961,0.0,0.0,0.0,0.001024,0.0,0.0,0.0,0.004225,2
