%time,field.header.seq,field.header.stamp,field.header.frame_id,field.status.status,field.status.service,field.latitude,field.longitude,field.altitude,field.position_covariance0,field.position_covariance1,field.position_covariance2,field.position_covariance3,field.position_covariance4,field.position_covariance5,field.position_covariance6,field.position_covariance7,field.position_covariance8,field.position_covariance_type
1671462295553898124,374454,1671462295590631900,gps,2,1,42.3008976885,-83.6991797295,271.018188477,0.0001,0.0,0.0,0.0,0.000121,0.0,0.0,0.0,0.001849,2
1671462295563189604,374455,1671462295600499778,gps,2,1,42.3008976857,-83.6991797292,271.018341064,0.0001,0.0,0.0,0.0,0.000121,0.0,0.0,0.0,0.001849,2
1671462295573312552,374456,1671462295610502491,gps,2,1,42.3008976861,-83.6991797302,271.018341064,0.0001,0.0,0.0,0.0,0.000121,0.0,0.0,0.0,0.001849,2
1671462295583675288,374457,1671462295620531532,gps,2,1,42.3008976864,-83.6991797312,271.018371582,0.0001,0.0,0.0,0.0,0.000121,0.0,0.0,0.0,0.001849,2
1671462295593261373,374458,1671462295630470913,gps,2,1,42.3008976837,-83.699179731,271.018493652,0.0001,0.0,0.0,0.0,0.000121,0.0,0.0,0.0,0.001849,2
1671462295603589825,374459,1671462295640481601,gps,2,1,42.300897684,-83.699179732,271.01852417,0.0001,0.0,0.0,0.0,0.000121,0.0,0.0,0.0,0.001849,2
1671462295613350531,374460,1671462295650529789,gps,2,1,42.3008976843,-83.699179733,271.01852417,0.0001,0.0,0.0,0.0,0.000121,0.0,0.0,0.0,0.001849,2
1671462295623586742,374461,1671462295660457329,gps,2,1,42.3008976817,-83.6991797328,271.01864624,0.0001,0.0,0.0,0.0,0.000121,0.0,0.0,0.0,0.001849,2
1671462295633418571,374462,1671462295670470663,gps,2,1,42.3008976819,-83.6991797338,271.018676758,0.0001,0.0,0.0,0.0,0.000121,0.0,0.0,0.0,0.001849,2
1671462295643473112,374463,1671462295680549313,gps,2,1,42.3008976822,-83.6991797348,271.018676758,0.0001,0.0,0.0,0.0,0.000121,0.0,0.0,0.0,0.001849,2
1671462295653455356,374464,1671462295690485815,gps,2,1,42.3008976797,-83.6991797344,271.018798828,0.0001,0.0,0.0,0.0,0.000121,0.0,0.0,0.0,0.001849,2
1671462295663440955,374465,1671462295700629228,gps,2,1,42.30089768,-83.6991797354,271.018798828,0.0001,0.0,0.0,0.0,0.000121,0.0,0.0,0.0,0.001849,2
1671462295673457804,374466,1671462295710586824,gps,2,1,42.3008976802,-83.6991797364,271.018829346,0.0001,0.0,0.0,0.0,0.000121,0.0,0.0,0.0,0.001849,2
1671462295683524375,374467,1671462295720468240,gps,2,1,42.3008976778,-83.699179736,271.018951416,0.0001,0.0,0.0,0.0,0.000121,0.0,0.0,0.0,0.001849,2
1671462295693297434,374468,1671462295730473292,gps,2,1,42.300897678,-83.6991797371,271.018951416,0.0001,0.0,0.0,0.0,0.000121,0.0,0.0,0.0,0.001849,2
1671462295703246848,374469,1671462295740539783,gps,2,1,42.3008976783,-83.6991797381,271.018981934,0.0001,0.0,0.0,0.0,0.000121,0.0,0.0,0.0,0.001849,2
1671462295713160903,374470,1671462295750469046,gps,2,1,42.3008976759,-83.6991797377,271.019104004,0.0001,0.0,0.0,0.0,0.000121,0.0,0.0,0.0,0.001849,2
1671462295723133764,374471,1671462295760484764,gps,2,1,42.3008976761,-83.6991797388,271.019104004,0.0001,0.0,0.0,0.0,0.000121,0.0,0.0,0.0,0.001849,2
1671462295733718617,374472,1671462295770540865,gps,2,1,42.3008976764,-83.6991797398,271.019104004,0.0001,0.0,0.0,0.0,0.000121,0.0,0.0,0.0,0.001849,2
1671462295743500377,374473,1671462295780479921,gps,2,1,42.3008976741,-83.6991797395,271.019226074,0.0001,0.0,0.0,0.0,0.000121,0.0,0.0,0.0,0.001849,2
1671462295753767873,374474,1671462295790474065,gps,2,1,42.3008976744,-83.6991797406,271.019256592,0.0001,0.0,0.0,0.0,0.000121,0.0,0.0,0.0,0.001849,2
1671462295763478491,374475,1671462295800581428,gps,2,1,42.3008976746,-83.6991797416,271.019256592,0.0001,0.0,0.0,0.0,0.000121,0.0,0.0,0.0,0.001849,2
1671462295773351717,374476,1671462295810538221,gps,2,1,42.3008976724,-83.6991797414,271.019378662,0.0001,0.0,0.0,0.0,0.000121,0.0,0.0,0.0,0.001849,2
1671462295783293769,374477,1671462295820490585,gps,2,1,42.3008976727,-83.6991797424,271.019378662,0.0001,0.0,0.0,0.0,0.000121,0.0,0.0,0.0,0.001849,2
1671462295793319651,374478,1671462295830542915,gps,2,1,42.300897673,-83.6991797435,271.01940918,0.0001,0.0,0.0,0.0,0.000121,0.0,0.0,0.0,0.001849,2
1671462295803448032,374479,1671462295840470427,gps,2,1,42.3008976709,-83.6991797433,271.019500732,0.0001,0.0,0.0,0.0,0.000121,0.0,0.0,0.0,0.001849,2
1671462295813371057,374480,1671462295850506871,gps,2,1,42.3008976712,-83.6991797444,271.019500732,0.0001,0.0,0.0,0.0,0.000121,0.0,0.0,0.0,0.001849,2
1671462295823271282,374481,1671462295860538204,gps,2,1,42.3008976715,-83.6991797455,271.01953125,0.0001,0.0,0.0,0.0,0.000121,0.0,0.0,0.0,0.001849,2
1671462295833258235,374482,1671462295870489218,gps,2,1,42.3008976695,-83.6991797454,271.019622803,0.0001,0.0,0.0,0.0,0.000121,0.0,0.0,0.0,0.001849,2
1671462295843234997,374483,1671462295880479547,gps,2,1,42.3008976698,-83.6991797465,271.01965332,0.0001,0.0,0.0,0.0,0.000121,0.0,0.0,0.0,0.001849,2
1671462295853795716,374484,1671462295890617531,gps,2,1,42.30089767,-83.6991797476,271.01965332,0.0001,0.0,0.0,0.0,0.000121,0.0,0.0,0.0,0.001849,2
1671462295863279161,374485,1671462295900475839,gps,2,1,42.3008976681,-83.6991797474,271.019744873,0.0001,0.0,0.0,0.0,0.000121,0.0,0.0,0.0,0.001849,2
1671462295873088175,374486,1671462295910473873,gps,2,1,42.3008976684,-83.6991797485,271.019775391,0.0001,0.0,0.0,0.0,0.000121,0.0,0.0,0.0,0.001849,2
1671462295883675557,374487,1671462295920544554,gps,2,1,42.3008976686,-83.6991797496,271.019775391,0.0001,0.0,0.0,0.0,0.000121,0.0,0.0,0.0,0.001849,2
1671462295893481438,374488,1671462295930520741,gps,2,1,42.3008976668,-83.6991797495,271.019866943,0.0001,0.0,0.0,0.0,0.000121,0.0,0.0,0.0,0.001849,2
1671462295903366369,374489,1671462295940506993,gps,2,1,42.300897667,-83.6991797506,271.019866943,0.0001,0.0,0.0,0.0,0.000121,0.0,0.0,0.0,0.001849,2
1671462295913518432,374490,1671462295950629430,gps,2,1,42.3008976673,-83.6991797517,271.019897461,0.0001,0.0,0.0,0.0,0.000121,0.0,0.0,0.0,0.001849,2
1671462295923257144,374491,1671462295960466984,gps,2,1,42.3008976653,-83.6991797516,271.019989014,0.0001,0.0,0.0,0.0,0.000121,0.0,0.0,0.0,0.001849,2
1671462295933502415,374492,1671462295970480744,gps,2,1,42.3008976656,-83.6991797527,271.019989014,0.0001,0.0,0.0,0.0,0.000121,0.0,0.0,0.0,0.001849,2
1671462295943332163,374493,1671462295980535687,gps,2,1,42.3008976658,-83.6991797538,271.020019531,0.0001,0.0,0.0,0.0,0.000121,0.0,0.0,0.0,0.001849,2
1671462295953286218,374494,1671462295990456642,gps,2,1,42.3008976639,-83.6991797537,271.020111084,0.0001,0.0,0.0,0.0,0.000121,0.0,0.0,0.0,0.001849,2
1671462295963329669,374495,1671462296000462761,gps,2,1,42.3008976641,-83.6991797548,271.020111084,0.0001,0.0,0.0,0.0,0.000121,0.0,0.0,0.0,0.001849,2
1671462295973301057,374496,1671462296010521687,gps,2,1,42.3008976644,-83.6991797559,271.020141602,0.0001,0.0,0.0,0.0,0.000121,0.0,0.0,0.0,0.001849,2
1671462295983504483,374497,1671462296020473335,gps,2,1,42.3008976625,-83.6991797559,271.020233154,0.0001,0.0,0.0,0.0,0.000121,0.0,0.0,0.0,0.001849,2
1671462295993674917,374498,1671462296030466929,gps,2,1,42.3008976627,-83.699179757,271.020233154,0.0001,0.0,0.0,0.0,0.000121,0.0,0.0,0.0,0.001849,2
1671462296003890043,374499,1671462296040606058,gps,2,1,42.3008976629,-83.699179758,271.020263672,0.0001,0.0,0.0,0.0,0.000121,0.0,0.0,0.0,0.001849,2
1671462296013660464,374500,1671462296050574208,gps,2,1,42.30089766,-83.6991797559,271.02041626,0.0001,0.0,0.0,0.0,0.000121,0.0,0.0,0.0,0.001849,2
1671462296023826941,374501,1671462296060511243,gps,2,1,42.3008976602,-83.699179757,271.02041626,0.0001,0.0,0.0,0.0,0.000121,0.0,0.0,0.0,0.001849,2
1671462296033606487,374502,1671462296070610969,gps,2,1,42.3008976604,-83.6991797581,271.020446777,0.0001,0.0,0.0,0.0,0.000121,0.0,0.0,0.0,0.001849,2
1671462296043551344,374503,1671462296080551517,gps,2,1,42.3008976577,-83.699179756,271.020568848,0.0001,0.0,0.0,0.0,0.000121,0.0,0.0,0.0,0.001849,2
1671462296053552563,374504,1671462296090490062,gps,2,1,42.3008976579,-83.6991797571,271.020599365,0.0001,0.0,0.0,0.0,0.000121,0.0,0.0,0.0,0.001849,2
1671462296063450620,374505,1671462296100598859,gps,2,1,42.3008976581,-83.6991797582,271.020599365,0.0001,0.0,0.0,0.0,0.000121,0.0,0.0,0.0,0.001849,2
1671462296073375040,374506,1671462296110592617,gps,2,1,42.3008976554,-83.6991797563,271.020751953,0.0001,0.0,0.0,0.0,0.000121,0.0,0.0,0.0,0.001849,2
1671462296083363931,374507,1671462296120489935,gps,2,1,42.3008976556,-83.6991797574,271.020751953,0.0001,0.0,0.0,0.0,0.000121,0.0,0.0,0.0,0.001849,2
1671462296093344024,374508,1671462296130550452,gps,2,1,42.3008976558,-83.6991797585,271.020782471,0.0001,0.0,0.0,0.0,0.000121,0.0,0.0,0.0,0.001849,2
1671462296103321547,374509,1671462296140471632,gps,2,1,42.3008976532,-83.6991797567,271.020904541,0.0001,0.0,0.0,0.0,0.000121,0.0,0.0,0.0,0.001849,2
1671462296113383536,374510,1671462296150491293,gps,2,1,42.3008976534,-83.6991797578,271.020904541,0.0001,0.0,0.0,0.0,0.000121,0.0,0.0,0.0,0.001849,2
1671462296123236313,374511,1671462296160548851,gps,2,1,42.3008976536,-83.6991797589,271.020935059,0.0001,0.0,0.0,0.0,0.000121,0.0,0.0,0.0,0.001849,2
1671462296133239308,374512,1671462296170474010,gps,2,1,42.3008976512,-83.699179757,271.021057129,0.0001,0.0,0.0,0.0,0.000121,0.0,0.0,0.0,0.001849,2
1671462296143263947,374513,1671462296180464619,gps,2,1,42.3008976514,-83.6991797581,271.021057129,0.0001,0.0,0.0,0.0,0.000121,0.0,0.0,0.0,0.001849,2
1671462296153898278,374514,1671462296190546308,gps,2,1,42.3008976516,-83.6991797593,271.021087646,0.0001,0.0,0.0,0.0,0.000121,0.0,0.0,0.0,0.001849,2
1671462296163495463,374515,1671462296200582201,gps,2,1,42.3008976492,-83.6991797574,271.021179199,0.0001,0.0,0.0,0.0,0.000121,0.0,0.0,0.0,0.001849,2
1671462296173486983,374516,1671462296210479188,gps,2,1,42.3008976494,-83.6991797586,271.021209717,0.0001,0.0,0.0,0.0,0.000121,0.0,0.0,0.0,0.001849,2
1671462296183522915,374517,1671462296220565938,gps,2,1,42.3008976496,-83.6991797597,271.021209717,0.0001,0.0,0.0,0.0,0.000121,0.0,0.0,0.0,0.001849,2
1671462296193485496,374518,1671462296230484099,gps,2,1,42.3008976473,-83.699179758,271.021331787,0.0001,0.0,0.0,0.0,0.000121,0.0,0.0,0.0,0.001849,2
1671462296203376042,374519,1671462296240486156,gps,2,1,42.3008976475,-83.6991797591,271.021362305,0.0001,0.0,0.0,0.0,0.000121,0.0,0.0,0.0,0.001849,2
1671462296213474138,374520,1671462296250552558,gps,2,1,42.3008976477,-83.6991797602,271.021362305,0.0001,0.0,0.0,0.0,0.000121,0.0,0.0,0.0,0.001849,2
1671462296223328147,374521,1671462296260475765,gps,2,1,42.3008976455,-83.6991797585,271.021484375,0.0001,0.0,0.0,0.0,0.000121,0.0,0.0,0.0,0.001849,2
1671462296233285426,374522,1671462296270473409,gps,2,1,42.3008976456,-83.6991797597,271.021484375,0.0001,0.0,0.0,0.0,0.000121,0.0,0.0,0.0,0.001849,2
1671462296243338164,374523,1671462296280513399,gps,2,1,42.3008976458,-83.6991797607,271.021514893,0.0001,0.0,0.0,0.0,0.000121,0.0,0.0,0.0,0.001849,2
1671462296253478531,374524,1671462296290469057,gps,2,1,42.3008976436,-83.6991797591,271.021606445,4.9e-05,0.0,0.0,0.0,8.1e-05,0.0,0.0,0.0,0.001764,2
1671462296263305616,374525,1671462296300491201,gps,2,1,42.3008976438,-83.6991797602,271.021636963,4.9e-05,0.0,0.0,0.0,8.1e-05,0.0,0.0,0.0,0.001764,2
1671462296273170069,374526,1671462296310542469,gps,2,1,42.3008976439,-83.6991797613,271.02166748,4.9e-05,0.0,0.0,0.0,8.1e-05,0.0,0.0,0.0,0.001764,2
1671462296283376369,374527,1671462296320460193,gps,2,1,42.3008976418,-83.6991797598,271.021759033,4.9e-05,0.0,0.0,0.0,8.1e-05,0.0,0.0,0.0,0.001764,2
1671462296293159648,374528,1671462296330482534,gps,2,1,42.300897642,-83.6991797609,271.021789551,4.9e-05,0.0,0.0,0.0,8.1e-05,0.0,0.0,0.0,0.001764,2
1671462296303745111,374529,1671462296340539305,gps,2,1,42.3008976421,-83.699179762,271.021789551,4.9e-05,0.0,0.0,0.0,8.1e-05,0.0,0.0,0.0,0.001764,2
1671462296313563824,374530,1671462296350477495,gps,2,1,42.3008976401,-83.6991797605,271.021911621,4.9e-05,0.0,0.0,0.0,8.1e-05,0.0,0.0,0.0,0.001764,2
1671462296323680367,374531,1671462296360485076,gps,2,1,42.3008976402,-83.6991797616,271.021911621,4.9e-05,0.0,0.0,0.0,8.1e-05,0.0,0.0,0.0,0.001764,2
1671462296333431541,374532,1671462296370535317,gps,2,1,42.3008976403,-83.6991797627,271.021942139,4.9e-05,0.0,0.0,0.0,8.1e-05,0.0,0.0,0.0,0.001764,2
1671462296343336147,374533,1671462296380485585,gps,2,1,42.3008976384,-83.6991797613,271.022033691,4.9e-05,0.0,0.0,0.0,8.1e-05,0.0,0.0,0.0,0.001764,2
1671462296353469923,374534,1671462296390487521,gps,2,1,42.3008976385,-83.6991797624,271.022033691,4.9e-05,0.0,0.0,0.0,8.1e-05,0.0,0.0,0.0,0.001764,2
1671462296363434026,374535,1671462296400548005,gps,2,1,42.3008976386,-83.6991797635,271.022064209,4.9e-05,0.0,0.0,0.0,8.1e-05,0.0,0.0,0.0,0.001764,2
1671462296373346837,374536,1671462296410482105,gps,2,1,42.3008976367,-83.6991797623,271.022155762,4.9e-05,0.0,0.0,0.0,8.1e-05,0.0,0.0,0.0,0.001764,2
1671462296383408874,374537,1671462296420571282,gps,2,1,42.3008976368,-83.6991797633,271.022186279,4.9e-05,0.0,0.0,0.0,8.1e-05,0.0,0.0,0.0,0.001764,2
1671462296393311325,374538,1671462296430486242,gps,2,1,42.300897637,-83.6991797645,271.022186279,4.9e-05,0.0,0.0,0.0,8.1e-05,0.0,0.0,0.0,0.001764,2
1671462296403394058,374539,1671462296440546724,gps,2,1,42.3008976352,-83.6991797634,271.022277832,4.9e-05,0.0,0.0,0.0,8.1e-05,0.0,0.0,0.0,0.001764,2
1671462296413731191,374540,1671462296450604505,gps,2,1,42.3008976353,-83.6991797646,271.02230835,4.9e-05,0.0,0.0,0.0,8.1e-05,0.0,0.0,0.0,0.001764,2
1671462296423662763,374541,1671462296460556495,gps,2,1,42.3008976355,-83.6991797657,271.02230835,4.9e-05,0.0,0.0,0.0,8.1e-05,0.0,0.0,0.0,0.001764,2
1671462296433192195,374542,1671462296470480221,gps,2,1,42.3008976337,-83.6991797647,271.02243042,4.9e-05,0.0,0.0,0.0,8.1e-05,0.0,0.0,0.0,0.001764,2
1671462296443744071,374543,1671462296480500024,gps,2,1,42.3008976339,-83.6991797659,271.02243042,4.9e-05,0.0,0.0,0.0,8.1e-05,0.0,0.0,0.0,0.001764,2
1671462296453593616,374544,1671462296490545203,gps,2,1,42.300897634,-83.699179767,271.022460938,4.9e-05,0.0,0.0,0.0,8.1e-05,0.0,0.0,0.0,0.001764,2
1671462296463566691,374545,1671462296500478227,gps,2,1,42.3008976323,-83.6991797661,271.02255249,4.9e-05,0.0,0.0,0.0,8.1e-05,0.0,0.0,0.0,0.001764,2
1671462296473537350,374546,1671462296510488537,gps,2,1,42.3008976325,-83.6991797672,271.02255249,4.9e-05,0.0,0.0,0.0,8.1e-05,0.0,0.0,0.0,0.001764,2
1671462296483358302,374547,1671462296520539407,gps,2,1,42.3008976326,-83.6991797684,271.022583008,4.9e-05,0.0,0.0,0.0,8.1e-05,0.0,0.0,0.0,0.001764,2
1671462296493398802,374548,1671462296530478875,gps,2,1,42.300897631,-83.6991797675,271.022674561,4.9e-05,0.0,0.0,0.0,8.1e-05,0.0,0.0,0.0,0.001764,2
1671462296503565971,374549,1671462296540624963,gps,2,1,42.3008976311,-83.6991797685,271.022674561,4.9e-05,0.0,0.0,0.0,8.1e-05,0.0,0.0,0.0,0.001764,2
1671462296513414847,374550,1671462296550651552,gps,2,1,42.3008976313,-83.6991797697,271.022705078,4.9e-05,0.0,0.0,0.0,8.1e-05,0.0,0.0,0.0,0.001764,2
1671462296523443089,374551,1671462296560556807,gps,2,1,42.3008976298,-83.6991797688,271.022796631,4.9e-05,0.0,0.0,0.0,8.1e-05,0.0,0.0,0.0,0.001764,2
1671462296533352001,374552,1671462296570577762,gps,2,1,42.3008976299,-83.6991797697,271.022827148,4.9e-05,0.0,0.0,0.0,8.1e-05,0.0,0.0,0.0,0.001764,2
1671462296543344978,374553,1671462296580533664,gps,2,1,42.3008976301,-83.6991797708,271.022827148,4.9e-05,0.0,0.0,0.0,8.1e-05,0.0,0.0,0.0,0.001764,2
1671462296553412017,374554,1671462296590570863,gps,2,1,42.300897629,-83.6991797679,271.023010254,4.9e-05,0.0,0.0,0.0,8.1e-05,0.0,0.0,0.0,0.001764,2
1671462296563355125,374555,1671462296600605520,gps,2,1,42.3008976292,-83.6991797688,271.023010254,4.9e-05,0.0,0.0,0.0,8.1e-05,0.0,0.0,0.0,0.001764,2
1671462296573381266,374556,1671462296610498394,gps,2,1,42.3008976293,-83.6991797698,271.023040771,4.9e-05,0.0,0.0,0.0,8.1e-05,0.0,0.0,0.0,0.001764,2
1671462296583069256,374557,1671462296620483290,gps,2,1,42.3008976283,-83.6991797669,271.023193359,4.9e-05,0.0,0.0,0.0,8.1e-05,0.0,0.0,0.0,0.001764,2
1671462296593642153,374558,1671462296630530648,gps,2,1,42.3008976284,-83.6991797677,271.023223877,4.9e-05,0.0,0.0,0.0,8.1e-05,0.0,0.0,0.0,0.001764,2
1671462296603782399,374559,1671462296640565287,gps,2,1,42.3008976286,-83.6991797686,271.023223877,4.9e-05,0.0,0.0,0.0,8.1e-05,0.0,0.0,0.0,0.001764,2
1671462296613621558,374560,1671462296650485889,gps,2,1,42.3008976276,-83.6991797655,271.023376465,4.9e-05,0.0,0.0,0.0,8.1e-05,0.0,0.0,0.0,0.001764,2
1671462296623533077,374561,1671462296660494420,gps,2,1,42.3008976277,-83.6991797656,271.023376465,4.9e-05,0.0,0.0,0.0,8.1e-05,0.0,0.0,0.0,0.001764,2
1671462296633550677,374562,1671462296670562064,gps,2,1,42.3008976279,-83.6991797662,271.023406982,4.9e-05,0.0,0.0,0.0,8.1e-05,0.0,0.0,0.0,0.001764,2
1671462296643279470,374563,1671462296680489170,gps,2,1,42.300897627,-83.6991797623,271.023529053,4.9e-05,0.0,0.0,0.0,8.1e-05,0.0,0.0,0.0,0.001764,2
1671462296653373985,374564,1671462296690546318,gps,2,1,42.3008976271,-83.6991797617,271.023529053,4.9e-05,0.0,0.0,0.0,8.1e-05,0.0,0.0,0.0,0.001764,2
1671462296663547389,374565,1671462296700564418,gps,2,1,42.3008976272,-83.6991797616,271.02355957,4.9e-05,0.0,0.0,0.0,8.1e-05,0.0,0.0,0.0,0.001764,2
1671462296673373798,374566,1671462296710465784,gps,2,1,42.3008976263,-83.699179757,271.023651123,4.9e-05,0.0,0.0,0.0,8.1e-05,0.0,0.0,0.0,0.001764,2
1671462296683365811,374567,1671462296720552746,gps,2,1,42.3008976263,-83.6991797552,271.023651123,4.9e-05,0.0,0.0,0.0,8.1e-05,0.0,0.0,0.0,0.001764,2
1671462296693253549,374568,1671462296730468564,gps,2,1,42.3008976264,-83.6991797542,271.023651123,4.9e-05,0.0,0.0,0.0,8.1e-05,0.0,0.0,0.0,0.001764,2
1671462296703312822,374569,1671462296740462871,gps,2,1,42.3008976255,-83.6991797485,271.023773193,4.9e-05,0.0,0.0,0.0,8.1e-05,0.0,0.0,0.0,0.001764,2
1671462296713823926,374570,1671462296750541734,gps,2,1,42.3008976255,-83.6991797455,271.023773193,4.9e-05,0.0,0.0,0.0,8.1e-05,0.0,0.0,0.0,0.001764,2
1671462296723616843,374571,1671462296760531725,gps,2,1,42.3008976256,-83.6991797434,271.023773193,4.9e-05,0.0,0.0,0.0,8.1e-05,0.0,0.0,0.0,0.001764,2
1671462296733555327,374572,1671462296770497453,gps,2,1,42.3008976247,-83.6991797365,271.023864746,4.9e-05,0.0,0.0,0.0,8.1e-05,0.0,0.0,0.0,0.001764,2
1671462296743534422,374573,1671462296780486494,gps,2,1,42.3008976246,-83.699179732,271.023864746,4.9e-05,0.0,0.0,0.0,8.1e-05,0.0,0.0,0.0,0.001764,2
1671462296753730653,374574,1671462296790543094,gps,2,1,42.3008976247,-83.6991797287,271.023864746,4.9e-05,0.0,0.0,0.0,8.1e-05,0.0,0.0,0.0,0.001764,2
1671462296763568234,374575,1671462296800514101,gps,2,1,42.3008976237,-83.6991797205,271.023986816,4.9e-05,0.0,0.0,0.0,8.1e-05,0.0,0.0,0.0,0.001764,2
1671462296773426455,374576,1671462296810495549,gps,2,1,42.3008976237,-83.6991797147,271.023986816,4.9e-05,0.0,0.0,0.0,8.1e-05,0.0,0.0,0.0,0.001764,2
1671462296783345817,374577,1671462296820557238,gps,2,1,42.3008976237,-83.6991797098,271.023986816,4.9e-05,0.0,0.0,0.0,8.1e-05,0.0,0.0,0.0,0.001764,2
1671462296793410089,374578,1671462296830477169,gps,2,1,42.3008976228,-83.6991797003,271.024108887,4.9e-05,0.0,0.0,0.0,8.1e-05,0.0,0.0,0.0,0.001764,2
1671462296803480545,374579,1671462296840490623,gps,2,1,42.3008976227,-83.699179693,271.024108887,4.9e-05,0.0,0.0,0.0,8.1e-05,0.0,0.0,0.0,0.001764,2
1671462296813407533,374580,1671462296850534289,gps,2,1,42.3008976227,-83.6991796869,271.024108887,4.9e-05,0.0,0.0,0.0,8.1e-05,0.0,0.0,0.0,0.001764,2
1671462296823321393,374581,1671462296860483466,gps,2,1,42.3008976218,-83.6991796761,271.024230957,4.9e-05,0.0,0.0,0.0,8.1e-05,0.0,0.0,0.0,0.001764,2
1671462296833467729,374582,1671462296870477539,gps,2,1,42.3008976217,-83.6991796674,271.024230957,4.9e-05,0.0,0.0,0.0,8.1e-05,0.0,0.0,0.0,0.001764,2
1671462296843186965,374583,1671462296880552002,gps,2,1,42.3008976217,-83.6991796599,271.024230957,4.9e-05,0.0,0.0,0.0,8.1e-05,0.0,0.0,0.0,0.001764,2
1671462296853179572,374584,1671462296890566431,gps,2,1,42.3008976208,-83.6991796477,271.024353027,4.9e-05,0.0,0.0,0.0,8.1e-05,0.0,0.0,0.0,0.001764,2
1671462296863316451,374585,1671462296900480423,gps,2,1,42.3008976207,-83.6991796376,271.024353027,4.9e-05,0.0,0.0,0.0,8.1e-05,0.0,0.0,0.0,0.001764,2
1671462296873793602,374586,1671462296910559366,gps,2,1,42.3008976207,-83.6991796286,271.024353027,4.9e-05,0.0,0.0,0.0,8.1e-05,0.0,0.0,0.0,0.001764,2
1671462296883572006,374587,1671462296920477930,gps,2,1,42.3008976197,-83.699179615,271.02444458,4.9e-05,0.0,0.0,0.0,8.1e-05,0.0,0.0,0.0,0.001764,2
1671462296893497912,374588,1671462296930476748,gps,2,1,42.3008976197,-83.6991796034,271.02444458,4.9e-05,0.0,0.0,0.0,8.1e-05,0.0,0.0,0.0,0.001764,2
1671462296903528935,374589,1671462296940558806,gps,2,1,42.3008976196,-83.699179593,271.024475098,4.9e-05,0.0,0.0,0.0,8.1e-05,0.0,0.0,0.0,0.001764,2
1671462296913546800,374590,1671462296950580773,gps,2,1,42.3008976187,-83.699179578,271.024536133,4.9e-05,0.0,0.0,0.0,8.1e-05,0.0,0.0,0.0,0.001764,2
1671462296923488656,374591,1671462296960487806,gps,2,1,42.3008976187,-83.6991795648,271.024536133,4.9e-05,0.0,0.0,0.0,8.1e-05,0.0,0.0,0.0,0.001764,2
1671462296933381609,374592,1671462296970558899,gps,2,1,42.3008976187,-83.6991795529,271.02456665,4.9e-05,0.0,0.0,0.0,8.1e-05,0.0,0.0,0.0,0.001764,2
1671462296943255647,374593,1671462296980488026,gps,2,1,42.3008976178,-83.6991795362,271.024627686,4.9e-05,0.0,0.0,0.0,8.1e-05,0.0,0.0,0.0,0.001764,2
1671462296953543722,374594,1671462296990537587,gps,2,1,42.3008976178,-83.6991795214,271.024627686,4.9e-05,0.0,0.0,0.0,8.1e-05,0.0,0.0,0.0,0.001764,2
1671462296963320188,374595,1671462297000470038,gps,2,1,42.3008976178,-83.6991795081,271.024627686,4.9e-05,0.0,0.0,0.0,8.1e-05,0.0,0.0,0.0,0.001764,2
1671462296973518288,374596,1671462297010475524,gps,2,1,42.3008976169,-83.6991794899,271.024688721,4.9e-05,0.0,0.0,0.0,8.1e-05,0.0,0.0,0.0,0.001764,2
1671462296983196008,374597,1671462297020483193,gps,2,1,42.3008976169,-83.6991794735,271.024688721,4.9e-05,0.0,0.0,0.0,8.1e-05,0.0,0.0,0.0,0.001764,2
1671462296993161151,374598,1671462297030560417,gps,2,1,42.3008976169,-83.6991794584,271.024688721,4.9e-05,0.0,0.0,0.0,8.1e-05,0.0,0.0,0.0,0.001764,2
1671462297003291716,374599,1671462297040636544,gps,2,1,42.3008976186,-83.6991794344,271.024505615,4.9e-05,0.0,0.0,0.0,8.1e-05,0.0,0.0,0.0,0.001764,2
1671462297013718485,374600,1671462297050575601,gps,2,1,42.3008976186,-83.6991794163,271.024505615,4.9e-05,0.0,0.0,0.0,8.1e-05,0.0,0.0,0.0,0.001764,2
1671462297023621343,374601,1671462297060563617,gps,2,1,42.3008976186,-83.6991793995,271.024505615,4.9e-05,0.0,0.0,0.0,8.1e-05,0.0,0.0,0.0,0.001764,2
1671462297033621160,374602,1671462297070544251,gps,2,1,42.3008976202,-83.6991793741,271.02432251,4.9e-05,0.0,0.0,0.0,8.1e-05,0.0,0.0,0.0,0.001764,2
1671462297043330123,374603,1671462297080555592,gps,2,1,42.3008976203,-83.6991793542,271.02432251,4.9e-05,0.0,0.0,0.0,8.1e-05,0.0,0.0,0.0,0.001764,2
1671462297053355255,374604,1671462297090537508,gps,2,1,42.3008976202,-83.6991793358,271.02432251,4.9e-05,0.0,0.0,0.0,8.1e-05,0.0,0.0,0.0,0.001764,2
1671462297063439753,374605,1671462297100526634,gps,2,1,42.3008976218,-83.6991793088,271.024139404,4.9e-05,0.0,0.0,0.0,8.1e-05,0.0,0.0,0.0,0.001764,2
1671462297073431868,374606,1671462297110565422,gps,2,1,42.3008976218,-83.6991792873,271.024139404,4.9e-05,0.0,0.0,0.0,8.1e-05,0.0,0.0,0.0,0.001764,2
1671462297083404364,374607,1671462297120544741,gps,2,1,42.3008976219,-83.6991792672,271.024139404,4.9e-05,0.0,0.0,0.0,8.1e-05,0.0,0.0,0.0,0.001764,2
1671462297093509821,374608,1671462297130546163,gps,2,1,42.3008976234,-83.6991792387,271.023956299,4.9e-05,0.0,0.0,0.0,8.1e-05,0.0,0.0,0.0,0.001764,2
1671462297103496653,374609,1671462297140540162,gps,2,1,42.3008976234,-83.6991792154,271.023956299,4.9e-05,0.0,0.0,0.0,8.1e-05,0.0,0.0,0.0,0.001764,2
1671462297113294700,374610,1671462297150538866,gps,2,1,42.3008976235,-83.6991791936,271.023956299,4.9e-05,0.0,0.0,0.0,8.1e-05,0.0,0.0,0.0,0.001764,2
1671462297123372002,374611,1671462297160532772,gps,2,1,42.3008976249,-83.6991791636,271.023773193,4.9e-05,0.0,0.0,0.0,8.1e-05,0.0,0.0,0.0,0.001764,2
1671462297133770142,374612,1671462297170558333,gps,2,1,42.300897625,-83.6991791388,271.023773193,4.9e-05,0.0,0.0,0.0,8.1e-05,0.0,0.0,0.0,0.001764,2
1671462297143257887,374613,1671462297180549091,gps,2,1,42.300897625,-83.699179115,271.023773193,4.9e-05,0.0,0.0,0.0,8.1e-05,0.0,0.0,0.0,0.001764,2
1671462297153760230,374614,1671462297190556618,gps,2,1,42.3008976264,-83.6991790836,271.023590088,4.9e-05,0.0,0.0,0.0,8.1e-05,0.0,0.0,0.0,0.001764,2
1671462297163830316,374615,1671462297200651726,gps,2,1,42.3008976263,-83.6991790569,271.023590088,4.9e-05,0.0,0.0,0.0,8.1e-05,0.0,0.0,0.0,0.001764,2
1671462297173214018,374616,1671462297210538276,gps,2,1,42.3008976263,-83.6991790318,271.023590088,4.9e-05,0.0,0.0,0.0,8.1e-05,0.0,0.0,0.0,0.001764,2
1671462297183686152,374617,1671462297220544990,gps,2,1,42.3008976277,-83.6991789989,271.0234375,4.9e-05,0.0,0.0,0.0,8.1e-05,0.0,0.0,0.0,0.001764,2
1671462297193717448,374618,1671462297230591160,gps,2,1,42.3008976276,-83.6991789705,271.0234375,4.9e-05,0.0,0.0,0.0,8.1e-05,0.0,0.0,0.0,0.001764,2
1671462297203782793,374619,1671462297240570631,gps,2,1,42.3008976276,-83.6991789436,271.0234375,4.9e-05,0.0,0.0,0.0,8.1e-05,0.0,0.0,0.0,0.001764,2
1671462297213453733,374620,1671462297250503243,gps,2,1,42.3008976288,-83.6991789091,271.023284912,4.9e-05,0.0,0.0,0.0,8.1e-05,0.0,0.0,0.0,0.001764,2
1671462297223575862,374621,1671462297260497444,gps,2,1,42.3008976288,-83.699178879,271.023284912,4.9e-05,0.0,0.0,0.0,8.1e-05,0.0,0.0,0.0,0.001764,2
1671462297233396694,374622,1671462297270523126,gps,2,1,42.3008976287,-83.6991788502,271.023254395,4.9e-05,0.0,0.0,0.0,8.1e-05,0.0,0.0,0.0,0.001764,2
1671462297243218613,374623,1671462297280484253,gps,2,1,42.3008976299,-83.699178814,271.023132324,4.9e-05,0.0,0.0,0.0,8.1e-05,0.0,0.0,0.0,0.001764,2
1671462297253565857,374624,1671462297290473121,gps,2,1,42.3008976298,-83.6991787821,271.023101807,6.4e-05,0.0,0.0,0.0,8.1e-05,0.0,0.0,0.0,0.001764,2
1671462297263449106,374625,1671462297300563060,gps,2,1,42.3008976298,-83.6991787517,271.023101807,6.4e-05,0.0,0.0,0.0,8.1e-05,0.0,0.0,0.0,0.001764,2
1671462297273234695,374626,1671462297310468198,gps,2,1,42.3008976309,-83.6991787138,271.022949219,6.4e-05,0.0,0.0,0.0,8.1e-05,0.0,0.0,0.0,0.001764,2
1671462297283261998,374627,1671462297320479605,gps,2,1,42.3008976308,-83.6991786799,271.022918701,6.4e-05,0.0,0.0,0.0,8.1e-05,0.0,0.0,0.0,0.001764,2
1671462297293239629,374628,1671462297330549524,gps,2,1,42.3008976308,-83.6991786476,271.022918701,6.4e-05,0.0,0.0,0.0,8.1e-05,0.0,0.0,0.0,0.001764,2
1671462297303324974,374629,1671462297340484513,gps,2,1,42.300897632,-83.6991786079,271.022766113,6.4e-05,0.0,0.0,0.0,8.1e-05,0.0,0.0,0.0,0.001764,2
1671462297313212302,374630,1671462297350495492,gps,2,1,42.300897632,-83.699178572,271.022735596,6.4e-05,0.0,0.0,0.0,8.1e-05,0.0,0.0,0.0,0.001764,2
1671462297323893240,374631,1671462297360547401,gps,2,1,42.3008976319,-83.6991785378,271.022705078,6.4e-05,0.0,0.0,0.0,8.1e-05,0.0,0.0,0.0,0.001764,2
1671462297333714927,374632,1671462297370488714,gps,2,1,42.300897633,-83.6991784962,271.022583008,6.4e-05,0.0,0.0,0.0,8.1e-05,0.0,0.0,0.0,0.001764,2
1671462297343642047,374633,1671462297380537934,gps,2,1,42.3008976331,-83.6991784583,271.02255249,6.4e-05,0.0,0.0,0.0,8.1e-05,0.0,0.0,0.0,0.001764,2
1671462297353791030,374634,1671462297390555713,gps,2,1,42.300897633,-83.6991784221,271.022521973,6.4e-05,0.0,0.0,0.0,8.1e-05,0.0,0.0,0.0,0.001764,2
1671462297363585056,374635,1671462297400495118,gps,2,1,42.3008976342,-83.6991783786,271.022399902,6.4e-05,0.0,0.0,0.0,8.1e-05,0.0,0.0,0.0,0.001764,2
1671462297373608703,374636,1671462297410479308,gps,2,1,42.3008976343,-83.6991783386,271.022369385,6.4e-05,0.0,0.0,0.0,8.1e-05,0.0,0.0,0.0,0.001764,2
1671462297383519371,374637,1671462297420553248,gps,2,1,42.3008976343,-83.6991783003,271.02230835,6.4e-05,0.0,0.0,0.0,8.1e-05,0.0,0.0,0.0,0.001764,2
1671462297393397649,374638,1671462297430475974,gps,2,1,42.3008976353,-83.6991782548,271.022186279,6.4e-05,0.0,0.0,0.0,8.1e-05,0.0,0.0,0.0,0.001764,2
1671462297403484774,374639,1671462297440571815,gps,2,1,42.3008976353,-83.6991782125,271.022125244,6.4e-05,0.0,0.0,0.0,8.1e-05,0.0,0.0,0.0,0.001764,2
1671462297413440142,374640,1671462297450700712,gps,2,1,42.3008976355,-83.699178172,271.022094727,6.4e-05,0.0,0.0,0.0,8.1e-05,0.0,0.0,0.0,0.001764,2
1671462297423352885,374641,1671462297460529109,gps,2,1,42.3008976364,-83.6991781244,271.021942139,6.4e-05,0.0,0.0,0.0,8.1e-05,0.0,0.0,0.0,0.001764,2
1671462297433308110,374642,1671462297470506875,gps,2,1,42.3008976366,-83.6991780799,271.021911621,6.4e-05,0.0,0.0,0.0,8.1e-05,0.0,0.0,0.0,0.001764,2
1671462297443671407,374643,1671462297480556429,gps,2,1,42.3008976367,-83.6991780372,271.021850586,6.4e-05,0.0,0.0,0.0,8.1e-05,0.0,0.0,0.0,0.001764,2
1671462297453193191,374644,1671462297490493858,gps,2,1,42.3008976377,-83.6991779875,271.021728516,6.4e-05,0.0,0.0,0.0,8.1e-05,0.0,0.0,0.0,0.001764,2
1671462297463178118,374645,1671462297500484393,gps,2,1,42.3008976378,-83.6991779408,271.02166748,6.4e-05,0.0,0.0,0.0,8.1e-05,0.0,0.0,0.0,0.001764,2
1671462297473875911,374646,1671462297510557279,gps,2,1,42.3008976379,-83.6991778959,271.021636963,6.4e-05,0.0,0.0,0.0,8.1e-05,0.0,0.0,0.0,0.001764,2
1671462297483678642,374647,1671462297520490586,gps,2,1,42.3008976389,-83.6991778441,271.021484375,6.4e-05,0.0,0.0,0.0,8.1e-05,0.0,0.0,0.0,0.001764,2
1671462297493632840,374648,1671462297530510842,gps,2,1,42.300897639,-83.6991777952,271.02142334,6.4e-05,0.0,0.0,0.0,8.1e-05,0.0,0.0,0.0,0.001764,2
1671462297503707987,374649,1671462297540603055,gps,2,1,42.3008976391,-83.699177748,271.021362305,6.4e-05,0.0,0.0,0.0,8.1e-05,0.0,0.0,0.0,0.001764,2
1671462297513593915,374650,1671462297550584814,gps,2,1,42.30089764,-83.6991776942,271.021240234,6.4e-05,0.0,0.0,0.0,8.1e-05,0.0,0.0,0.0,0.001764,2
1671462297523629316,374651,1671462297560503639,gps,2,1,42.3008976401,-83.699177643,271.021179199,6.4e-05,0.0,0.0,0.0,8.1e-05,0.0,0.0,0.0,0.001764,2
1671462297533451263,374652,1671462297570610270,gps,2,1,42.3008976402,-83.6991775936,271.021118164,6.4e-05,0.0,0.0,0.0,8.1e-05,0.0,0.0,0.0,0.001764,2
1671462297543404014,374653,1671462297580556485,gps,2,1,42.3008976417,-83.6991775357,271.020843506,6.4e-05,0.0,0.0,0.0,8.1e-05,0.0,0.0,0.0,0.001764,2
1671462297553512132,374654,1671462297590549436,gps,2,1,42.3008976419,-83.6991774823,271.020782471,6.4e-05,0.0,0.0,0.0,8.1e-05,0.0,0.0,0.0,0.001764,2
1671462297563366322,374655,1671462297600575373,gps,2,1,42.300897642,-83.6991774307,271.020751953,6.4e-05,0.0,0.0,0.0,8.1e-05,0.0,0.0,0.0,0.001764,2
1671462297573528729,374656,1671462297610516519,gps,2,1,42.3008976435,-83.6991773707,271.020477295,6.4e-05,0.0,0.0,0.0,8.1e-05,0.0,0.0,0.0,0.001764,2
1671462297583163252,374657,1671462297620496765,gps,2,1,42.3008976438,-83.699177315,271.02041626,6.4e-05,0.0,0.0,0.0,8.1e-05,0.0,0.0,0.0,0.001764,2
1671462297593870238,374658,1671462297630590306,gps,2,1,42.3008976439,-83.6991772612,271.020355225,6.4e-05,0.0,0.0,0.0,8.1e-05,0.0,0.0,0.0,0.001764,2
1671462297603824390,374659,1671462297640557547,gps,2,1,42.3008976454,-83.6991771991,271.020080566,6.4e-05,0.0,0.0,0.0,8.1e-05,0.0,0.0,0.0,0.001764,2
1671462297613733602,374660,1671462297650518192,gps,2,1,42.3008976457,-83.6991771412,271.020019531,6.4e-05,0.0,0.0,0.0,8.1e-05,0.0,0.0,0.0,0.001764,2
1671462297623929668,374661,1671462297660569114,gps,2,1,42.3008976459,-83.6991770852,271.019958496,6.4e-05,0.0,0.0,0.0,8.1e-05,0.0,0.0,0.0,0.001764,2
1671462297633709192,374662,1671462297670515938,gps,2,1,42.3008976475,-83.6991770209,271.019683838,6.4e-05,0.0,0.0,0.0,8.1e-05,0.0,0.0,0.0,0.001764,2
1671462297643489275,374663,1671462297680488727,gps,2,1,42.3008976477,-83.6991769607,271.019622803,6.4e-05,0.0,0.0,0.0,8.1e-05,0.0,0.0,0.0,0.001764,2
1671462297653324830,374664,1671462297690547514,gps,2,1,42.300897648,-83.6991769024,271.019561768,6.4e-05,0.0,0.0,0.0,8.1e-05,0.0,0.0,0.0,0.001764,2
1671462297663536943,374665,1671462297700650452,gps,2,1,42.3008976496,-83.699176836,271.019287109,6.4e-05,0.0,0.0,0.0,8.1e-05,0.0,0.0,0.0,0.001764,2
1671462297673708243,374666,1671462297710505205,gps,2,1,42.3008976499,-83.6991767735,271.019226074,6.4e-05,0.0,0.0,0.0,8.1e-05,0.0,0.0,0.0,0.001764,2
1671462297683297623,374667,1671462297720536347,gps,2,1,42.3008976502,-83.6991767129,271.019165039,6.4e-05,0.0,0.0,0.0,8.1e-05,0.0,0.0,0.0,0.001764,2
1671462297693357729,374668,1671462297730473388,gps,2,1,42.3008976518,-83.6991766444,271.018890381,6.4e-05,0.0,0.0,0.0,8.1e-05,0.0,0.0,0.0,0.001764,2
1671462297703486859,374669,1671462297740480073,gps,2,1,42.3008976522,-83.6991765796,271.018829346,6.4e-05,0.0,0.0,0.0,8.1e-05,0.0,0.0,0.0,0.001764,2
1671462297713325979,374670,1671462297750562816,gps,2,1,42.3008976525,-83.6991765166,271.018768311,6.4e-05,0.0,0.0,0.0,8.1e-05,0.0,0.0,0.0,0.001764,2
1671462297723404553,374671,1671462297760501662,gps,2,1,42.3008976542,-83.6991764459,271.018493652,6.4e-05,0.0,0.0,0.0,8.1e-05,0.0,0.0,0.0,0.001764,2
1671462297733128755,374672,1671462297770486120,gps,2,1,42.3008976546,-83.6991763787,271.018432617,6.4e-05,0.0,0.0,0.0,8.1e-05,0.0,0.0,0.0,0.001764,2
1671462297743681070,374673,1671462297780562903,gps,2,1,42.300897655,-83.6991763136,271.018371582,6.4e-05,0.0,0.0,0.0,8.1e-05,0.0,0.0,0.0,0.001764,2
1671462297753647141,374674,1671462297790501896,gps,2,1,42.3008976567,-83.6991762406,271.018127441,6.4e-05,0.0,0.0,0.0,8.1e-05,0.0,0.0,0.0,0.001764,2
1671462297763683834,374675,1671462297800528237,gps,2,1,42.3008976571,-83.699176171,271.018035889,6.4e-05,0.0,0.0,0.0,8.1e-05,0.0,0.0,0.0,0.001764,2
1671462297773886516,374676,1671462297810548416,gps,2,1,42.3008976576,-83.6991761034,271.017974854,6.4e-05,0.0,0.0,0.0,8.1e-05,0.0,0.0,0.0,0.001764,2
1671462297783584511,374677,1671462297820561164,gps,2,1,42.3008976592,-83.6991760281,271.017730713,6.4e-05,0.0,0.0,0.0,8.1e-05,0.0,0.0,0.0,0.001764,2
1671462297793427035,374678,1671462297830513416,gps,2,1,42.3008976597,-83.6991759561,271.017669678,6.4e-05,0.0,0.0,0.0,8.1e-05,0.0,0.0,0.0,0.001764,2
1671462297803662446,374679,1671462297840556819,gps,2,1,42.3008976602,-83.699175886,271.017578125,6.4e-05,0.0,0.0,0.0,8.1e-05,0.0,0.0,0.0,0.001764,2
1671462297813405639,374680,1671462297850490169,gps,2,1,42.3008976618,-83.6991758084,271.017333984,6.4e-05,0.0,0.0,0.0,8.1e-05,0.0,0.0,0.0,0.001764,2
1671462297823568352,374681,1671462297860487402,gps,2,1,42.3008976623,-83.6991757338,271.017242432,6.4e-05,0.0,0.0,0.0,8.1e-05,0.0,0.0,0.0,0.001764,2
1671462297833380292,374682,1671462297870549891,gps,2,1,42.3008976628,-83.6991756613,271.017181396,6.4e-05,0.0,0.0,0.0,8.1e-05,0.0,0.0,0.0,0.001764,2
1671462297843508871,374683,1671462297880549700,gps,2,1,42.3008976644,-83.6991755812,271.016937256,6.4e-05,0.0,0.0,0.0,8.1e-05,0.0,0.0,0.0,0.001764,2
1671462297853417306,374684,1671462297890509491,gps,2,1,42.3008976649,-83.6991755039,271.016845703,6.4e-05,0.0,0.0,0.0,8.1e-05,0.0,0.0,0.0,0.001764,2
1671462297863257784,374685,1671462297900559982,gps,2,1,42.3008976655,-83.6991754289,271.016784668,6.4e-05,0.0,0.0,0.0,8.1e-05,0.0,0.0,0.0,0.001764,2
1671462297873472949,374686,1671462297910497361,gps,2,1,42.300897667,-83.6991753464,271.016540527,6.4e-05,0.0,0.0,0.0,8.1e-05,0.0,0.0,0.0,0.001764,2
1671462297883230298,374687,1671462297920497008,gps,2,1,42.3008976677,-83.6991752665,271.016479492,6.4e-05,0.0,0.0,0.0,8.1e-05,0.0,0.0,0.0,0.001764,2
1671462297893760736,374688,1671462297930563160,gps,2,1,42.3008976682,-83.6991751887,271.016387939,6.4e-05,0.0,0.0,0.0,8.1e-05,0.0,0.0,0.0,0.001764,2
1671462297903622089,374689,1671462297940497374,gps,2,1,42.3008976695,-83.6991751035,271.016143799,6.4e-05,0.0,0.0,0.0,8.1e-05,0.0,0.0,0.0,0.001764,2
1671462297913701976,374690,1671462297950580203,gps,2,1,42.30089767,-83.6991750208,271.016052246,6.4e-05,0.0,0.0,0.0,8.1e-05,0.0,0.0,0.0,0.001764,2
1671462297923666453,374691,1671462297960563895,gps,2,1,42.3008976705,-83.6991749405,271.015960693,6.4e-05,0.0,0.0,0.0,8.1e-05,0.0,0.0,0.0,0.001764,2
1671462297933496148,374692,1671462297970494019,gps,2,1,42.3008976718,-83.6991748526,271.015716553,6.4e-05,0.0,0.0,0.0,8.1e-05,0.0,0.0,0.0,0.001764,2
1671462297943416407,374693,1671462297980508281,gps,2,1,42.3008976723,-83.6991747669,271.015594482,6.4e-05,0.0,0.0,0.0,8.1e-05,0.0,0.0,0.0,0.001764,2
1671462297953663622,374694,1671462297990541333,gps,2,1,42.3008976728,-83.6991746837,271.01550293,6.4e-05,0.0,0.0,0.0,8.1e-05,0.0,0.0,0.0,0.001764,2
1671462297963478098,374695,1671462298000483614,gps,2,1,42.3008976741,-83.6991745929,271.015228271,6.4e-05,0.0,0.0,0.0,8.1e-05,0.0,0.0,0.0,0.001764,2
1671462297973435173,374696,1671462298010481535,gps,2,1,42.3008976745,-83.6991745042,271.015136719,6.4e-05,0.0,0.0,0.0,8.1e-05,0.0,0.0,0.0,0.001764,2
1671462297983409144,374697,1671462298020564912,gps,2,1,42.3008976752,-83.699174418,271.015014648,6.4e-05,0.0,0.0,0.0,8.1e-05,0.0,0.0,0.0,0.001764,2
1671462297993288741,374698,1671462298030489732,gps,2,1,42.3008976764,-83.6991743242,271.014770508,6.4e-05,0.0,0.0,0.0,8.1e-05,0.0,0.0,0.0,0.001764,2
1671462298003226171,374699,1671462298040567951,gps,2,1,42.3008976769,-83.6991742324,271.014648438,6.4e-05,0.0,0.0,0.0,8.1e-05,0.0,0.0,0.0,0.001764,2
1671462298013827342,374700,1671462298050645178,gps,2,1,42.3008976775,-83.6991741432,271.014526367,6.4e-05,0.0,0.0,0.0,8.1e-05,0.0,0.0,0.0,0.001764,2
1671462298023219957,374701,1671462298060550135,gps,2,1,42.3008976788,-83.6991740464,271.014282227,6.4e-05,0.0,0.0,0.0,8.1e-05,0.0,0.0,0.0,0.001764,2
1671462298033815312,374702,1671462298070614986,gps,2,1,42.3008976795,-83.6991739514,271.014160156,6.4e-05,0.0,0.0,0.0,8.1e-05,0.0,0.0,0.0,0.001764,2
1671462298043666274,374703,1671462298080576318,gps,2,1,42.30089768,-83.6991738591,271.014038086,6.4e-05,0.0,0.0,0.0,8.1e-05,0.0,0.0,0.0,0.001764,2
1671462298053442370,374704,1671462298090515569,gps,2,1,42.3008976803,-83.6991737584,271.01348877,6.4e-05,0.0,0.0,0.0,8.1e-05,0.0,0.0,0.0,0.001764,2
1671462298063606509,374705,1671462298100604452,gps,2,1,42.3008976811,-83.6991736601,271.013366699,6.4e-05,0.0,0.0,0.0,8.1e-05,0.0,0.0,0.0,0.001764,2
1671462298073692098,374706,1671462298110626057,gps,2,1,42.3008976817,-83.6991735645,271.013244629,6.4e-05,0.0,0.0,0.0,8.1e-05,0.0,0.0,0.0,0.001764,2
1671462298083438874,374707,1671462298120537880,gps,2,1,42.3008976822,-83.6991734607,271.012695312,6.4e-05,0.0,0.0,0.0,8.1e-05,0.0,0.0,0.0,0.001764,2
1671462298093584344,374708,1671462298130569950,gps,2,1,42.300897683,-83.6991733592,271.012542725,6.4e-05,0.0,0.0,0.0,8.1e-05,0.0,0.0,0.0,0.001764,2
1671462298103619138,374709,1671462298140548071,gps,2,1,42.3008976838,-83.6991732604,271.012420654,6.4e-05,0.0,0.0,0.0,8.1e-05,0.0,0.0,0.0,0.001764,2
1671462298113465405,374710,1671462298150480186,gps,2,1,42.3008976843,-83.6991731534,271.011901855,6.4e-05,0.0,0.0,0.0,8.1e-05,0.0,0.0,0.0,0.001764,2
1671462298123660503,374711,1671462298160488823,gps,2,1,42.3008976853,-83.6991730487,271.011779785,6.4e-05,0.0,0.0,0.0,8.1e-05,0.0,0.0,0.0,0.001764,2
1671462298133370200,374712,1671462298170579787,gps,2,1,42.3008976862,-83.6991729466,271.011657715,6.4e-05,0.0,0.0,0.0,8.1e-05,0.0,0.0,0.0,0.001764,2
1671462298143242017,374713,1671462298180499701,gps,2,1,42.3008976871,-83.6991728365,271.011138916,6.4e-05,0.0,0.0,0.0,8.1e-05,0.0,0.0,0.0,0.001764,2
1671462298153207826,374714,1671462298190559699,gps,2,1,42.3008976883,-83.6991727285,271.011047363,6.4e-05,0.0,0.0,0.0,8.1e-05,0.0,0.0,0.0,0.001764,2
1671462298163807475,374715,1671462298200594954,gps,2,1,42.3008976893,-83.6991726231,271.010925293,6.4e-05,0.0,0.0,0.0,8.1e-05,0.0,0.0,0.0,0.001764,2
1671462298173170150,374716,1671462298210494361,gps,2,1,42.3008976904,-83.6991725098,271.010437012,6.4e-05,0.0,0.0,0.0,8.1e-05,0.0,0.0,0.0,0.001764,2
1671462298183707573,374717,1671462298220547978,gps,2,1,42.3008976919,-83.6991723984,271.010345459,6.4e-05,0.0,0.0,0.0,8.1e-05,0.0,0.0,0.0,0.001764,2
1671462298193584544,374718,1671462298230504165,gps,2,1,42.3008976931,-83.6991722898,271.010223389,6.4e-05,0.0,0.0,0.0,8.1e-05,0.0,0.0,0.0,0.001764,2
1671462298203714208,374719,1671462298240494567,gps,2,1,42.3008976944,-83.6991721733,271.009765625,6.4e-05,0.0,0.0,0.0,8.1e-05,0.0,0.0,0.0,0.001764,2
1671462298213539328,374720,1671462298250553855,gps,2,1,42.3008976961,-83.6991720586,271.009643555,6.4e-05,0.0,0.0,0.0,8.1e-05,0.0,0.0,0.0,0.001764,2
1671462298223485855,374721,1671462298260497641,gps,2,1,42.3008976976,-83.6991719466,271.009552002,6.4e-05,0.0,0.0,0.0,8.1e-05,0.0,0.0,0.0,0.001764,2
1671462298233576900,374722,1671462298270496352,gps,2,1,42.3008976992,-83.6991718268,271.009124756,6.4e-05,0.0,0.0,0.0,8.1e-05,0.0,0.0,0.0,0.001764,2
1671462298243347664,374723,1671462298280552383,gps,2,1,42.3008977011,-83.6991717087,271.009002686,6.4e-05,0.0,0.0,0.0,8.1e-05,0.0,0.0,0.0,0.001764,2
1671462298253301044,374724,1671462298290482489,gps,2,1,42.3008977027,-83.6991715934,271.008911133,0.000121,0.0,0.0,0.0,0.000144,0.0,0.0,0.0,0.001849,2
1671462298263356121,374725,1671462298300519356,gps,2,1,42.3008977045,-83.6991714703,271.008483887,0.000121,0.0,0.0,0.0,0.000144,0.0,0.0,0.0,0.001849,2
1671462298273272363,374726,1671462298310564749,gps,2,1,42.3008977066,-83.6991713487,271.008392334,0.000121,0.0,0.0,0.0,0.000144,0.0,0.0,0.0,0.001849,2
1671462298283294012,374727,1671462298320503317,gps,2,1,42.3008977084,-83.6991712301,271.008270264,0.000121,0.0,0.0,0.0,0.000144,0.0,0.0,0.0,0.001849,2
1671462298293187456,374728,1671462298330504859,gps,2,1,42.3008977104,-83.6991711036,271.007873535,0.000121,0.0,0.0,0.0,0.000144,0.0,0.0,0.0,0.001849,2
1671462298303505474,374729,1671462298340571718,gps,2,1,42.3008977125,-83.6991709785,271.007751465,0.000121,0.0,0.0,0.0,0.000144,0.0,0.0,0.0,0.001849,2
1671462298313687230,374730,1671462298350505639,gps,2,1,42.3008977146,-83.6991708562,271.007659912,0.000121,0.0,0.0,0.0,0.000144,0.0,0.0,0.0,0.001849,2
1671462298323889830,374731,1671462298360508222,gps,2,1,42.3008977166,-83.6991707262,271.007232666,0.000121,0.0,0.0,0.0,0.000144,0.0,0.0,0.0,0.001849,2
1671462298333715982,374732,1671462298370560099,gps,2,1,42.3008977187,-83.6991705972,271.007110596,0.000121,0.0,0.0,0.0,0.000144,0.0,0.0,0.0,0.001849,2
1671462298343576372,374733,1671462298380613832,gps,2,1,42.3008977209,-83.6991704716,271.007019043,0.000121,0.0,0.0,0.0,0.000144,0.0,0.0,0.0,0.001849,2
1671462298353582958,374734,1671462298390493728,gps,2,1,42.300897723,-83.6991703379,271.006591797,0.000121,0.0,0.0,0.0,0.000144,0.0,0.0,0.0,0.001849,2
1671462298363525599,374735,1671462298400604235,gps,2,1,42.3008977251,-83.699170205,271.006439209,0.000121,0.0,0.0,0.0,0.000144,0.0,0.0,0.0,0.001849,2
1671462298373652729,374736,1671462298410507172,gps,2,1,42.3008977272,-83.6991700754,271.006317139,0.000121,0.0,0.0,0.0,0.000144,0.0,0.0,0.0,0.001849,2
1671462298383475505,374737,1671462298420491102,gps,2,1,42.3008977295,-83.6991699376,271.00592041,0.000121,0.0,0.0,0.0,0.000144,0.0,0.0,0.0,0.001849,2
1671462298393396061,374738,1671462298430578149,gps,2,1,42.3008977316,-83.6991698008,271.005767822,0.000121,0.0,0.0,0.0,0.000144,0.0,0.0,0.0,0.001849,2
1671462298403230926,374739,1671462298440503659,gps,2,1,42.3008977337,-83.6991696674,271.005615234,0.000121,0.0,0.0,0.0,0.000144,0.0,0.0,0.0,0.001849,2
1671462298413380618,374740,1671462298450596326,gps,2,1,42.3008977359,-83.6991695257,271.005218506,0.000121,0.0,0.0,0.0,0.000144,0.0,0.0,0.0,0.001849,2
1671462298423714985,374741,1671462298460571391,gps,2,1,42.3008977381,-83.6991693849,271.0050354,0.000121,0.0,0.0,0.0,0.000144,0.0,0.0,0.0,0.001849,2
1671462298433282300,374742,1671462298470501452,gps,2,1,42.3008977402,-83.6991692475,271.004882812,0.000121,0.0,0.0,0.0,0.000144,0.0,0.0,0.0,0.001849,2
1671462298443174858,374743,1671462298480495820,gps,2,1,42.3008977425,-83.6991691018,271.004455566,0.000121,0.0,0.0,0.0,0.000144,0.0,0.0,0.0,0.001849,2
1671462298453869610,374744,1671462298490624108,gps,2,1,42.3008977448,-83.699168957,271.004272461,0.000121,0.0,0.0,0.0,0.000144,0.0,0.0,0.0,0.001849,2
1671462298463525818,374745,1671462298500521625,gps,2,1,42.3008977469,-83.6991688155,271.004089355,0.000121,0.0,0.0,0.0,0.000144,0.0,0.0,0.0,0.001849,2
1671462298473662553,374746,1671462298510505228,gps,2,1,42.3008977492,-83.6991686659,271.003692627,0.000121,0.0,0.0,0.0,0.000144,0.0,0.0,0.0,0.001849,2
1671462298483702623,374747,1671462298520565705,gps,2,1,42.3008977514,-83.6991685168,271.003509521,0.000121,0.0,0.0,0.0,0.000144,0.0,0.0,0.0,0.001849,2
1671462298493584615,374748,1671462298530512588,gps,2,1,42.3008977536,-83.6991683712,271.003295898,0.000121,0.0,0.0,0.0,0.000144,0.0,0.0,0.0,0.001849,2
1671462298503666105,374749,1671462298540554524,gps,2,1,42.3008977561,-83.6991682175,271.00289917,0.000121,0.0,0.0,0.0,0.000144,0.0,0.0,0.0,0.001849,2
1671462298513550180,374750,1671462298550616403,gps,2,1,42.3008977586,-83.6991680645,271.002716064,0.000121,0.0,0.0,0.0,0.000144,0.0,0.0,0.0,0.001849,2
1671462298523669798,374751,1671462298560529196,gps,2,1,42.3008977606,-83.6991679147,271.002502441,0.000121,0.0,0.0,0.0,0.000144,0.0,0.0,0.0,0.001849,2
1671462298533483169,374752,1671462298570545759,gps,2,1,42.3008977647,-83.6991677555,271.002166748,0.000121,0.0,0.0,0.0,0.000144,0.0,0.0,0.0,0.001849,2
1671462298543339580,374753,1671462298580656551,gps,2,1,42.3008977677,-83.6991675986,271.001983643,0.000121,0.0,0.0,0.0,0.000144,0.0,0.0,0.0,0.001849,2
1671462298553433361,374754,1671462298590539374,gps,2,1,42.3008977705,-83.6991674447,271.001800537,0.000121,0.0,0.0,0.0,0.000144,0.0,0.0,0.0,0.001849,2
1671462298563567254,374755,1671462298600568889,gps,2,1,42.3008977751,-83.6991672816,271.001495361,0.000121,0.0,0.0,0.0,0.000144,0.0,0.0,0.0,0.001849,2
1671462298573454220,374756,1671462298610543126,gps,2,1,42.3008977788,-83.699167121,271.001342773,0.000121,0.0,0.0,0.0,0.000144,0.0,0.0,0.0,0.001849,2
1671462298583220852,374757,1671462298620560352,gps,2,1,42.3008977821,-83.6991669632,271.001190186,0.000121,0.0,0.0,0.0,0.000144,0.0,0.0,0.0,0.001849,2
1671462298593151683,374758,1671462298630587965,gps,2,1,42.3008977872,-83.6991667969,271.000915527,0.000121,0.0,0.0,0.0,0.000144,0.0,0.0,0.0,0.001849,2
1671462298603635385,374759,1671462298640506417,gps,2,1,42.3008977914,-83.6991666329,271.000823975,0.000121,0.0,0.0,0.0,0.000144,0.0,0.0,0.0,0.001849,2
1671462298613711415,374760,1671462298650550564,gps,2,1,42.3008977951,-83.6991664717,271.000671387,0.000121,0.0,0.0,0.0,0.000144,0.0,0.0,0.0,0.001849,2
1671462298623650232,374761,1671462298660499971,gps,2,1,42.3008978005,-83.6991663023,271.000427246,0.000121,0.0,0.0,0.0,0.000144,0.0,0.0,0.0,0.001849,2
1671462298633472016,374762,1671462298670577713,gps,2,1,42.3008978049,-83.6991661355,271.000366211,0.000121,0.0,0.0,0.0,0.000144,0.0,0.0,0.0,0.001849,2
1671462298643479485,374763,1671462298680554910,gps,2,1,42.300897809,-83.6991659708,271.000274658,0.000121,0.0,0.0,0.0,0.000144,0.0,0.0,0.0,0.001849,2
1671462298653578426,374764,1671462298690526094,gps,2,1,42.3008978144,-83.6991657988,271.000091553,0.000121,0.0,0.0,0.0,0.000144,0.0,0.0,0.0,0.001849,2
1671462298663534827,374765,1671462298700595028,gps,2,1,42.3008978188,-83.6991656288,271.000061035,0.000121,0.0,0.0,0.0,0.000144,0.0,0.0,0.0,0.001849,2
1671462298673489725,374766,1671462298710562639,gps,2,1,42.3008978231,-83.6991654614,271.0,0.000121,0.0,0.0,0.0,0.000144,0.0,0.0,0.0,0.001849,2
1671462298683268769,374767,1671462298720491390,gps,2,1,42.3008978286,-83.6991652864,270.999847412,0.000121,0.0,0.0,0.0,0.000144,0.0,0.0,0.0,0.001849,2
1671462298693290290,374768,1671462298730481953,gps,2,1,42.3008978329,-83.6991651134,270.99987793,0.000121,0.0,0.0,0.0,0.000144,0.0,0.0,0.0,0.001849,2
1671462298703387032,374769,1671462298740576146,gps,2,1,42.3008978376,-83.6991649426,270.99987793,0.000121,0.0,0.0,0.0,0.000144,0.0,0.0,0.0,0.001849,2
1671462298713126469,374770,1671462298750492178,gps,2,1,42.3008978427,-83.6991647644,270.999755859,0.000121,0.0,0.0,0.0,0.000144,0.0,0.0,0.0,0.001849,2
1671462298723464670,374771,1671462298760517645,gps,2,1,42.300897847,-83.6991645875,270.999786377,0.000121,0.0,0.0,0.0,0.000144,0.0,0.0,0.0,0.001849,2
1671462298733397600,374772,1671462298770573818,gps,2,1,42.3008978514,-83.6991644137,270.999816895,0.000121,0.0,0.0,0.0,0.000144,0.0,0.0,0.0,0.001849,2
1671462298743107788,374773,1671462298780510988,gps,2,1,42.3008978563,-83.699164232,270.999725342,0.000121,0.0,0.0,0.0,0.000144,0.0,0.0,0.0,0.001849,2
1671462298753646058,374774,1671462298790514553,gps,2,1,42.3008978603,-83.6991640515,270.999786377,0.000121,0.0,0.0,0.0,0.000144,0.0,0.0,0.0,0.001849,2
1671462298763742088,374775,1671462298800584556,gps,2,1,42.3008978643,-83.699163874,270.999786377,0.000121,0.0,0.0,0.0,0.000144,0.0,0.0,0.0,0.001849,2
1671462298773539329,374776,1671462298810512970,gps,2,1,42.3008978689,-83.6991636885,270.999755859,0.000121,0.0,0.0,0.0,0.000144,0.0,0.0,0.0,0.001849,2
1671462298783562119,374777,1671462298820574302,gps,2,1,42.3008978726,-83.6991635043,270.999816895,0.000121,0.0,0.0,0.0,0.000144,0.0,0.0,0.0,0.001849,2
1671462298793453089,374778,1671462298830534776,gps,2,1,42.3008978763,-83.6991633232,270.999847412,0.000121,0.0,0.0,0.0,0.000144,0.0,0.0,0.0,0.001849,2
1671462298803418749,374779,1671462298840490410,gps,2,1,42.3008978808,-83.6991631341,270.999816895,0.000121,0.0,0.0,0.0,0.000144,0.0,0.0,0.0,0.001849,2
1671462298813469406,374780,1671462298850502398,gps,2,1,42.3008978843,-83.699162946,270.999908447,0.000121,0.0,0.0,0.0,0.000144,0.0,0.0,0.0,0.001849,2
1671462298823619611,374781,1671462298860575956,gps,2,1,42.3008978879,-83.6991627611,271.0,0.000121,0.0,0.0,0.0,0.000144,0.0,0.0,0.0,0.001849,2
1671462298833407697,374782,1671462298870489762,gps,2,1,42.3008978923,-83.6991625683,271.0,0.000121,0.0,0.0,0.0,0.000144,0.0,0.0,0.0,0.001849,2
1671462298843923977,374783,1671462298880591215,gps,2,1,42.3008978961,-83.6991623763,271.000091553,0.000121,0.0,0.0,0.0,0.000144,0.0,0.0,0.0,0.001849,2
1671462298853459222,374784,1671462298890573796,gps,2,1,42.3008978998,-83.6991621873,271.000183105,0.000121,0.0,0.0,0.0,0.000144,0.0,0.0,0.0,0.001849,2
1671462298863615070,374785,1671462298900495791,gps,2,1,42.3008979044,-83.6991619906,271.000183105,0.000121,0.0,0.0,0.0,0.000144,0.0,0.0,0.0,0.001849,2
1671462298873642037,374786,1671462298910494321,gps,2,1,42.3008979085,-83.6991617944,271.000244141,0.000121,0.0,0.0,0.0,0.000144,0.0,0.0,0.0,0.001849,2
1671462298883736434,374787,1671462298920581447,gps,2,1,42.3008979122,-83.6991616018,271.000335693,0.000121,0.0,0.0,0.0,0.000144,0.0,0.0,0.0,0.001849,2
1671462298893593771,374788,1671462298930508533,gps,2,1,42.3008979174,-83.6991614007,271.000305176,0.000121,0.0,0.0,0.0,0.000144,0.0,0.0,0.0,0.001849,2
1671462298903787485,374789,1671462298940568517,gps,2,1,42.3008979218,-83.6991612005,271.000335693,0.000121,0.0,0.0,0.0,0.000144,0.0,0.0,0.0,0.001849,2
1671462298913569963,374790,1671462298950615445,gps,2,1,42.3008979259,-83.6991610038,271.000396729,0.000121,0.0,0.0,0.0,0.000144,0.0,0.0,0.0,0.001849,2
1671462298923839253,374791,1671462298960504051,gps,2,1,42.3008979315,-83.6991607987,271.000305176,0.000121,0.0,0.0,0.0,0.000144,0.0,0.0,0.0,0.001849,2
1671462298933489365,374792,1671462298970516512,gps,2,1,42.3008979363,-83.6991605946,271.000305176,0.000121,0.0,0.0,0.0,0.000144,0.0,0.0,0.0,0.001849,2
1671462298943647989,374793,1671462298980569437,gps,2,1,42.3008979408,-83.6991603938,271.000335693,0.000121,0.0,0.0,0.0,0.000144,0.0,0.0,0.0,0.001849,2
1671462298953427492,374794,1671462298990492233,gps,2,1,42.3008979469,-83.6991601848,271.000244141,0.000121,0.0,0.0,0.0,0.000144,0.0,0.0,0.0,0.001849,2
1671462298963478158,374795,1671462299000495987,gps,2,1,42.3008979523,-83.6991599766,271.000183105,0.000121,0.0,0.0,0.0,0.000144,0.0,0.0,0.0,0.001849,2
1671462298973564994,374796,1671462299010566786,gps,2,1,42.3008979576,-83.6991597718,271.000183105,0.000121,0.0,0.0,0.0,0.000144,0.0,0.0,0.0,0.001849,2
1671462298983190220,374797,1671462299020500379,gps,2,1,42.3008979642,-83.699159559,271.000030518,0.000121,0.0,0.0,0.0,0.000144,0.0,0.0,0.0,0.001849,2
1671462298993222662,374798,1671462299030502548,gps,2,1,42.3008979705,-83.6991593468,270.999938965,0.000121,0.0,0.0,0.0,0.000144,0.0,0.0,0.0,0.001849,2
1671462299003812081,374799,1671462299040753225,gps,2,1,42.3008979762,-83.699159138,270.99987793,0.000121,0.0,0.0,0.0,0.000144,0.0,0.0,0.0,0.001849,2
1671462299013227048,374800,1671462299050544094,gps,2,1,42.3008979841,-83.6991589208,270.999572754,0.000121,0.0,0.0,0.0,0.000144,0.0,0.0,0.0,0.001849,2
1671462299023874551,374801,1671462299060548510,gps,2,1,42.3008979913,-83.6991587048,270.999450684,0.000121,0.0,0.0,0.0,0.000144,0.0,0.0,0.0,0.001849,2
1671462299033542678,374802,1671462299070632395,gps,2,1,42.3008979977,-83.6991584921,270.999389648,0.000121,0.0,0.0,0.0,0.000144,0.0,0.0,0.0,0.001849,2
1671462299043668997,374803,1671462299080581183,gps,2,1,42.3008980066,-83.6991582711,270.999053955,0.000121,0.0,0.0,0.0,0.000144,0.0,0.0,0.0,0.001849,2
1671462299053783015,374804,1671462299090517054,gps,2,1,42.3008980147,-83.6991580511,270.998901367,0.000121,0.0,0.0,0.0,0.000144,0.0,0.0,0.0,0.001849,2
1671462299063642263,374805,1671462299100630744,gps,2,1,42.3008980218,-83.6991578347,270.998809814,0.000121,0.0,0.0,0.0,0.000144,0.0,0.0,0.0,0.001849,2
1671462299073619475,374806,1671462299110622954,gps,2,1,42.3008980315,-83.6991576098,270.998474121,0.000121,0.0,0.0,0.0,0.000144,0.0,0.0,0.0,0.001849,2
1671462299083508749,374807,1671462299120542928,gps,2,1,42.3008980403,-83.6991573861,270.998291016,0.000121,0.0,0.0,0.0,0.000144,0.0,0.0,0.0,0.001849,2
1671462299093340221,374808,1671462299130656558,gps,2,1,42.3008980483,-83.6991571656,270.998168945,0.000121,0.0,0.0,0.0,0.000144,0.0,0.0,0.0,0.001849,2
1671462299103367367,374809,1671462299140500969,gps,2,1,42.3008980586,-83.699156937,270.997833252,0.000121,0.0,0.0,0.0,0.000144,0.0,0.0,0.0,0.001849,2
1671462299113256683,374810,1671462299150593333,gps,2,1,42.3008980677,-83.6991567093,270.997680664,0.000121,0.0,0.0,0.0,0.000144,0.0,0.0,0.0,0.001849,2
1671462299123527594,374811,1671462299160503838,gps,2,1,42.3008980766,-83.6991564848,270.997528076,0.000121,0.0,0.0,0.0,0.000144,0.0,0.0,0.0,0.001849,2
1671462299133322621,374812,1671462299170504501,gps,2,1,42.3008980872,-83.6991562521,270.997161865,0.000121,0.0,0.0,0.0,0.000144,0.0,0.0,0.0,0.001849,2
1671462299143194943,374813,1671462299180529713,gps,2,1,42.3008980964,-83.6991560204,270.99697876,0.000121,0.0,0.0,0.0,0.000144,0.0,0.0,0.0,0.001849,2
1671462299153185895,374814,1671462299190570889,gps,2,1,42.3008981057,-83.6991557921,270.996826172,0.000121,0.0,0.0,0.0,0.000144,0.0,0.0,0.0,0.001849,2
1671462299163768689,374815,1671462299200602525,gps,2,1,42.3008981163,-83.6991555556,270.996459961,0.000121,0.0,0.0,0.0,0.000144,0.0,0.0,0.0,0.001849,2
1671462299173119414,374816,1671462299210503191,gps,2,1,42.3008981257,-83.69915532,270.996307373,0.000121,0.0,0.0,0.0,0.000144,0.0,0.0,0.0,0.001849,2
1671462299183507007,374817,1671462299220569153,gps,2,1,42.3008981351,-83.6991550877,270.996154785,0.000121,0.0,0.0,0.0,0.000144,0.0,0.0,0.0,0.001849,2
1671462299193574402,374818,1671462299230508570,gps,2,1,42.3008981457,-83.6991548475,270.995788574,0.000121,0.0,0.0,0.0,0.000144,0.0,0.0,0.0,0.001849,2
1671462299203699202,374819,1671462299240516569,gps,2,1,42.3008981551,-83.6991546082,270.995635986,0.000121,0.0,0.0,0.0,0.000144,0.0,0.0,0.0,0.001849,2
1671462299213544041,374820,1671462299250577431,gps,2,1,42.3008981646,-83.6991543721,270.995452881,0.000121,0.0,0.0,0.0,0.000144,0.0,0.0,0.0,0.001849,2
1671462299223440687,374821,1671462299260516196,gps,2,1,42.3008981755,-83.6991541282,270.99508667,0.000121,0.0,0.0,0.0,0.000144,0.0,0.0,0.0,0.001849,2
1671462299233451641,374822,1671462299270502921,gps,2,1,42.3008981853,-83.6991538852,270.994934082,0.000121,0.0,0.0,0.0,0.000144,0.0,0.0,0.0,0.001849,2
1671462299243374366,374823,1671462299280564036,gps,2,1,42.3008981947,-83.6991536454,270.994750977,0.000121,0.0,0.0,0.0,0.000144,0.0,0.0,0.0,0.001849,2
1671462299253550258,374824,1671462299290503212,gps,2,1,42.3008982058,-83.6991533979,270.994415283,6.4e-05,0.0,0.0,0.0,0.0001,0.0,0.0,0.0,0.001764,2
1671462299263362834,374825,1671462299300526446,gps,2,1,42.3008982158,-83.6991531513,270.994262695,6.4e-05,0.0,0.0,0.0,0.0001,0.0,0.0,0.0,0.001764,2
1671462299273287781,374826,1671462299310581640,gps,2,1,42.3008982256,-83.6991529078,270.99407959,6.4e-05,0.0,0.0,0.0,0.0001,0.0,0.0,0.0,0.001764,2
1671462299283427650,374827,1671462299320501643,gps,2,1,42.3008982369,-83.6991526569,270.993774414,6.4e-05,0.0,0.0,0.0,0.0001,0.0,0.0,0.0,0.001764,2
1671462299293180604,374828,1671462299330512739,gps,2,1,42.3008982472,-83.6991524068,270.993621826,6.4e-05,0.0,0.0,0.0,0.0001,0.0,0.0,0.0,0.001764,2
1671462299303848700,374829,1671462299340586648,gps,2,1,42.3008982574,-83.6991521595,270.993438721,6.4e-05,0.0,0.0,0.0,0.0001,0.0,0.0,0.0,0.001764,2
1671462299313121729,374830,1671462299350516395,gps,2,1,42.3008982689,-83.6991519051,270.993103027,6.4e-05,0.0,0.0,0.0,0.0001,0.0,0.0,0.0,0.001764,2
1671462299323902821,374831,1671462299360545318,gps,2,1,42.3008982795,-83.6991516513,270.992950439,6.4e-05,0.0,0.0,0.0,0.0001,0.0,0.0,0.0,0.001764,2
1671462299333624212,374832,1671462299370571133,gps,2,1,42.3008982899,-83.6991514006,270.992767334,6.4e-05,0.0,0.0,0.0,0.0001,0.0,0.0,0.0,0.001764,2
1671462299343528544,374833,1671462299380611584,gps,2,1,42.3008983016,-83.6991511427,270.992431641,6.4e-05,0.0,0.0,0.0,0.0001,0.0,0.0,0.0,0.001764,2
1671462299353703970,374834,1671462299390521773,gps,2,1,42.3008983124,-83.6991508853,270.992218018,6.4e-05,0.0,0.0,0.0,0.0001,0.0,0.0,0.0,0.001764,2
1671462299363569024,374835,1671462299400549317,gps,2,1,42.3008983229,-83.699150631,270.992034912,6.4e-05,0.0,0.0,0.0,0.0001,0.0,0.0,0.0,0.001764,2
1671462299373389659,374836,1671462299410500654,gps,2,1,42.3008983348,-83.6991503696,270.991668701,6.4e-05,0.0,0.0,0.0,0.0001,0.0,0.0,0.0,0.001764,2
1671462299383403197,374837,1671462299420588140,gps,2,1,42.3008983456,-83.6991501086,270.991394043,6.4e-05,0.0,0.0,0.0,0.0001,0.0,0.0,0.0,0.001764,2
1671462299393334693,374838,1671462299430511890,gps,2,1,42.3008983563,-83.6991498506,270.99118042,6.4e-05,0.0,0.0,0.0,0.0001,0.0,0.0,0.0,0.001764,2
1671462299403438611,374839,1671462299440505649,gps,2,1,42.3008983675,-83.6991495858,270.990814209,6.4e-05,0.0,0.0,0.0,0.0001,0.0,0.0,0.0,0.001764,2
1671462299413371202,374840,1671462299450705002,gps,2,1,42.3008983786,-83.6991493213,270.990509033,6.4e-05,0.0,0.0,0.0,0.0001,0.0,0.0,0.0,0.001764,2
1671462299423252549,374841,1671462299460580621,gps,2,1,42.3008983894,-83.6991490597,270.990234375,6.4e-05,0.0,0.0,0.0,0.0001,0.0,0.0,0.0,0.001764,2
1671462299433195819,374842,1671462299470483257,gps,2,1,42.3008984007,-83.6991487914,270.989807129,6.4e-05,0.0,0.0,0.0,0.0001,0.0,0.0,0.0,0.001764,2
1671462299443112757,374843,1671462299480457948,gps,2,1,42.3008984121,-83.6991485231,270.989440918,6.4e-05,0.0,0.0,0.0,0.0001,0.0,0.0,0.0,0.001764,2
1671462299453255277,374844,1671462299490466632,gps,2,1,42.3008984231,-83.6991482581,270.989135742,6.4e-05,0.0,0.0,0.0,0.0001,0.0,0.0,0.0,0.001764,2
1671462299463091667,374845,1671462299500468522,gps,2,1,42.3008984347,-83.6991479862,270.988677979,6.4e-05,0.0,0.0,0.0,0.0001,0.0,0.0,0.0,0.001764,2
1671462299473994097,374846,1671462299510595301,gps,2,1,42.3008984462,-83.6991477146,270.98828125,6.4e-05,0.0,0.0,0.0,0.0001,0.0,0.0,0.0,0.001764,2
1671462299483134473,374847,1671462299520588667,gps,2,1,42.3008984574,-83.6991474459,270.987915039,6.4e-05,0.0,0.0,0.0,0.0001,0.0,0.0,0.0,0.001764,2
1671462299493596647,374848,1671462299530528706,gps,2,1,42.3008984693,-83.6991471706,270.987457275,6.4e-05,0.0,0.0,0.0,0.0001,0.0,0.0,0.0,0.001764,2
1671462299503572805,374849,1671462299540558128,gps,2,1,42.3008984811,-83.6991468956,270.987060547,6.4e-05,0.0,0.0,0.0,0.0001,0.0,0.0,0.0,0.001764,2
1671462299513344838,374850,1671462299550579755,gps,2,1,42.3008984928,-83.6991466233,270.986694336,6.4e-05,0.0,0.0,0.0,0.0001,0.0,0.0,0.0,0.001764,2
1671462299523490951,374851,1671462299560581230,gps,2,1,42.3008985051,-83.6991463446,270.986206055,6.4e-05,0.0,0.0,0.0,0.0001,0.0,0.0,0.0,0.001764,2
1671462299533373297,374852,1671462299570651470,gps,2,1,42.3008985174,-83.6991460659,270.985839844,6.4e-05,0.0,0.0,0.0,0.0001,0.0,0.0,0.0,0.001764,2
