%time,field.header.seq,field.header.stamp,field.header.frame_id,field.status.status,field.status.service,field.latitude,field.longitude,field.altitude,field.position_covariance0,field.position_covariance1,field.position_covariance2,field.position_covariance3,field.position_covariance4,field.position_covariance5,field.position_covariance6,field.position_covariance7,field.position_covariance8,field.position_covariance_type
1671462199223285150,364821,1671462199259381203,gps,2,1,42.3013614178,-83.6986717533,272.329528809,0.0001,0.0,0.0,0.0,0.000144,0.0,0.0,0.0,0.001936,2
1671462199233438133,364822,1671462199269379349,gps,2,1,42.3013614193,-83.6986717532,272.329467773,0.0001,0.0,0.0,0.0,0.000144,0.0,0.0,0.0,0.001936,2
1671462199243452915,364823,1671462199279407386,gps,2,1,42.3013614188,-83.6986717531,272.329498291,0.0001,0.0,0.0,0.0,0.000144,0.0,0.0,0.0,0.001936,2
1671462199253292046,364824,1671462199289373857,gps,2,1,42.3013614184,-83.6986717529,272.329528809,0.0001,0.0,0.0,0.0,0.000144,0.0,0.0,0.0,0.001936,2
1671462199263655684,364825,1671462199299400691,gps,2,1,42.3013614199,-83.6986717528,272.329467773,0.0001,0.0,0.0,0.0,0.000144,0.0,0.0,0.0,0.001936,2
1671462199273332797,364826,1671462199309402940,gps,2,1,42.3013614194,-83.6986717527,272.329498291,0.0001,0.0,0.0,0.0,0.000144,0.0,0.0,0.0,0.001936,2
1671462199283836861,364827,1671462199319570715,gps,2,1,42.3013614189,-83.6986717526,272.329528809,0.0001,0.0,0.0,0.0,0.000144,0.0,0.0,0.0,0.001936,2
1671462199293692839,364828,1671462199329411000,gps,2,1,42.3013614203,-83.6986717525,272.329498291,0.0001,0.0,0.0,0.0,0.000144,0.0,0.0,0.0,0.001936,2
1671462199303640721,364829,1671462199339394516,gps,2,1,42.3013614198,-83.6986717525,272.329498291,0.0001,0.0,0.0,0.0,0.000144,0.0,0.0,0.0,0.001936,2
1671462199313483400,364830,1671462199349437385,gps,2,1,42.3013614193,-83.6986717524,272.329528809,0.0001,0.0,0.0,0.0,0.000144,0.0,0.0,0.0,0.001936,2
1671462199323713063,364831,1671462199359396080,gps,2,1,42.3013614207,-83.6986717523,272.329498291,0.0001,0.0,0.0,0.0,0.000144,0.0,0.0,0.0,0.001936,2
1671462199333647903,364832,1671462199369436539,gps,2,1,42.3013614202,-83.6986717522,272.329498291,0.0001,0.0,0.0,0.0,0.000144,0.0,0.0,0.0,0.001936,2
1671462199343450597,364833,1671462199379388768,gps,2,1,42.3013614197,-83.6986717521,272.329528809,0.0001,0.0,0.0,0.0,0.000144,0.0,0.0,0.0,0.001936,2
1671462199353400089,364834,1671462199389403771,gps,2,1,42.301361421,-83.6986717521,272.329498291,0.0001,0.0,0.0,0.0,0.000144,0.0,0.0,0.0,0.001936,2
1671462199363468002,364835,1671462199399450189,gps,2,1,42.3013614205,-83.698671752,272.329528809,0.0001,0.0,0.0,0.0,0.000144,0.0,0.0,0.0,0.001936,2
1671462199373431266,364836,1671462199409387453,gps,2,1,42.30136142,-83.6986717519,272.329528809,0.0001,0.0,0.0,0.0,0.000144,0.0,0.0,0.0,0.001936,2
1671462199383418197,364837,1671462199419413666,gps,2,1,42.3013614213,-83.6986717518,272.329528809,0.0001,0.0,0.0,0.0,0.000144,0.0,0.0,0.0,0.001936,2
1671462199393294225,364838,1671462199429508988,gps,2,1,42.3013614208,-83.6986717516,272.329528809,0.0001,0.0,0.0,0.0,0.000144,0.0,0.0,0.0,0.001936,2
1671462199403207043,364839,1671462199439389488,gps,2,1,42.3013614203,-83.6986717515,272.329559326,0.0001,0.0,0.0,0.0,0.000144,0.0,0.0,0.0,0.001936,2
1671462199413181483,364840,1671462199449391160,gps,2,1,42.3013614216,-83.6986717514,272.329528809,0.0001,0.0,0.0,0.0,0.000144,0.0,0.0,0.0,0.001936,2
1671462199423733100,364841,1671462199459454318,gps,2,1,42.3013614211,-83.6986717512,272.329559326,0.0001,0.0,0.0,0.0,0.000144,0.0,0.0,0.0,0.001936,2
1671462199433143342,364842,1671462199469373984,gps,2,1,42.3013614206,-83.6986717511,272.329559326,0.0001,0.0,0.0,0.0,0.000144,0.0,0.0,0.0,0.001936,2
1671462199443837703,364843,1671462199479371949,gps,2,1,42.3013614218,-83.6986717509,272.329559326,0.0001,0.0,0.0,0.0,0.000144,0.0,0.0,0.0,0.001936,2
1671462199453475500,364844,1671462199489432286,gps,2,1,42.3013614213,-83.6986717507,272.329559326,0.0001,0.0,0.0,0.0,0.000144,0.0,0.0,0.0,0.001936,2
1671462199463544002,364845,1671462199499577932,gps,2,1,42.3013614209,-83.6986717505,272.329589844,0.0001,0.0,0.0,0.0,0.000144,0.0,0.0,0.0,0.001936,2
1671462199473452688,364846,1671462199509386712,gps,2,1,42.3013614221,-83.6986717503,272.329559326,0.0001,0.0,0.0,0.0,0.000144,0.0,0.0,0.0,0.001936,2
1671462199483452756,364847,1671462199519450611,gps,2,1,42.3013614216,-83.6986717501,272.329589844,0.0001,0.0,0.0,0.0,0.000144,0.0,0.0,0.0,0.001936,2
1671462199493296411,364848,1671462199529418295,gps,2,1,42.3013614212,-83.6986717499,272.329589844,0.0001,0.0,0.0,0.0,0.000144,0.0,0.0,0.0,0.001936,2
1671462199503444094,364849,1671462199539452023,gps,2,1,42.3013614223,-83.6986717496,272.329589844,0.0001,0.0,0.0,0.0,0.000144,0.0,0.0,0.0,0.001936,2
1671462199513382610,364850,1671462199549439428,gps,2,1,42.3013614219,-83.6986717494,272.329589844,0.0001,0.0,0.0,0.0,0.000144,0.0,0.0,0.0,0.001936,2
1671462199523311612,364851,1671462199559458836,gps,2,1,42.3013614214,-83.6986717491,272.329620361,0.0001,0.0,0.0,0.0,0.000144,0.0,0.0,0.0,0.001936,2
1671462199533397969,364852,1671462199569516008,gps,2,1,42.3013614236,-83.6986717494,272.329620361,0.0001,0.0,0.0,0.0,0.000144,0.0,0.0,0.0,0.001936,2
1671462199543259385,364853,1671462199579475379,gps,2,1,42.3013614231,-83.6986717492,272.329620361,0.0001,0.0,0.0,0.0,0.000144,0.0,0.0,0.0,0.001936,2
1671462199553190111,364854,1671462199589478428,gps,2,1,42.3013614227,-83.698671749,272.329650879,0.0001,0.0,0.0,0.0,0.000144,0.0,0.0,0.0,0.001936,2
1671462199563148500,364855,1671462199599418626,gps,2,1,42.3013614248,-83.6986717492,272.329650879,0.0001,0.0,0.0,0.0,0.000144,0.0,0.0,0.0,0.001936,2
1671462199573685090,364856,1671462199609465234,gps,2,1,42.3013614243,-83.6986717491,272.329650879,0.0001,0.0,0.0,0.0,0.000144,0.0,0.0,0.0,0.001936,2
1671462199583099304,364857,1671462199619329517,gps,2,1,42.3013614239,-83.6986717488,272.329681396,0.0001,0.0,0.0,0.0,0.000144,0.0,0.0,0.0,0.001936,2
1671462199593444631,364858,1671462199629336795,gps,2,1,42.3013614259,-83.6986717491,272.329681396,0.0001,0.0,0.0,0.0,0.000144,0.0,0.0,0.0,0.001936,2
1671462199603481464,364859,1671462199639358766,gps,2,1,42.3013614255,-83.6986717489,272.329711914,0.0001,0.0,0.0,0.0,0.000144,0.0,0.0,0.0,0.001936,2
1671462199613403196,364860,1671462199649447362,gps,2,1,42.301361425,-83.6986717488,272.329711914,0.0001,0.0,0.0,0.0,0.000144,0.0,0.0,0.0,0.001936,2
1671462199623521702,364861,1671462199659420793,gps,2,1,42.3013614269,-83.698671749,272.329711914,0.0001,0.0,0.0,0.0,0.000144,0.0,0.0,0.0,0.001936,2
1671462199633466594,364862,1671462199669456085,gps,2,1,42.3013614265,-83.6986717489,272.329742432,0.0001,0.0,0.0,0.0,0.000144,0.0,0.0,0.0,0.001936,2
1671462199643301843,364863,1671462199679388288,gps,2,1,42.301361426,-83.6986717488,272.329742432,0.0001,0.0,0.0,0.0,0.000144,0.0,0.0,0.0,0.001936,2
1671462199653267894,364864,1671462199689364931,gps,2,1,42.3013614278,-83.6986717491,272.329742432,0.0001,0.0,0.0,0.0,0.000144,0.0,0.0,0.0,0.001936,2
1671462199663354358,364865,1671462199699436506,gps,2,1,42.3013614273,-83.698671749,272.329772949,0.0001,0.0,0.0,0.0,0.000144,0.0,0.0,0.0,0.001936,2
1671462199673444799,364866,1671462199709376620,gps,2,1,42.3013614269,-83.6986717488,272.329803467,0.0001,0.0,0.0,0.0,0.000144,0.0,0.0,0.0,0.001936,2
1671462199683288056,364867,1671462199719360154,gps,2,1,42.3013614285,-83.6986717491,272.329803467,0.0001,0.0,0.0,0.0,0.000144,0.0,0.0,0.0,0.001936,2
1671462199693230904,364868,1671462199729444993,gps,2,1,42.3013614281,-83.698671749,272.329803467,0.0001,0.0,0.0,0.0,0.000144,0.0,0.0,0.0,0.001936,2
1671462199703149415,364869,1671462199739385879,gps,2,1,42.3013614276,-83.6986717489,272.329833984,0.0001,0.0,0.0,0.0,0.000144,0.0,0.0,0.0,0.001936,2
1671462199713566335,364870,1671462199749458397,gps,2,1,42.3013614292,-83.6986717492,272.329833984,0.0001,0.0,0.0,0.0,0.000144,0.0,0.0,0.0,0.001936,2
1671462199723703477,364871,1671462199759384178,gps,2,1,42.3013614288,-83.698671749,272.329833984,0.0001,0.0,0.0,0.0,0.000144,0.0,0.0,0.0,0.001936,2
1671462199733642551,364872,1671462199769447249,gps,2,1,42.3013614283,-83.6986717489,272.329864502,0.0001,0.0,0.0,0.0,0.000144,0.0,0.0,0.0,0.001936,2
1671462199743513879,364873,1671462199779379487,gps,2,1,42.3013614299,-83.6986717491,272.329864502,0.0001,0.0,0.0,0.0,0.000144,0.0,0.0,0.0,0.001936,2
1671462199753588786,364874,1671462199789383371,gps,2,1,42.3013614295,-83.6986717489,272.32989502,0.0001,0.0,0.0,0.0,0.000144,0.0,0.0,0.0,0.001936,2
1671462199763379630,364875,1671462199799467938,gps,2,1,42.301361429,-83.6986717488,272.32989502,0.0001,0.0,0.0,0.0,0.000144,0.0,0.0,0.0,0.001936,2
1671462199773584557,364876,1671462199809392366,gps,2,1,42.3013614306,-83.698671749,272.32989502,0.0001,0.0,0.0,0.0,0.000144,0.0,0.0,0.0,0.001936,2
1671462199783317583,364877,1671462199819394119,gps,2,1,42.3013614302,-83.6986717488,272.329925537,0.0001,0.0,0.0,0.0,0.000144,0.0,0.0,0.0,0.001936,2
1671462199793336437,364878,1671462199829466973,gps,2,1,42.3013614297,-83.6986717486,272.329925537,0.0001,0.0,0.0,0.0,0.000144,0.0,0.0,0.0,0.001936,2
1671462199803477256,364879,1671462199839382208,gps,2,1,42.3013614312,-83.6986717488,272.329925537,0.0001,0.0,0.0,0.0,0.000144,0.0,0.0,0.0,0.001936,2
1671462199813291493,364880,1671462199849419622,gps,2,1,42.3013614308,-83.6986717486,272.329956055,0.0001,0.0,0.0,0.0,0.000144,0.0,0.0,0.0,0.001936,2
1671462199823325904,364881,1671462199859378636,gps,2,1,42.3013614304,-83.6986717483,272.329986572,0.0001,0.0,0.0,0.0,0.000144,0.0,0.0,0.0,0.001936,2
1671462199833254709,364882,1671462199869389750,gps,2,1,42.3013614319,-83.6986717484,272.329986572,0.0001,0.0,0.0,0.0,0.000144,0.0,0.0,0.0,0.001936,2
1671462199843185463,364883,1671462199879393729,gps,2,1,42.3013614315,-83.6986717482,272.329986572,0.0001,0.0,0.0,0.0,0.000144,0.0,0.0,0.0,0.001936,2
1671462199853577858,364884,1671462199889525102,gps,2,1,42.3013614311,-83.698671748,272.33001709,0.0001,0.0,0.0,0.0,0.000144,0.0,0.0,0.0,0.001936,2
1671462199863499946,364885,1671462199899393748,gps,2,1,42.3013614325,-83.6986717481,272.33001709,0.0001,0.0,0.0,0.0,0.000144,0.0,0.0,0.0,0.001936,2
1671462199873672081,364886,1671462199909401688,gps,2,1,42.3013614321,-83.6986717478,272.330047607,0.0001,0.0,0.0,0.0,0.000144,0.0,0.0,0.0,0.001936,2
1671462199883627982,364887,1671462199919473892,gps,2,1,42.3013614317,-83.6986717476,272.330047607,0.0001,0.0,0.0,0.0,0.000144,0.0,0.0,0.0,0.001936,2
1671462199893298695,364888,1671462199929404160,gps,2,1,42.3013614331,-83.6986717476,272.330078125,0.0001,0.0,0.0,0.0,0.000144,0.0,0.0,0.0,0.001936,2
1671462199903313553,364889,1671462199939389931,gps,2,1,42.3013614328,-83.6986717474,272.330078125,0.0001,0.0,0.0,0.0,0.000144,0.0,0.0,0.0,0.001936,2
1671462199913445828,364890,1671462199949474164,gps,2,1,42.3013614324,-83.6986717472,272.330108643,0.0001,0.0,0.0,0.0,0.000144,0.0,0.0,0.0,0.001936,2
1671462199923426470,364891,1671462199959396106,gps,2,1,42.3013614337,-83.6986717472,272.330108643,0.0001,0.0,0.0,0.0,0.000144,0.0,0.0,0.0,0.001936,2
1671462199933337024,364892,1671462199969401998,gps,2,1,42.3013614333,-83.698671747,272.33013916,0.0001,0.0,0.0,0.0,0.000144,0.0,0.0,0.0,0.001936,2
1671462199943377415,364893,1671462199979442148,gps,2,1,42.3013614329,-83.6986717468,272.33013916,0.0001,0.0,0.0,0.0,0.000144,0.0,0.0,0.0,0.001936,2
1671462199953256552,364894,1671462199989393295,gps,2,1,42.3013614342,-83.6986717469,272.330169678,0.0001,0.0,0.0,0.0,0.000144,0.0,0.0,0.0,0.001936,2
1671462199963424513,364895,1671462199999447578,gps,2,1,42.3013614338,-83.6986717467,272.330169678,0.0001,0.0,0.0,0.0,0.000144,0.0,0.0,0.0,0.001936,2
1671462199973305724,364896,1671462200009456862,gps,2,1,42.3013614334,-83.6986717465,272.330200195,0.0001,0.0,0.0,0.0,0.000144,0.0,0.0,0.0,0.001936,2
1671462199983126946,364897,1671462200019378879,gps,2,1,42.3013614347,-83.6986717466,272.330200195,0.0001,0.0,0.0,0.0,0.000144,0.0,0.0,0.0,0.001936,2
1671462199993188146,364898,1671462200029400631,gps,2,1,42.3013614343,-83.6986717464,272.330230713,0.0001,0.0,0.0,0.0,0.000144,0.0,0.0,0.0,0.001936,2
1671462200003505629,364899,1671462200039605575,gps,2,1,42.3013614338,-83.6986717462,272.33026123,0.0001,0.0,0.0,0.0,0.000144,0.0,0.0,0.0,0.001936,2
1671462200013584156,364900,1671462200049481129,gps,2,1,42.3013614352,-83.698671746,272.330322266,0.0001,0.0,0.0,0.0,0.000144,0.0,0.0,0.0,0.001936,2
1671462200023817999,364901,1671462200059454425,gps,2,1,42.3013614348,-83.6986717459,272.330352783,0.0001,0.0,0.0,0.0,0.000144,0.0,0.0,0.0,0.001936,2
1671462200033614113,364902,1671462200069648905,gps,2,1,42.3013614344,-83.6986717457,272.330352783,0.0001,0.0,0.0,0.0,0.000144,0.0,0.0,0.0,0.001936,2
1671462200043433028,364903,1671462200079456627,gps,2,1,42.3013614357,-83.6986717455,272.330444336,0.0001,0.0,0.0,0.0,0.000144,0.0,0.0,0.0,0.001936,2
1671462200053499338,364904,1671462200089516427,gps,2,1,42.3013614353,-83.6986717453,272.330444336,0.0001,0.0,0.0,0.0,0.000144,0.0,0.0,0.0,0.001936,2
1671462200063338844,364905,1671462200099405609,gps,2,1,42.3013614349,-83.6986717451,272.330474854,0.0001,0.0,0.0,0.0,0.000144,0.0,0.0,0.0,0.001936,2
1671462200073364143,364906,1671462200109499745,gps,2,1,42.3013614362,-83.6986717448,272.330535889,0.0001,0.0,0.0,0.0,0.000144,0.0,0.0,0.0,0.001936,2
1671462200083430880,364907,1671462200119476339,gps,2,1,42.3013614359,-83.6986717446,272.330566406,0.0001,0.0,0.0,0.0,0.000144,0.0,0.0,0.0,0.001936,2
1671462200093304819,364908,1671462200129466870,gps,2,1,42.3013614355,-83.6986717444,272.330596924,0.0001,0.0,0.0,0.0,0.000144,0.0,0.0,0.0,0.001936,2
1671462200103271235,364909,1671462200139383360,gps,2,1,42.3013614367,-83.6986717442,272.330657959,0.0001,0.0,0.0,0.0,0.000144,0.0,0.0,0.0,0.001936,2
1671462200113364853,364910,1671462200149377601,gps,2,1,42.3013614364,-83.6986717439,272.330688477,0.0001,0.0,0.0,0.0,0.000144,0.0,0.0,0.0,0.001936,2
1671462200123745131,364911,1671462200159473713,gps,2,1,42.301361436,-83.6986717437,272.330688477,0.0001,0.0,0.0,0.0,0.000144,0.0,0.0,0.0,0.001936,2
1671462200133222720,364912,1671462200169396970,gps,2,1,42.3013614371,-83.6986717436,272.330749512,0.0001,0.0,0.0,0.0,0.000144,0.0,0.0,0.0,0.001936,2
1671462200143494746,364913,1671462200179394380,gps,2,1,42.3013614368,-83.6986717434,272.330780029,0.0001,0.0,0.0,0.0,0.000144,0.0,0.0,0.0,0.001936,2
1671462200153559216,364914,1671462200189456403,gps,2,1,42.3013614364,-83.6986717431,272.330810547,0.0001,0.0,0.0,0.0,0.000144,0.0,0.0,0.0,0.001936,2
1671462200163496959,364915,1671462200199383830,gps,2,1,42.3013614375,-83.698671743,272.330871582,0.0001,0.0,0.0,0.0,0.000144,0.0,0.0,0.0,0.001936,2
1671462200173685365,364916,1671462200209398618,gps,2,1,42.3013614372,-83.6986717427,272.3309021,0.0001,0.0,0.0,0.0,0.000144,0.0,0.0,0.0,0.001936,2
1671462200183427248,364917,1671462200219449464,gps,2,1,42.3013614368,-83.6986717425,272.3309021,0.0001,0.0,0.0,0.0,0.000144,0.0,0.0,0.0,0.001936,2
1671462200193369124,364918,1671462200229395763,gps,2,1,42.3013614379,-83.6986717423,272.330963135,0.0001,0.0,0.0,0.0,0.000144,0.0,0.0,0.0,0.001936,2
1671462200203270634,364919,1671462200239396757,gps,2,1,42.3013614376,-83.6986717421,272.330993652,0.0001,0.0,0.0,0.0,0.000144,0.0,0.0,0.0,0.001936,2
1671462200213429653,364920,1671462200249555010,gps,2,1,42.3013614372,-83.6986717418,272.330993652,0.0001,0.0,0.0,0.0,0.000144,0.0,0.0,0.0,0.001936,2
1671462200223574493,364921,1671462200259393713,gps,2,1,42.3013614383,-83.6986717417,272.331054688,0.0001,0.0,0.0,0.0,0.000144,0.0,0.0,0.0,0.001936,2
1671462200233280728,364922,1671462200269382298,gps,2,1,42.301361438,-83.6986717414,272.331085205,0.0001,0.0,0.0,0.0,0.000144,0.0,0.0,0.0,0.001936,2
1671462200243315748,364923,1671462200279427118,gps,2,1,42.3013614376,-83.6986717412,272.331115723,0.0001,0.0,0.0,0.0,0.000144,0.0,0.0,0.0,0.001936,2
1671462200253205851,364924,1671462200289425787,gps,2,1,42.3013614387,-83.698671741,272.331176758,6.4e-05,0.0,0.0,0.0,8.1e-05,0.0,0.0,0.0,0.001849,2
1671462200263204910,364925,1671462200299420538,gps,2,1,42.3013614383,-83.6986717407,272.331176758,6.4e-05,0.0,0.0,0.0,8.1e-05,0.0,0.0,0.0,0.001849,2
1671462200273803600,364926,1671462200309457015,gps,2,1,42.301361438,-83.6986717405,272.331207275,6.4e-05,0.0,0.0,0.0,8.1e-05,0.0,0.0,0.0,0.001849,2
1671462200283138094,364927,1671462200319374116,gps,2,1,42.301361439,-83.6986717403,272.331268311,6.4e-05,0.0,0.0,0.0,8.1e-05,0.0,0.0,0.0,0.001849,2
1671462200293272714,364928,1671462200329390067,gps,2,1,42.3013614386,-83.6986717401,272.331298828,6.4e-05,0.0,0.0,0.0,8.1e-05,0.0,0.0,0.0,0.001849,2
1671462200303472015,364929,1671462200339445394,gps,2,1,42.3013614383,-83.6986717398,272.331298828,6.4e-05,0.0,0.0,0.0,8.1e-05,0.0,0.0,0.0,0.001849,2
1671462200313573801,364930,1671462200349419485,gps,2,1,42.3013614392,-83.6986717397,272.331359863,6.4e-05,0.0,0.0,0.0,8.1e-05,0.0,0.0,0.0,0.001849,2
1671462200323366782,364931,1671462200359440210,gps,2,1,42.3013614388,-83.6986717394,272.331390381,6.4e-05,0.0,0.0,0.0,8.1e-05,0.0,0.0,0.0,0.001849,2
1671462200333469394,364932,1671462200369482222,gps,2,1,42.3013614384,-83.6986717392,272.331420898,6.4e-05,0.0,0.0,0.0,8.1e-05,0.0,0.0,0.0,0.001849,2
1671462200343369977,364933,1671462200379391259,gps,2,1,42.3013614393,-83.698671739,272.331451416,6.4e-05,0.0,0.0,0.0,8.1e-05,0.0,0.0,0.0,0.001849,2
1671462200353349190,364934,1671462200389409951,gps,2,1,42.301361439,-83.6986717388,272.331481934,6.4e-05,0.0,0.0,0.0,8.1e-05,0.0,0.0,0.0,0.001849,2
1671462200363312072,364935,1671462200399433561,gps,2,1,42.3013614386,-83.6986717386,272.331512451,6.4e-05,0.0,0.0,0.0,8.1e-05,0.0,0.0,0.0,0.001849,2
1671462200373419252,364936,1671462200409389027,gps,2,1,42.3013614394,-83.6986717385,272.331573486,6.4e-05,0.0,0.0,0.0,8.1e-05,0.0,0.0,0.0,0.001849,2
1671462200383328613,364937,1671462200419386540,gps,2,1,42.3013614391,-83.6986717382,272.331573486,6.4e-05,0.0,0.0,0.0,8.1e-05,0.0,0.0,0.0,0.001849,2
1671462200393258742,364938,1671462200429464235,gps,2,1,42.3013614387,-83.698671738,272.331604004,6.4e-05,0.0,0.0,0.0,8.1e-05,0.0,0.0,0.0,0.001849,2
1671462200403176587,364939,1671462200439392188,gps,2,1,42.3013614395,-83.6986717378,272.331665039,6.4e-05,0.0,0.0,0.0,8.1e-05,0.0,0.0,0.0,0.001849,2
1671462200413140068,364940,1671462200449393623,gps,2,1,42.3013614392,-83.6986717376,272.331665039,6.4e-05,0.0,0.0,0.0,8.1e-05,0.0,0.0,0.0,0.001849,2
1671462200423697186,364941,1671462200459439161,gps,2,1,42.3013614388,-83.6986717374,272.331695557,6.4e-05,0.0,0.0,0.0,8.1e-05,0.0,0.0,0.0,0.001849,2
1671462200433678635,364942,1671462200469470750,gps,2,1,42.3013614396,-83.6986717371,272.331726074,6.4e-05,0.0,0.0,0.0,8.1e-05,0.0,0.0,0.0,0.001849,2
1671462200443484601,364943,1671462200479405763,gps,2,1,42.3013614393,-83.6986717369,272.331756592,6.4e-05,0.0,0.0,0.0,8.1e-05,0.0,0.0,0.0,0.001849,2
1671462200453318597,364944,1671462200489466487,gps,2,1,42.301361439,-83.6986717367,272.331787109,6.4e-05,0.0,0.0,0.0,8.1e-05,0.0,0.0,0.0,0.001849,2
1671462200463381703,364945,1671462200499489804,gps,2,1,42.3013614398,-83.6986717364,272.331817627,6.4e-05,0.0,0.0,0.0,8.1e-05,0.0,0.0,0.0,0.001849,2
1671462200473490756,364946,1671462200509415203,gps,2,1,42.3013614395,-83.6986717362,272.331848145,6.4e-05,0.0,0.0,0.0,8.1e-05,0.0,0.0,0.0,0.001849,2
1671462200483430552,364947,1671462200519455874,gps,2,1,42.3013614392,-83.6986717359,272.331848145,6.4e-05,0.0,0.0,0.0,8.1e-05,0.0,0.0,0.0,0.001849,2
1671462200493404547,364948,1671462200529427740,gps,2,1,42.3013614399,-83.6986717357,272.33190918,6.4e-05,0.0,0.0,0.0,8.1e-05,0.0,0.0,0.0,0.001849,2
1671462200503470383,364949,1671462200539504569,gps,2,1,42.3013614396,-83.6986717354,272.331939697,6.4e-05,0.0,0.0,0.0,8.1e-05,0.0,0.0,0.0,0.001849,2
1671462200513431887,364950,1671462200549461810,gps,2,1,42.3013614393,-83.6986717352,272.331939697,6.4e-05,0.0,0.0,0.0,8.1e-05,0.0,0.0,0.0,0.001849,2
1671462200523343955,364951,1671462200559440362,gps,2,1,42.30136144,-83.6986717349,272.332000732,6.4e-05,0.0,0.0,0.0,8.1e-05,0.0,0.0,0.0,0.001849,2
1671462200533798788,364952,1671462200569642150,gps,2,1,42.3013614397,-83.6986717346,272.332000732,6.4e-05,0.0,0.0,0.0,8.1e-05,0.0,0.0,0.0,0.001849,2
1671462200543311505,364953,1671462200579421899,gps,2,1,42.3013614393,-83.6986717343,272.33203125,6.4e-05,0.0,0.0,0.0,8.1e-05,0.0,0.0,0.0,0.001849,2
1671462200553728652,364954,1671462200589475134,gps,2,1,42.3013614403,-83.698671733,272.33203125,6.4e-05,0.0,0.0,0.0,8.1e-05,0.0,0.0,0.0,0.001849,2
1671462200563244431,364955,1671462200599538282,gps,2,1,42.3013614399,-83.6986717327,272.33203125,6.4e-05,0.0,0.0,0.0,8.1e-05,0.0,0.0,0.0,0.001849,2
1671462200573366295,364956,1671462200609426288,gps,2,1,42.3013614396,-83.6986717323,272.332061768,6.4e-05,0.0,0.0,0.0,8.1e-05,0.0,0.0,0.0,0.001849,2
1671462200583219173,364957,1671462200619395456,gps,2,1,42.3013614405,-83.698671731,272.332061768,6.4e-05,0.0,0.0,0.0,8.1e-05,0.0,0.0,0.0,0.001849,2
1671462200593648827,364958,1671462200629455211,gps,2,1,42.3013614401,-83.6986717306,272.332092285,6.4e-05,0.0,0.0,0.0,8.1e-05,0.0,0.0,0.0,0.001849,2
1671462200603480306,364959,1671462200639397733,gps,2,1,42.3013614398,-83.6986717303,272.332092285,6.4e-05,0.0,0.0,0.0,8.1e-05,0.0,0.0,0.0,0.001849,2
1671462200613623291,364960,1671462200649406426,gps,2,1,42.3013614407,-83.698671729,272.332092285,6.4e-05,0.0,0.0,0.0,8.1e-05,0.0,0.0,0.0,0.001849,2
1671462200623758470,364961,1671462200659397515,gps,2,1,42.3013614404,-83.6986717286,272.332122803,6.4e-05,0.0,0.0,0.0,8.1e-05,0.0,0.0,0.0,0.001849,2
1671462200633628376,364962,1671462200669491065,gps,2,1,42.3013614401,-83.6986717283,272.332122803,6.4e-05,0.0,0.0,0.0,8.1e-05,0.0,0.0,0.0,0.001849,2
1671462200643481716,364963,1671462200679416396,gps,2,1,42.3013614409,-83.6986717269,272.332122803,6.4e-05,0.0,0.0,0.0,8.1e-05,0.0,0.0,0.0,0.001849,2
1671462200653368785,364964,1671462200689397646,gps,2,1,42.3013614406,-83.6986717266,272.33215332,6.4e-05,0.0,0.0,0.0,8.1e-05,0.0,0.0,0.0,0.001849,2
1671462200663448532,364965,1671462200699428296,gps,2,1,42.3013614403,-83.6986717262,272.332183838,6.4e-05,0.0,0.0,0.0,8.1e-05,0.0,0.0,0.0,0.001849,2
1671462200673412501,364966,1671462200709381951,gps,2,1,42.3013614412,-83.698671725,272.332183838,6.4e-05,0.0,0.0,0.0,8.1e-05,0.0,0.0,0.0,0.001849,2
1671462200683421530,364967,1671462200719459507,gps,2,1,42.3013614408,-83.6986717246,272.332214355,6.4e-05,0.0,0.0,0.0,8.1e-05,0.0,0.0,0.0,0.001849,2
1671462200693333127,364968,1671462200729393915,gps,2,1,42.3013614405,-83.6986717243,272.332214355,6.4e-05,0.0,0.0,0.0,8.1e-05,0.0,0.0,0.0,0.001849,2
1671462200703260585,364969,1671462200739388290,gps,2,1,42.3013614414,-83.6986717232,272.332214355,6.4e-05,0.0,0.0,0.0,8.1e-05,0.0,0.0,0.0,0.001849,2
1671462200713994028,364970,1671462200749557664,gps,2,1,42.3013614411,-83.6986717229,272.332244873,6.4e-05,0.0,0.0,0.0,8.1e-05,0.0,0.0,0.0,0.001849,2
1671462200723206811,364971,1671462200759382152,gps,2,1,42.3013614407,-83.6986717225,272.332275391,6.4e-05,0.0,0.0,0.0,8.1e-05,0.0,0.0,0.0,0.001849,2
1671462200733175188,364972,1671462200769386565,gps,2,1,42.3013614415,-83.6986717214,272.332275391,6.4e-05,0.0,0.0,0.0,8.1e-05,0.0,0.0,0.0,0.001849,2
1671462200743796462,364973,1671462200779473120,gps,2,1,42.3013614412,-83.6986717212,272.332305908,6.4e-05,0.0,0.0,0.0,8.1e-05,0.0,0.0,0.0,0.001849,2
1671462200753645169,364974,1671462200789415622,gps,2,1,42.3013614409,-83.6986717209,272.332305908,6.4e-05,0.0,0.0,0.0,8.1e-05,0.0,0.0,0.0,0.001849,2
1671462200763617325,364975,1671462200799405442,gps,2,1,42.3013614417,-83.6986717199,272.332305908,6.4e-05,0.0,0.0,0.0,8.1e-05,0.0,0.0,0.0,0.001849,2
1671462200773526917,364976,1671462200809483599,gps,2,1,42.3013614413,-83.6986717197,272.332336426,6.4e-05,0.0,0.0,0.0,8.1e-05,0.0,0.0,0.0,0.001849,2
1671462200783372926,364977,1671462200819416769,gps,2,1,42.301361441,-83.6986717194,272.332366943,6.4e-05,0.0,0.0,0.0,8.1e-05,0.0,0.0,0.0,0.001849,2
1671462200793281750,364978,1671462200829395490,gps,2,1,42.3013614418,-83.6986717185,272.332366943,6.4e-05,0.0,0.0,0.0,8.1e-05,0.0,0.0,0.0,0.001849,2
1671462200803239867,364979,1671462200839368471,gps,2,1,42.3013614415,-83.6986717182,272.332366943,6.4e-05,0.0,0.0,0.0,8.1e-05,0.0,0.0,0.0,0.001849,2
1671462200813251052,364980,1671462200849462942,gps,2,1,42.3013614411,-83.698671718,272.332397461,6.4e-05,0.0,0.0,0.0,8.1e-05,0.0,0.0,0.0,0.001849,2
1671462200823289548,364981,1671462200859399150,gps,2,1,42.3013614419,-83.6986717171,272.332397461,6.4e-05,0.0,0.0,0.0,8.1e-05,0.0,0.0,0.0,0.001849,2
1671462200833658703,364982,1671462200869473595,gps,2,1,42.3013614416,-83.6986717168,272.332397461,6.4e-05,0.0,0.0,0.0,8.1e-05,0.0,0.0,0.0,0.001849,2
1671462200843141033,364983,1671462200879426721,gps,2,1,42.3013614413,-83.6986717166,272.332427979,6.4e-05,0.0,0.0,0.0,8.1e-05,0.0,0.0,0.0,0.001849,2
1671462200853468821,364984,1671462200889411180,gps,2,1,42.301361442,-83.6986717157,272.332427979,6.4e-05,0.0,0.0,0.0,8.1e-05,0.0,0.0,0.0,0.001849,2
1671462200863680301,364985,1671462200899461267,gps,2,1,42.3013614417,-83.6986717154,272.332427979,6.4e-05,0.0,0.0,0.0,8.1e-05,0.0,0.0,0.0,0.001849,2
1671462200873487591,364986,1671462200909406670,gps,2,1,42.3013614414,-83.6986717151,272.332458496,6.4e-05,0.0,0.0,0.0,8.1e-05,0.0,0.0,0.0,0.001849,2
1671462200883492660,364987,1671462200919376970,gps,2,1,42.3013614421,-83.6986717144,272.332458496,6.4e-05,0.0,0.0,0.0,8.1e-05,0.0,0.0,0.0,0.001849,2
1671462200893510560,364988,1671462200929469579,gps,2,1,42.3013614418,-83.6986717141,272.332489014,6.4e-05,0.0,0.0,0.0,8.1e-05,0.0,0.0,0.0,0.001849,2
1671462200903264872,364989,1671462200939390578,gps,2,1,42.3013614415,-83.6986717138,272.332519531,6.4e-05,0.0,0.0,0.0,8.1e-05,0.0,0.0,0.0,0.001849,2
1671462200913304894,364990,1671462200949403032,gps,2,1,42.3013614422,-83.698671713,272.332519531,6.4e-05,0.0,0.0,0.0,8.1e-05,0.0,0.0,0.0,0.001849,2
1671462200923525159,364991,1671462200959453313,gps,2,1,42.3013614418,-83.6986717127,272.332550049,6.4e-05,0.0,0.0,0.0,8.1e-05,0.0,0.0,0.0,0.001849,2
1671462200933360647,364992,1671462200969417980,gps,2,1,42.3013614415,-83.6986717123,272.332580566,6.4e-05,0.0,0.0,0.0,8.1e-05,0.0,0.0,0.0,0.001849,2
1671462200943263987,364993,1671462200979370699,gps,2,1,42.3013614422,-83.6986717115,272.332580566,6.4e-05,0.0,0.0,0.0,8.1e-05,0.0,0.0,0.0,0.001849,2
1671462200953250729,364994,1671462200989434625,gps,2,1,42.3013614419,-83.6986717111,272.332611084,6.4e-05,0.0,0.0,0.0,8.1e-05,0.0,0.0,0.0,0.001849,2
1671462200963219491,364995,1671462200999485638,gps,2,1,42.3013614416,-83.6986717107,272.332641602,6.4e-05,0.0,0.0,0.0,8.1e-05,0.0,0.0,0.0,0.001849,2
1671462200973136605,364996,1671462201009390916,gps,2,1,42.3013614422,-83.6986717099,272.332641602,6.4e-05,0.0,0.0,0.0,8.1e-05,0.0,0.0,0.0,0.001849,2
1671462200983222842,364997,1671462201019442330,gps,2,1,42.3013614419,-83.6986717095,272.332672119,6.4e-05,0.0,0.0,0.0,8.1e-05,0.0,0.0,0.0,0.001849,2
1671462200993121331,364998,1671462201029405014,gps,2,1,42.3013614416,-83.6986717091,272.332702637,6.4e-05,0.0,0.0,0.0,8.1e-05,0.0,0.0,0.0,0.001849,2
1671462201003419447,364999,1671462201039455769,gps,2,1,42.3013614422,-83.6986717083,272.332702637,6.4e-05,0.0,0.0,0.0,8.1e-05,0.0,0.0,0.0,0.001849,2
1671462201013637241,365000,1671462201049494416,gps,2,1,42.3013614419,-83.698671708,272.332733154,6.4e-05,0.0,0.0,0.0,8.1e-05,0.0,0.0,0.0,0.001849,2
1671462201023382509,365001,1671462201059496250,gps,2,1,42.3013614416,-83.6986717075,272.332763672,6.4e-05,0.0,0.0,0.0,8.1e-05,0.0,0.0,0.0,0.001849,2
1671462201033411182,365002,1671462201069466011,gps,2,1,42.301361443,-83.6986717088,272.332763672,6.4e-05,0.0,0.0,0.0,8.1e-05,0.0,0.0,0.0,0.001849,2
1671462201043267321,365003,1671462201079401740,gps,2,1,42.3013614427,-83.6986717084,272.332763672,6.4e-05,0.0,0.0,0.0,8.1e-05,0.0,0.0,0.0,0.001849,2
1671462201053374976,365004,1671462201089512012,gps,2,1,42.3013614424,-83.698671708,272.332794189,6.4e-05,0.0,0.0,0.0,8.1e-05,0.0,0.0,0.0,0.001849,2
1671462201063350867,365005,1671462201099434778,gps,2,1,42.3013614438,-83.6986717093,272.332794189,6.4e-05,0.0,0.0,0.0,8.1e-05,0.0,0.0,0.0,0.001849,2
1671462201073398036,365006,1671462201109456870,gps,2,1,42.3013614435,-83.6986717089,272.332824707,6.4e-05,0.0,0.0,0.0,8.1e-05,0.0,0.0,0.0,0.001849,2
1671462201083315916,365007,1671462201119500483,gps,2,1,42.3013614433,-83.6986717086,272.332824707,6.4e-05,0.0,0.0,0.0,8.1e-05,0.0,0.0,0.0,0.001849,2
1671462201093281719,365008,1671462201129417534,gps,2,1,42.3013614446,-83.6986717098,272.332824707,6.4e-05,0.0,0.0,0.0,8.1e-05,0.0,0.0,0.0,0.001849,2
1671462201103271681,365009,1671462201139440866,gps,2,1,42.3013614443,-83.6986717095,272.332855225,6.4e-05,0.0,0.0,0.0,8.1e-05,0.0,0.0,0.0,0.001849,2
1671462201113178141,365010,1671462201149415741,gps,2,1,42.3013614441,-83.6986717092,272.332855225,6.4e-05,0.0,0.0,0.0,8.1e-05,0.0,0.0,0.0,0.001849,2
1671462201123398506,365011,1671462201159392446,gps,2,1,42.3013614453,-83.6986717104,272.332855225,6.4e-05,0.0,0.0,0.0,8.1e-05,0.0,0.0,0.0,0.001849,2
1671462201133287307,365012,1671462201169482699,gps,2,1,42.3013614451,-83.6986717101,272.332885742,6.4e-05,0.0,0.0,0.0,8.1e-05,0.0,0.0,0.0,0.001849,2
1671462201143629300,365013,1671462201179400198,gps,2,1,42.3013614448,-83.6986717098,272.332885742,6.4e-05,0.0,0.0,0.0,8.1e-05,0.0,0.0,0.0,0.001849,2
1671462201153231451,365014,1671462201189400306,gps,2,1,42.3013614459,-83.6986717109,272.332885742,6.4e-05,0.0,0.0,0.0,8.1e-05,0.0,0.0,0.0,0.001849,2
1671462201163451626,365015,1671462201199448002,gps,2,1,42.3013614457,-83.6986717106,272.33291626,6.4e-05,0.0,0.0,0.0,8.1e-05,0.0,0.0,0.0,0.001849,2
1671462201173434528,365016,1671462201209398295,gps,2,1,42.3013614454,-83.6986717103,272.332946777,6.4e-05,0.0,0.0,0.0,8.1e-05,0.0,0.0,0.0,0.001849,2
1671462201183474820,365017,1671462201219401466,gps,2,1,42.3013614464,-83.6986717113,272.33291626,6.4e-05,0.0,0.0,0.0,8.1e-05,0.0,0.0,0.0,0.001849,2
1671462201193296483,365018,1671462201229395326,gps,2,1,42.3013614461,-83.698671711,272.332946777,6.4e-05,0.0,0.0,0.0,8.1e-05,0.0,0.0,0.0,0.001849,2
1671462201203320868,365019,1671462201239457862,gps,2,1,42.3013614459,-83.6986717107,272.332977295,6.4e-05,0.0,0.0,0.0,8.1e-05,0.0,0.0,0.0,0.001849,2
1671462201213405420,365020,1671462201249496084,gps,2,1,42.3013614468,-83.6986717116,272.332977295,6.4e-05,0.0,0.0,0.0,8.1e-05,0.0,0.0,0.0,0.001849,2
1671462201223394959,365021,1671462201259378033,gps,2,1,42.3013614465,-83.6986717113,272.333007812,6.4e-05,0.0,0.0,0.0,8.1e-05,0.0,0.0,0.0,0.001849,2
1671462201233304536,365022,1671462201269465827,gps,2,1,42.3013614463,-83.698671711,272.33303833,6.4e-05,0.0,0.0,0.0,8.1e-05,0.0,0.0,0.0,0.001849,2
1671462201243239901,365023,1671462201279374313,gps,2,1,42.3013614472,-83.698671712,272.33303833,6.4e-05,0.0,0.0,0.0,8.1e-05,0.0,0.0,0.0,0.001849,2
1671462201253354855,365024,1671462201289385623,gps,2,1,42.3013614469,-83.6986717116,272.333068848,0.0001,0.0,0.0,0.0,0.000144,0.0,0.0,0.0,0.001936,2
1671462201263568803,365025,1671462201299479146,gps,2,1,42.3013614467,-83.6986717113,272.333099365,0.0001,0.0,0.0,0.0,0.000144,0.0,0.0,0.0,0.001936,2
1671462201273538882,365026,1671462201309401910,gps,2,1,42.3013614476,-83.6986717122,272.333099365,0.0001,0.0,0.0,0.0,0.000144,0.0,0.0,0.0,0.001936,2
1671462201283584866,365027,1671462201319464202,gps,2,1,42.3013614474,-83.6986717119,272.333099365,0.0001,0.0,0.0,0.0,0.000144,0.0,0.0,0.0,0.001936,2
1671462201293507808,365028,1671462201329419761,gps,2,1,42.3013614471,-83.6986717116,272.333129883,0.0001,0.0,0.0,0.0,0.000144,0.0,0.0,0.0,0.001936,2
1671462201303450358,365029,1671462201339397853,gps,2,1,42.301361448,-83.6986717124,272.333129883,0.0001,0.0,0.0,0.0,0.000144,0.0,0.0,0.0,0.001936,2
1671462201313519739,365030,1671462201349428184,gps,2,1,42.3013614478,-83.6986717121,272.3331604,0.0001,0.0,0.0,0.0,0.000144,0.0,0.0,0.0,0.001936,2
1671462201323501783,365031,1671462201359472222,gps,2,1,42.3013614475,-83.6986717118,272.333190918,0.0001,0.0,0.0,0.0,0.000144,0.0,0.0,0.0,0.001936,2
1671462201333333075,365032,1671462201369420402,gps,2,1,42.3013614484,-83.6986717126,272.3331604,0.0001,0.0,0.0,0.0,0.000144,0.0,0.0,0.0,0.001936,2
1671462201343279979,365033,1671462201379411442,gps,2,1,42.3013614482,-83.6986717122,272.333190918,0.0001,0.0,0.0,0.0,0.000144,0.0,0.0,0.0,0.001936,2
1671462201353343278,365034,1671462201389476296,gps,2,1,42.301361448,-83.6986717119,272.333221436,0.0001,0.0,0.0,0.0,0.000144,0.0,0.0,0.0,0.001936,2
1671462201363602579,365035,1671462201399389390,gps,2,1,42.3013614489,-83.6986717126,272.333221436,0.0001,0.0,0.0,0.0,0.000144,0.0,0.0,0.0,0.001936,2
1671462201373301916,365036,1671462201409401345,gps,2,1,42.3013614487,-83.6986717123,272.333221436,0.0001,0.0,0.0,0.0,0.000144,0.0,0.0,0.0,0.001936,2
1671462201383359727,365037,1671462201419485886,gps,2,1,42.3013614485,-83.6986717119,272.333251953,0.0001,0.0,0.0,0.0,0.000144,0.0,0.0,0.0,0.001936,2
1671462201393195878,365038,1671462201429403603,gps,2,1,42.3013614495,-83.6986717125,272.333221436,0.0001,0.0,0.0,0.0,0.000144,0.0,0.0,0.0,0.001936,2
1671462201403148603,365039,1671462201439415741,gps,2,1,42.3013614492,-83.6986717122,272.333251953,0.0001,0.0,0.0,0.0,0.000144,0.0,0.0,0.0,0.001936,2
1671462201413220806,365040,1671462201449472572,gps,2,1,42.301361449,-83.6986717119,272.333251953,0.0001,0.0,0.0,0.0,0.000144,0.0,0.0,0.0,0.001936,2
1671462201423654711,365041,1671462201459417281,gps,2,1,42.30136145,-83.6986717125,272.333251953,0.0001,0.0,0.0,0.0,0.000144,0.0,0.0,0.0,0.001936,2
1671462201433483482,365042,1671462201469399145,gps,2,1,42.3013614498,-83.6986717122,272.333282471,0.0001,0.0,0.0,0.0,0.000144,0.0,0.0,0.0,0.001936,2
1671462201443476972,365043,1671462201479467686,gps,2,1,42.3013614495,-83.6986717118,272.333312988,0.0001,0.0,0.0,0.0,0.000144,0.0,0.0,0.0,0.001936,2
1671462201453445636,365044,1671462201489404629,gps,2,1,42.3013614504,-83.6986717125,272.333312988,0.0001,0.0,0.0,0.0,0.000144,0.0,0.0,0.0,0.001936,2
1671462201463389712,365045,1671462201499507565,gps,2,1,42.3013614502,-83.6986717122,272.333343506,0.0001,0.0,0.0,0.0,0.000144,0.0,0.0,0.0,0.001936,2
1671462201473589653,365046,1671462201509485521,gps,2,1,42.30136145,-83.6986717119,272.333343506,0.0001,0.0,0.0,0.0,0.000144,0.0,0.0,0.0,0.001936,2
1671462201483436944,365047,1671462201519398751,gps,2,1,42.3013614508,-83.6986717125,272.333343506,0.0001,0.0,0.0,0.0,0.000144,0.0,0.0,0.0,0.001936,2
1671462201493382297,365048,1671462201529467172,gps,2,1,42.3013614506,-83.6986717122,272.333374023,0.0001,0.0,0.0,0.0,0.000144,0.0,0.0,0.0,0.001936,2
1671462201503333424,365049,1671462201539491195,gps,2,1,42.3013614503,-83.6986717119,272.333404541,0.0001,0.0,0.0,0.0,0.000144,0.0,0.0,0.0,0.001936,2
1671462201513344298,365050,1671462201549470528,gps,2,1,42.301361452,-83.6986717133,272.3331604,0.0001,0.0,0.0,0.0,0.000144,0.0,0.0,0.0,0.001936,2
1671462201523464450,365051,1671462201559473153,gps,2,1,42.3013614517,-83.698671713,272.333190918,0.0001,0.0,0.0,0.0,0.000144,0.0,0.0,0.0,0.001936,2
1671462201533446187,365052,1671462201569483134,gps,2,1,42.3013614515,-83.6986717127,272.333190918,0.0001,0.0,0.0,0.0,0.000144,0.0,0.0,0.0,0.001936,2
1671462201543143359,365053,1671462201579403894,gps,2,1,42.3013614531,-83.698671714,272.332946777,0.0001,0.0,0.0,0.0,0.000144,0.0,0.0,0.0,0.001936,2
1671462201553593118,365054,1671462201589515993,gps,2,1,42.3013614528,-83.6986717137,272.332977295,0.0001,0.0,0.0,0.0,0.000144,0.0,0.0,0.0,0.001936,2
1671462201563553102,365055,1671462201599477209,gps,2,1,42.3013614526,-83.6986717134,272.333007812,0.0001,0.0,0.0,0.0,0.000144,0.0,0.0,0.0,0.001936,2
1671462201573621483,365056,1671462201609413418,gps,2,1,42.3013614542,-83.6986717146,272.332763672,0.0001,0.0,0.0,0.0,0.000144,0.0,0.0,0.0,0.001936,2
1671462201583542101,365057,1671462201619409672,gps,2,1,42.3013614539,-83.6986717143,272.332794189,0.0001,0.0,0.0,0.0,0.000144,0.0,0.0,0.0,0.001936,2
1671462201593449308,365058,1671462201629518037,gps,2,1,42.3013614537,-83.698671714,272.332794189,0.0001,0.0,0.0,0.0,0.000144,0.0,0.0,0.0,0.001936,2
1671462201603311499,365059,1671462201639443532,gps,2,1,42.3013614552,-83.6986717152,272.332580566,0.0001,0.0,0.0,0.0,0.000144,0.0,0.0,0.0,0.001936,2
1671462201613277520,365060,1671462201649418448,gps,2,1,42.301361455,-83.6986717148,272.332580566,0.0001,0.0,0.0,0.0,0.000144,0.0,0.0,0.0,0.001936,2
1671462201623390017,365061,1671462201659475165,gps,2,1,42.3013614548,-83.6986717145,272.332611084,0.0001,0.0,0.0,0.0,0.000144,0.0,0.0,0.0,0.001936,2
1671462201633361008,365062,1671462201669412859,gps,2,1,42.3013614563,-83.6986717156,272.332397461,0.0001,0.0,0.0,0.0,0.000144,0.0,0.0,0.0,0.001936,2
1671462201643260673,365063,1671462201679419013,gps,2,1,42.3013614561,-83.6986717152,272.332397461,0.0001,0.0,0.0,0.0,0.000144,0.0,0.0,0.0,0.001936,2
1671462201653463471,365064,1671462201689459816,gps,2,1,42.3013614557,-83.6986717149,272.332427979,0.0001,0.0,0.0,0.0,0.000144,0.0,0.0,0.0,0.001936,2
1671462201663301007,365065,1671462201699391749,gps,2,1,42.301361457,-83.6986717159,272.332214355,0.0001,0.0,0.0,0.0,0.000144,0.0,0.0,0.0,0.001936,2
1671462201673412315,365066,1671462201709424562,gps,2,1,42.3013614563,-83.6986717154,272.332214355,0.0001,0.0,0.0,0.0,0.000144,0.0,0.0,0.0,0.001936,2
1671462201683252391,365067,1671462201719471371,gps,2,1,42.3013614561,-83.6986717151,272.332244873,0.0001,0.0,0.0,0.0,0.000144,0.0,0.0,0.0,0.001936,2
1671462201693206024,365068,1671462201729432787,gps,2,1,42.3013614569,-83.698671716,272.33203125,0.0001,0.0,0.0,0.0,0.000144,0.0,0.0,0.0,0.001936,2
1671462201703522030,365069,1671462201739408134,gps,2,1,42.3013614557,-83.6986717155,272.33203125,0.0001,0.0,0.0,0.0,0.000144,0.0,0.0,0.0,0.001936,2
1671462201713606448,365070,1671462201749560867,gps,2,1,42.3013614548,-83.698671715,272.33203125,0.0001,0.0,0.0,0.0,0.000144,0.0,0.0,0.0,0.001936,2
1671462201723609852,365071,1671462201759401625,gps,2,1,42.3013614548,-83.6986717158,272.331817627,0.0001,0.0,0.0,0.0,0.000144,0.0,0.0,0.0,0.001936,2
1671462201733683538,365072,1671462201769421780,gps,2,1,42.3013614528,-83.6986717151,272.331817627,0.0001,0.0,0.0,0.0,0.000144,0.0,0.0,0.0,0.001936,2
1671462201743334866,365073,1671462201779461066,gps,2,1,42.3013614515,-83.6986717146,272.331817627,0.0001,0.0,0.0,0.0,0.000144,0.0,0.0,0.0,0.001936,2
1671462201753308071,365074,1671462201789429178,gps,2,1,42.3013614508,-83.6986717152,272.331634521,0.0001,0.0,0.0,0.0,0.000144,0.0,0.0,0.0,0.001936,2
1671462201763362701,365075,1671462201799440882,gps,2,1,42.301361448,-83.6986717143,272.331604004,0.0001,0.0,0.0,0.0,0.000144,0.0,0.0,0.0,0.001936,2
1671462201773475006,365076,1671462201809475373,gps,2,1,42.3013614458,-83.6986717136,272.331604004,0.0001,0.0,0.0,0.0,0.000144,0.0,0.0,0.0,0.001936,2
1671462201783360336,365077,1671462201819383206,gps,2,1,42.3013614442,-83.6986717139,272.331420898,0.0001,0.0,0.0,0.0,0.000144,0.0,0.0,0.0,0.001936,2
1671462201793333378,365078,1671462201829513179,gps,2,1,42.3013614406,-83.6986717128,272.331420898,0.0001,0.0,0.0,0.0,0.000144,0.0,0.0,0.0,0.001936,2
1671462201803333100,365079,1671462201839436758,gps,2,1,42.3013614376,-83.6986717118,272.331420898,0.0001,0.0,0.0,0.0,0.000144,0.0,0.0,0.0,0.001936,2
1671462201813362679,365080,1671462201849399506,gps,2,1,42.3013614351,-83.6986717118,272.331237793,0.0001,0.0,0.0,0.0,0.000144,0.0,0.0,0.0,0.001936,2
1671462201823225348,365081,1671462201859409418,gps,2,1,42.3013614305,-83.6986717105,272.331237793,0.0001,0.0,0.0,0.0,0.000144,0.0,0.0,0.0,0.001936,2
1671462201833288355,365082,1671462201869471328,gps,2,1,42.3013614267,-83.6986717093,272.331207275,0.0001,0.0,0.0,0.0,0.000144,0.0,0.0,0.0,0.001936,2
1671462201843456385,365083,1671462201879408071,gps,2,1,42.3013614233,-83.6986717091,272.331054688,0.0001,0.0,0.0,0.0,0.000144,0.0,0.0,0.0,0.001936,2
1671462201853568768,365084,1671462201889416958,gps,2,1,42.3013614177,-83.6986717075,272.331054688,0.0001,0.0,0.0,0.0,0.000144,0.0,0.0,0.0,0.001936,2
1671462201863592029,365085,1671462201899474820,gps,2,1,42.3013614129,-83.6986717061,272.33102417,0.0001,0.0,0.0,0.0,0.000144,0.0,0.0,0.0,0.001936,2
1671462201873618990,365086,1671462201909412030,gps,2,1,42.3013614084,-83.6986717056,272.330871582,0.0001,0.0,0.0,0.0,0.000144,0.0,0.0,0.0,0.001936,2
1671462201883488111,365087,1671462201919414553,gps,2,1,42.3013614018,-83.6986717039,272.330871582,0.0001,0.0,0.0,0.0,0.000144,0.0,0.0,0.0,0.001936,2
1671462201893553300,365088,1671462201929466605,gps,2,1,42.301361396,-83.6986717022,272.330871582,0.0001,0.0,0.0,0.0,0.000144,0.0,0.0,0.0,0.001936,2
1671462201903482936,365089,1671462201939464503,gps,2,1,42.3013613903,-83.6986717016,272.330688477,0.0001,0.0,0.0,0.0,0.000144,0.0,0.0,0.0,0.001936,2
1671462201913297618,365090,1671462201949429932,gps,2,1,42.3013613826,-83.6986716996,272.330688477,0.0001,0.0,0.0,0.0,0.000144,0.0,0.0,0.0,0.001936,2
1671462201923366931,365091,1671462201959473887,gps,2,1,42.3013613758,-83.6986716978,272.330688477,0.0001,0.0,0.0,0.0,0.000144,0.0,0.0,0.0,0.001936,2
1671462201933265547,365092,1671462201969421537,gps,2,1,42.3013613691,-83.6986716971,272.330535889,0.0001,0.0,0.0,0.0,0.000144,0.0,0.0,0.0,0.001936,2
1671462201943359898,365093,1671462201979407122,gps,2,1,42.3013613603,-83.6986716949,272.330535889,0.0001,0.0,0.0,0.0,0.000144,0.0,0.0,0.0,0.001936,2
1671462201953256891,365094,1671462201989472530,gps,2,1,42.3013613524,-83.698671693,272.330535889,0.0001,0.0,0.0,0.0,0.000144,0.0,0.0,0.0,0.001936,2
1671462201963373343,365095,1671462201999500325,gps,2,1,42.3013613444,-83.698671692,272.330383301,0.0001,0.0,0.0,0.0,0.000144,0.0,0.0,0.0,0.001936,2
1671462201973127372,365096,1671462202009409645,gps,2,1,42.3013613345,-83.6986716897,272.330352783,0.0001,0.0,0.0,0.0,0.000144,0.0,0.0,0.0,0.001936,2
1671462201983536569,365097,1671462202019463028,gps,2,1,42.3013613256,-83.6986716875,272.330352783,0.0001,0.0,0.0,0.0,0.000144,0.0,0.0,0.0,0.001936,2
1671462201993462171,365098,1671462202029418368,gps,2,1,42.3013613165,-83.6986716863,272.330230713,0.0001,0.0,0.0,0.0,0.000144,0.0,0.0,0.0,0.001936,2
1671462202003494217,365099,1671462202039427982,gps,2,1,42.3013613055,-83.6986716838,272.330200195,0.0001,0.0,0.0,0.0,0.000144,0.0,0.0,0.0,0.001936,2
1671462202013397044,365100,1671462202049540864,gps,2,1,42.3013612953,-83.6986716814,272.330200195,0.0001,0.0,0.0,0.0,0.000144,0.0,0.0,0.0,0.001936,2
1671462202023427725,365101,1671462202059529786,gps,2,1,42.3013612851,-83.6986716799,272.330078125,0.0001,0.0,0.0,0.0,0.000144,0.0,0.0,0.0,0.001936,2
1671462202033513682,365102,1671462202069532584,gps,2,1,42.3013612729,-83.6986716772,272.330047607,0.0001,0.0,0.0,0.0,0.000144,0.0,0.0,0.0,0.001936,2
1671462202043411822,365103,1671462202079466807,gps,2,1,42.3013612617,-83.6986716746,272.330047607,0.0001,0.0,0.0,0.0,0.000144,0.0,0.0,0.0,0.001936,2
1671462202053438924,365104,1671462202089476797,gps,2,1,42.3013612515,-83.6986716742,272.329772949,0.0001,0.0,0.0,0.0,0.000144,0.0,0.0,0.0,0.001936,2
1671462202063377928,365105,1671462202099530849,gps,2,1,42.3013612382,-83.6986716713,272.329772949,0.0001,0.0,0.0,0.0,0.000144,0.0,0.0,0.0,0.001936,2
1671462202073599795,365106,1671462202109457873,gps,2,1,42.3013612259,-83.6986716685,272.329772949,0.0001,0.0,0.0,0.0,0.000144,0.0,0.0,0.0,0.001936,2
1671462202083401903,365107,1671462202119455570,gps,2,1,42.3013612145,-83.6986716678,272.329498291,0.0001,0.0,0.0,0.0,0.000144,0.0,0.0,0.0,0.001936,2
1671462202093210907,365108,1671462202129414371,gps,2,1,42.3013612,-83.6986716647,272.329498291,0.0001,0.0,0.0,0.0,0.000144,0.0,0.0,0.0,0.001936,2
1671462202103369726,365109,1671462202139520090,gps,2,1,42.3013611866,-83.6986716617,272.329498291,0.0001,0.0,0.0,0.0,0.000144,0.0,0.0,0.0,0.001936,2
1671462202113164317,365110,1671462202149494639,gps,2,1,42.301361174,-83.6986716608,272.32925415,0.0001,0.0,0.0,0.0,0.000144,0.0,0.0,0.0,0.001936,2
1671462202123111557,365111,1671462202159421656,gps,2,1,42.3013611584,-83.6986716575,272.329223633,0.0001,0.0,0.0,0.0,0.000144,0.0,0.0,0.0,0.001936,2
1671462202133626521,365112,1671462202169508041,gps,2,1,42.3013611437,-83.6986716543,272.329223633,0.0001,0.0,0.0,0.0,0.000144,0.0,0.0,0.0,0.001936,2
1671462202143917317,365113,1671462202179521281,gps,2,1,42.3013611298,-83.698671653,272.328979492,0.0001,0.0,0.0,0.0,0.000144,0.0,0.0,0.0,0.001936,2
1671462202153506560,365114,1671462202189434718,gps,2,1,42.3013611129,-83.6986716495,272.328979492,0.0001,0.0,0.0,0.0,0.000144,0.0,0.0,0.0,0.001936,2
1671462202163412055,365115,1671462202199523743,gps,2,1,42.3013610971,-83.6986716461,272.328948975,0.0001,0.0,0.0,0.0,0.000144,0.0,0.0,0.0,0.001936,2
1671462202173677618,365116,1671462202209492551,gps,2,1,42.3013610819,-83.6986716446,272.328735352,0.0001,0.0,0.0,0.0,0.000144,0.0,0.0,0.0,0.001936,2
1671462202183473754,365117,1671462202219531767,gps,2,1,42.3013610638,-83.6986716408,272.328704834,0.0001,0.0,0.0,0.0,0.000144,0.0,0.0,0.0,0.001936,2
1671462202193415281,365118,1671462202229496001,gps,2,1,42.3013610466,-83.6986716372,272.328704834,0.0001,0.0,0.0,0.0,0.000144,0.0,0.0,0.0,0.001936,2
1671462202203392589,365119,1671462202239502164,gps,2,1,42.30136103,-83.6986716355,272.328460693,0.0001,0.0,0.0,0.0,0.000144,0.0,0.0,0.0,0.001936,2
1671462202213327785,365120,1671462202249575007,gps,2,1,42.3013610106,-83.6986716314,272.328460693,0.0001,0.0,0.0,0.0,0.000144,0.0,0.0,0.0,0.001936,2
1671462202223391206,365121,1671462202259398176,gps,2,1,42.3013609921,-83.6986716275,272.328430176,0.0001,0.0,0.0,0.0,0.000144,0.0,0.0,0.0,0.001936,2
1671462202233317369,365122,1671462202269426198,gps,2,1,42.3013609742,-83.6986716255,272.328216553,0.0001,0.0,0.0,0.0,0.000144,0.0,0.0,0.0,0.001936,2
1671462202243512489,365123,1671462202279455426,gps,2,1,42.3013609534,-83.6986716212,272.328186035,0.0001,0.0,0.0,0.0,0.000144,0.0,0.0,0.0,0.001936,2
1671462202253156053,365124,1671462202289418966,gps,2,1,42.3013609339,-83.6986716171,272.328186035,0.0001,0.0,0.0,0.0,0.000144,0.0,0.0,0.0,0.001936,2
1671462202263190705,365125,1671462202299426085,gps,2,1,42.3013609146,-83.6986716147,272.327972412,0.0001,0.0,0.0,0.0,0.000144,0.0,0.0,0.0,0.001936,2
1671462202273609153,365126,1671462202309429124,gps,2,1,42.3013608926,-83.6986716101,272.327941895,0.0001,0.0,0.0,0.0,0.000144,0.0,0.0,0.0,0.001936,2
1671462202283607835,365127,1671462202319481657,gps,2,1,42.3013608717,-83.6986716058,272.327941895,0.0001,0.0,0.0,0.0,0.000144,0.0,0.0,0.0,0.001936,2
1671462202293731856,365128,1671462202329414823,gps,2,1,42.3013608511,-83.6986716032,272.327728271,0.0001,0.0,0.0,0.0,0.000144,0.0,0.0,0.0,0.001936,2
1671462202303346666,365129,1671462202339476261,gps,2,1,42.3013608279,-83.6986715984,272.327697754,0.0001,0.0,0.0,0.0,0.000144,0.0,0.0,0.0,0.001936,2
1671462202313290518,365130,1671462202349430670,gps,2,1,42.3013608056,-83.6986715938,272.327697754,0.0001,0.0,0.0,0.0,0.000144,0.0,0.0,0.0,0.001936,2
1671462202323448193,365131,1671462202359411193,gps,2,1,42.3013607837,-83.6986715909,272.327484131,0.0001,0.0,0.0,0.0,0.000144,0.0,0.0,0.0,0.001936,2
1671462202333434625,365132,1671462202369465129,gps,2,1,42.3013607592,-83.6986715858,272.327453613,0.0001,0.0,0.0,0.0,0.000144,0.0,0.0,0.0,0.001936,2
1671462202343609271,365133,1671462202379420291,gps,2,1,42.3013607357,-83.698671581,272.327453613,0.0001,0.0,0.0,0.0,0.000144,0.0,0.0,0.0,0.001936,2
1671462202353262523,365134,1671462202389434761,gps,2,1,42.3013607125,-83.6986715777,272.32723999,0.0001,0.0,0.0,0.0,0.000144,0.0,0.0,0.0,0.001936,2
1671462202363533205,365135,1671462202399491413,gps,2,1,42.3013606866,-83.6986715723,272.32723999,0.0001,0.0,0.0,0.0,0.000144,0.0,0.0,0.0,0.001936,2
1671462202373291921,365136,1671462202409416758,gps,2,1,42.3013606618,-83.6986715672,272.327209473,0.0001,0.0,0.0,0.0,0.000144,0.0,0.0,0.0,0.001936,2
1671462202383281620,365137,1671462202419409548,gps,2,1,42.3013606372,-83.6986715636,272.327026367,0.0001,0.0,0.0,0.0,0.000144,0.0,0.0,0.0,0.001936,2
1671462202393619774,365138,1671462202429503403,gps,2,1,42.3013606099,-83.6986715578,272.32699585,0.0001,0.0,0.0,0.0,0.000144,0.0,0.0,0.0,0.001936,2
1671462202403528412,365139,1671462202439455411,gps,2,1,42.3013605838,-83.6986715524,272.326965332,0.0001,0.0,0.0,0.0,0.000144,0.0,0.0,0.0,0.001936,2
1671462202413761761,365140,1671462202449463240,gps,2,1,42.3013605577,-83.6986715484,272.326782227,0.0001,0.0,0.0,0.0,0.000144,0.0,0.0,0.0,0.001936,2
1671462202423684171,365141,1671462202459470361,gps,2,1,42.301360529,-83.6986715423,272.326751709,0.0001,0.0,0.0,0.0,0.000144,0.0,0.0,0.0,0.001936,2
1671462202433580037,365142,1671462202469445572,gps,2,1,42.3013605015,-83.6986715365,272.326721191,0.0001,0.0,0.0,0.0,0.000144,0.0,0.0,0.0,0.001936,2
1671462202443686900,365143,1671462202479423786,gps,2,1,42.3013604739,-83.6986715321,272.326538086,0.0001,0.0,0.0,0.0,0.000144,0.0,0.0,0.0,0.001936,2
1671462202453333329,365144,1671462202489480001,gps,2,1,42.3013604437,-83.6986715257,272.326477051,0.0001,0.0,0.0,0.0,0.000144,0.0,0.0,0.0,0.001936,2
1671462202463406507,365145,1671462202499511192,gps,2,1,42.3013604147,-83.6986715195,272.326446533,0.0001,0.0,0.0,0.0,0.000144,0.0,0.0,0.0,0.001936,2
1671462202473414018,365146,1671462202509435562,gps,2,1,42.3013603855,-83.6986715148,272.326263428,0.0001,0.0,0.0,0.0,0.000144,0.0,0.0,0.0,0.001936,2
1671462202483443720,365147,1671462202519475859,gps,2,1,42.3013603539,-83.6986715081,272.326202393,0.0001,0.0,0.0,0.0,0.000144,0.0,0.0,0.0,0.001936,2
1671462202493667131,365148,1671462202529408486,gps,2,1,42.3013603234,-83.6986715016,272.326171875,0.0001,0.0,0.0,0.0,0.000144,0.0,0.0,0.0,0.001936,2
1671462202503419243,365149,1671462202539464857,gps,2,1,42.3013602927,-83.6986714966,272.32598877,0.0001,0.0,0.0,0.0,0.000144,0.0,0.0,0.0,0.001936,2
1671462202513251086,365150,1671462202549527321,gps,2,1,42.3013602595,-83.6986714896,272.325927734,0.0001,0.0,0.0,0.0,0.000144,0.0,0.0,0.0,0.001936,2
1671462202523363194,365151,1671462202559472711,gps,2,1,42.3013602276,-83.6986714828,272.325897217,0.0001,0.0,0.0,0.0,0.000144,0.0,0.0,0.0,0.001936,2
1671462202533240528,365152,1671462202569437005,gps,2,1,42.3013601954,-83.6986714792,272.325653076,0.0001,0.0,0.0,0.0,0.000144,0.0,0.0,0.0,0.001936,2
1671462202543229123,365153,1671462202579477113,gps,2,1,42.3013601606,-83.6986714719,272.325592041,0.0001,0.0,0.0,0.0,0.000144,0.0,0.0,0.0,0.001936,2
1671462202553608448,365154,1671462202589563597,gps,2,1,42.3013601271,-83.6986714649,272.325531006,0.0001,0.0,0.0,0.0,0.000144,0.0,0.0,0.0,0.001936,2
1671462202563684289,365155,1671462202599438943,gps,2,1,42.3013600932,-83.6986714609,272.325286865,0.0001,0.0,0.0,0.0,0.000144,0.0,0.0,0.0,0.001936,2
1671462202573694442,365156,1671462202609476818,gps,2,1,42.3013600569,-83.6986714534,272.32522583,0.0001,0.0,0.0,0.0,0.000144,0.0,0.0,0.0,0.001936,2
1671462202583438188,365157,1671462202619495728,gps,2,1,42.3013600218,-83.6986714461,272.325164795,0.0001,0.0,0.0,0.0,0.000144,0.0,0.0,0.0,0.001936,2
1671462202593555999,365158,1671462202629428446,gps,2,1,42.3013599863,-83.6986714417,272.324951172,0.0001,0.0,0.0,0.0,0.000144,0.0,0.0,0.0,0.001936,2
1671462202603281690,365159,1671462202639425163,gps,2,1,42.3013599484,-83.6986714339,272.324890137,0.0001,0.0,0.0,0.0,0.000144,0.0,0.0,0.0,0.001936,2
1671462202613324330,365160,1671462202649471376,gps,2,1,42.3013599118,-83.6986714263,272.324829102,0.0001,0.0,0.0,0.0,0.000144,0.0,0.0,0.0,0.001936,2
1671462202623515084,365161,1671462202659456658,gps,2,1,42.3013598747,-83.6986714216,272.324615479,0.0001,0.0,0.0,0.0,0.000144,0.0,0.0,0.0,0.001936,2
1671462202633447417,365162,1671462202669497843,gps,2,1,42.3013598352,-83.6986714136,272.324554443,0.0001,0.0,0.0,0.0,0.000144,0.0,0.0,0.0,0.001936,2
1671462202643429801,365163,1671462202679476297,gps,2,1,42.3013597971,-83.6986714058,272.324493408,0.0001,0.0,0.0,0.0,0.000144,0.0,0.0,0.0,0.001936,2
1671462202653257171,365164,1671462202689416950,gps,2,1,42.3013597584,-83.6986714007,272.324279785,0.0001,0.0,0.0,0.0,0.000144,0.0,0.0,0.0,0.001936,2
1671462202663255708,365165,1671462202699399568,gps,2,1,42.3013597174,-83.6986713924,272.32421875,0.0001,0.0,0.0,0.0,0.000144,0.0,0.0,0.0,0.001936,2
1671462202673357408,365166,1671462202709481259,gps,2,1,42.3013596776,-83.6986713844,272.324157715,0.0001,0.0,0.0,0.0,0.000144,0.0,0.0,0.0,0.001936,2
1671462202683210148,365167,1671462202719395099,gps,2,1,42.3013596373,-83.698671379,272.323944092,0.0001,0.0,0.0,0.0,0.000144,0.0,0.0,0.0,0.001936,2
1671462202693837078,365168,1671462202729430388,gps,2,1,42.3013595947,-83.6986713705,272.323883057,0.0001,0.0,0.0,0.0,0.000144,0.0,0.0,0.0,0.001936,2
1671462202703409905,365169,1671462202739477692,gps,2,1,42.3013595534,-83.6986713623,272.323852539,0.0001,0.0,0.0,0.0,0.000144,0.0,0.0,0.0,0.001936,2
1671462202713587413,365170,1671462202749499669,gps,2,1,42.3013595116,-83.6986713565,272.323608398,0.0001,0.0,0.0,0.0,0.000144,0.0,0.0,0.0,0.001936,2
1671462202723594281,365171,1671462202759421666,gps,2,1,42.3013594675,-83.6986713477,272.323577881,0.0001,0.0,0.0,0.0,0.000144,0.0,0.0,0.0,0.001936,2
1671462202733567444,365172,1671462202769473934,gps,2,1,42.3013594247,-83.6986713391,272.323516846,0.0001,0.0,0.0,0.0,0.000144,0.0,0.0,0.0,0.001936,2
1671462202743562203,365173,1671462202779421385,gps,2,1,42.3013593812,-83.6986713328,272.323303223,0.0001,0.0,0.0,0.0,0.000144,0.0,0.0,0.0,0.001936,2
1671462202753531451,365174,1671462202789552856,gps,2,1,42.3013593355,-83.6986713237,272.32321167,0.0001,0.0,0.0,0.0,0.000144,0.0,0.0,0.0,0.001936,2
1671462202763375690,365175,1671462202799500606,gps,2,1,42.3013592912,-83.6986713148,272.323150635,0.0001,0.0,0.0,0.0,0.000144,0.0,0.0,0.0,0.001936,2
1671462202773382366,365176,1671462202809420794,gps,2,1,42.3013592462,-83.6986713082,272.322937012,0.0001,0.0,0.0,0.0,0.000144,0.0,0.0,0.0,0.001936,2
1671462202783360567,365177,1671462202819415441,gps,2,1,42.3013591988,-83.6986712987,272.322875977,0.0001,0.0,0.0,0.0,0.000144,0.0,0.0,0.0,0.001936,2
1671462202793329804,365178,1671462202829467478,gps,2,1,42.3013591528,-83.6986712895,272.322814941,0.0001,0.0,0.0,0.0,0.000144,0.0,0.0,0.0,0.001936,2
1671462202803347686,365179,1671462202839392651,gps,2,1,42.301359106,-83.6986712824,272.322601318,0.0001,0.0,0.0,0.0,0.000144,0.0,0.0,0.0,0.001936,2
1671462202813263284,365180,1671462202849421487,gps,2,1,42.3013590568,-83.6986712727,272.322509766,0.0001,0.0,0.0,0.0,0.000144,0.0,0.0,0.0,0.001936,2
1671462202823386941,365181,1671462202859490945,gps,2,1,42.3013590092,-83.6986712631,272.32244873,0.0001,0.0,0.0,0.0,0.000144,0.0,0.0,0.0,0.001936,2
1671462202833176728,365182,1671462202869425920,gps,2,1,42.3013589605,-83.6986712557,272.322235107,0.0001,0.0,0.0,0.0,0.000144,0.0,0.0,0.0,0.001936,2
1671462202843492490,365183,1671462202879416381,gps,2,1,42.3013589093,-83.6986712456,272.322174072,0.0001,0.0,0.0,0.0,0.000144,0.0,0.0,0.0,0.001936,2
1671462202853624256,365184,1671462202889564486,gps,2,1,42.3013588598,-83.6986712357,272.32208252,0.0001,0.0,0.0,0.0,0.000144,0.0,0.0,0.0,0.001936,2
1671462202863081527,365185,1671462202899443727,gps,2,1,42.301358809,-83.6986712279,272.321868896,0.0001,0.0,0.0,0.0,0.000144,0.0,0.0,0.0,0.001936,2
1671462202873269853,365186,1671462202909419744,gps,2,1,42.3013587557,-83.6986712174,272.321807861,0.0001,0.0,0.0,0.0,0.000144,0.0,0.0,0.0,0.001936,2
1671462202883449660,365187,1671462202919499102,gps,2,1,42.3013587042,-83.6986712072,272.321716309,0.0001,0.0,0.0,0.0,0.000144,0.0,0.0,0.0,0.001936,2
1671462202893850328,365188,1671462202929468788,gps,2,1,42.3013586512,-83.6986711991,272.321502686,0.0001,0.0,0.0,0.0,0.000144,0.0,0.0,0.0,0.001936,2
1671462202903337044,365189,1671462202939486070,gps,2,1,42.3013585957,-83.6986711882,272.32144165,0.0001,0.0,0.0,0.0,0.000144,0.0,0.0,0.0,0.001936,2
1671462202913356734,365190,1671462202949442803,gps,2,1,42.301358542,-83.6986711776,272.321350098,0.0001,0.0,0.0,0.0,0.000144,0.0,0.0,0.0,0.001936,2
1671462202923447222,365191,1671462202959401688,gps,2,1,42.3013584866,-83.698671169,272.321136475,0.0001,0.0,0.0,0.0,0.000144,0.0,0.0,0.0,0.001936,2
1671462202933335675,365192,1671462202969424090,gps,2,1,42.3013584286,-83.6986711577,272.321044922,0.0001,0.0,0.0,0.0,0.000144,0.0,0.0,0.0,0.001936,2
1671462202943325239,365193,1671462202979468742,gps,2,1,42.3013583728,-83.6986711468,272.320953369,0.0001,0.0,0.0,0.0,0.000144,0.0,0.0,0.0,0.001936,2
1671462202953351837,365194,1671462202989411611,gps,2,1,42.301358315,-83.6986711376,272.320739746,0.0001,0.0,0.0,0.0,0.000144,0.0,0.0,0.0,0.001936,2
1671462202963265589,365195,1671462202999519191,gps,2,1,42.3013582545,-83.6986711258,272.320648193,0.0001,0.0,0.0,0.0,0.000144,0.0,0.0,0.0,0.001936,2
1671462202973705999,365196,1671462203009473312,gps,2,1,42.3013581962,-83.6986711144,272.320556641,0.0001,0.0,0.0,0.0,0.000144,0.0,0.0,0.0,0.001936,2
1671462202983546203,365197,1671462203019421022,gps,2,1,42.3013581358,-83.6986711047,272.320343018,0.0001,0.0,0.0,0.0,0.000144,0.0,0.0,0.0,0.001936,2
1671462202993446319,365198,1671462203029412272,gps,2,1,42.3013580728,-83.6986710923,272.320220947,0.0001,0.0,0.0,0.0,0.000144,0.0,0.0,0.0,0.001936,2
1671462203003561678,365199,1671462203039630964,gps,2,1,42.301358012,-83.6986710805,272.320129395,0.0001,0.0,0.0,0.0,0.000144,0.0,0.0,0.0,0.001936,2
1671462203013506438,365200,1671462203049519253,gps,2,1,42.3013579489,-83.6986710686,272.319946289,0.0001,0.0,0.0,0.0,0.000144,0.0,0.0,0.0,0.001936,2
1671462203023466324,365201,1671462203059471384,gps,2,1,42.3013578832,-83.6986710557,272.319824219,0.0001,0.0,0.0,0.0,0.000144,0.0,0.0,0.0,0.001936,2
1671462203033597072,365202,1671462203069558441,gps,2,1,42.3013578197,-83.6986710433,272.319702148,0.0001,0.0,0.0,0.0,0.000144,0.0,0.0,0.0,0.001936,2
1671462203043690608,365203,1671462203079510866,gps,2,1,42.3013577539,-83.6986710308,272.319519043,0.0001,0.0,0.0,0.0,0.000144,0.0,0.0,0.0,0.001936,2
1671462203053212833,365204,1671462203089454918,gps,2,1,42.3013576854,-83.6986710173,272.319396973,0.0001,0.0,0.0,0.0,0.000144,0.0,0.0,0.0,0.001936,2
1671462203063671812,365205,1671462203099517660,gps,2,1,42.3013576192,-83.6986710043,272.319274902,0.0001,0.0,0.0,0.0,0.000144,0.0,0.0,0.0,0.001936,2
1671462203073630061,365206,1671462203109559019,gps,2,1,42.3013575506,-83.6986709913,272.319061279,0.0001,0.0,0.0,0.0,0.000144,0.0,0.0,0.0,0.001936,2
1671462203083491387,365207,1671462203119439914,gps,2,1,42.3013574791,-83.6986709772,272.318939209,0.0001,0.0,0.0,0.0,0.000144,0.0,0.0,0.0,0.001936,2
1671462203093222494,365208,1671462203129500852,gps,2,1,42.3013574101,-83.6986709636,272.318817139,0.0001,0.0,0.0,0.0,0.000144,0.0,0.0,0.0,0.001936,2
1671462203103308955,365209,1671462203139413786,gps,2,1,42.3013573384,-83.6986709499,272.318603516,0.0001,0.0,0.0,0.0,0.000144,0.0,0.0,0.0,0.001936,2
1671462203113267054,365210,1671462203149459072,gps,2,1,42.3013572639,-83.6986709352,272.318481445,0.0001,0.0,0.0,0.0,0.000144,0.0,0.0,0.0,0.001936,2
1671462203123415453,365211,1671462203159538826,gps,2,1,42.301357192,-83.698670921,272.318328857,0.0001,0.0,0.0,0.0,0.000144,0.0,0.0,0.0,0.001936,2
1671462203133293711,365212,1671462203169522371,gps,2,1,42.3013571174,-83.6986709066,272.318115234,0.0001,0.0,0.0,0.0,0.000144,0.0,0.0,0.0,0.001936,2
1671462203143950759,365213,1671462203179502782,gps,2,1,42.3013570398,-83.6986708913,272.317962646,0.0001,0.0,0.0,0.0,0.000144,0.0,0.0,0.0,0.001936,2
1671462203153740248,365214,1671462203189476170,gps,2,1,42.3013569649,-83.6986708764,272.317840576,0.0001,0.0,0.0,0.0,0.000144,0.0,0.0,0.0,0.001936,2
1671462203163484449,365215,1671462203199428203,gps,2,1,42.3013568871,-83.6986708615,272.317626953,0.0001,0.0,0.0,0.0,0.000144,0.0,0.0,0.0,0.001936,2
1671462203173756339,365216,1671462203209428190,gps,2,1,42.3013568064,-83.6986708455,272.317443848,0.0001,0.0,0.0,0.0,0.000144,0.0,0.0,0.0,0.001936,2
1671462203183670246,365217,1671462203219475059,gps,2,1,42.3013567283,-83.6986708301,272.317321777,0.0001,0.0,0.0,0.0,0.000144,0.0,0.0,0.0,0.001936,2
1671462203193824454,365218,1671462203229425925,gps,2,1,42.3013566473,-83.6986708145,272.317077637,0.0001,0.0,0.0,0.0,0.000144,0.0,0.0,0.0,0.001936,2
1671462203203417589,365219,1671462203239421074,gps,2,1,42.3013565634,-83.6986707979,272.316925049,0.0001,0.0,0.0,0.0,0.000144,0.0,0.0,0.0,0.001936,2
1671462203213677137,365220,1671462203249572972,gps,2,1,42.3013564822,-83.6986707818,272.316772461,0.0001,0.0,0.0,0.0,0.000144,0.0,0.0,0.0,0.001936,2
