%time,field.header.seq,field.header.stamp,field.header.frame_id,field.status.status,field.status.service,field.latitude,field.longitude,field.altitude,field.position_covariance0,field.position_covariance1,field.position_covariance2,field.position_covariance3,field.position_covariance4,field.position_covariance5,field.position_covariance6,field.position_covariance7,field.position_covariance8,field.position_covariance_type
1671461241923233773,269091,1671461241944205705,gps,2,1,42.3009757648,-83.6979118985,272.238189697,0.000144,0.0,0.0,0.0,0.000196,0.0,0.0,0.0,0.003721,2
1671461241933356472,269092,1671461241954164583,gps,2,1,42.3009757654,-83.6979118992,272.23828125,0.000144,0.0,0.0,0.0,0.000196,0.0,0.0,0.0,0.003721,2
1671461241943682068,269093,1671461241964265229,gps,2,1,42.3009757653,-83.6979118992,272.238311768,0.000144,0.0,0.0,0.0,0.000196,0.0,0.0,0.0,0.003721,2
1671461241953455062,269094,1671461241974206653,gps,2,1,42.3009757652,-83.6979118992,272.238342285,0.000144,0.0,0.0,0.0,0.000196,0.0,0.0,0.0,0.003721,2
1671461241963586574,269095,1671461241984161661,gps,2,1,42.3009757659,-83.6979118999,272.238433838,0.000144,0.0,0.0,0.0,0.000196,0.0,0.0,0.0,0.003721,2
1671461241973298946,269096,1671461241994172173,gps,2,1,42.3009757658,-83.6979119,272.238433838,0.000144,0.0,0.0,0.0,0.000196,0.0,0.0,0.0,0.003721,2
1671461241983335392,269097,1671461242004231749,gps,2,1,42.3009757657,-83.6979119,272.238464355,0.000144,0.0,0.0,0.0,0.000196,0.0,0.0,0.0,0.003721,2
1671461241993608450,269098,1671461242014158346,gps,2,1,42.3009757664,-83.6979119007,272.238555908,0.000144,0.0,0.0,0.0,0.000196,0.0,0.0,0.0,0.003721,2
1671461242003569876,269099,1671461242024283418,gps,2,1,42.3009757664,-83.6979119008,272.238586426,0.000144,0.0,0.0,0.0,0.000196,0.0,0.0,0.0,0.003721,2
1671461242013514282,269100,1671461242034368361,gps,2,1,42.3009757663,-83.6979119008,272.238616943,0.000144,0.0,0.0,0.0,0.000196,0.0,0.0,0.0,0.003721,2
1671461242023482842,269101,1671461242044304571,gps,2,1,42.300975767,-83.6979119015,272.238677979,0.000144,0.0,0.0,0.0,0.000196,0.0,0.0,0.0,0.003721,2
1671461242033357205,269102,1671461242054204578,gps,2,1,42.3009757669,-83.6979119017,272.238708496,0.000144,0.0,0.0,0.0,0.000196,0.0,0.0,0.0,0.003721,2
1671461242043466127,269103,1671461242064274074,gps,2,1,42.3009757669,-83.6979119017,272.238739014,0.000144,0.0,0.0,0.0,0.000196,0.0,0.0,0.0,0.003721,2
1671461242053572535,269104,1671461242074213649,gps,2,1,42.3009757672,-83.6979119012,272.238891602,0.000144,0.0,0.0,0.0,0.000196,0.0,0.0,0.0,0.003721,2
1671461242063248727,269105,1671461242084176096,gps,2,1,42.3009757672,-83.6979119013,272.238922119,0.000144,0.0,0.0,0.0,0.000196,0.0,0.0,0.0,0.003721,2
1671461242073322022,269106,1671461242094254361,gps,2,1,42.3009757671,-83.6979119014,272.238952637,0.000144,0.0,0.0,0.0,0.000196,0.0,0.0,0.0,0.003721,2
1671461242083537504,269107,1671461242104254027,gps,2,1,42.3009757674,-83.6979119009,272.239105225,0.000144,0.0,0.0,0.0,0.000196,0.0,0.0,0.0,0.003721,2
1671461242093430721,269108,1671461242114217708,gps,2,1,42.3009757674,-83.697911901,272.239105225,0.000144,0.0,0.0,0.0,0.000196,0.0,0.0,0.0,0.003721,2
1671461242103478959,269109,1671461242124226556,gps,2,1,42.3009757674,-83.6979119011,272.239135742,0.000144,0.0,0.0,0.0,0.000196,0.0,0.0,0.0,0.003721,2
1671461242113435513,269110,1671461242134246429,gps,2,1,42.3009757677,-83.6979119006,272.23928833,0.000144,0.0,0.0,0.0,0.000196,0.0,0.0,0.0,0.003721,2
1671461242123496653,269111,1671461242144220987,gps,2,1,42.3009757676,-83.6979119008,272.23928833,0.000144,0.0,0.0,0.0,0.000196,0.0,0.0,0.0,0.003721,2
1671461242133368809,269112,1671461242154223117,gps,2,1,42.3009757676,-83.6979119009,272.239318848,0.000144,0.0,0.0,0.0,0.000196,0.0,0.0,0.0,0.003721,2
1671461242143513367,269113,1671461242164238100,gps,2,1,42.3009757682,-83.6979119006,272.239440918,0.000144,0.0,0.0,0.0,0.000196,0.0,0.0,0.0,0.003721,2
1671461242153439064,269114,1671461242174170590,gps,2,1,42.3009757681,-83.6979119008,272.239471436,0.000144,0.0,0.0,0.0,0.000196,0.0,0.0,0.0,0.003721,2
1671461242163366534,269115,1671461242184269461,gps,2,1,42.3009757681,-83.6979119009,272.239471436,0.000144,0.0,0.0,0.0,0.000196,0.0,0.0,0.0,0.003721,2
1671461242173555883,269116,1671461242194226800,gps,2,1,42.3009757687,-83.6979119007,272.239593506,0.000144,0.0,0.0,0.0,0.000196,0.0,0.0,0.0,0.003721,2
1671461242183297108,269117,1671461242204212584,gps,2,1,42.3009757686,-83.6979119008,272.239624023,0.000144,0.0,0.0,0.0,0.000196,0.0,0.0,0.0,0.003721,2
1671461242193343340,269118,1671461242214351159,gps,2,1,42.3009757685,-83.6979119009,272.239624023,0.000144,0.0,0.0,0.0,0.000196,0.0,0.0,0.0,0.003721,2
1671461242203193633,269119,1671461242224244675,gps,2,1,42.3009757691,-83.6979119007,272.239746094,0.000144,0.0,0.0,0.0,0.000196,0.0,0.0,0.0,0.003721,2
1671461242213195098,269120,1671461242234177044,gps,2,1,42.300975769,-83.6979119007,272.239776611,0.000144,0.0,0.0,0.0,0.000196,0.0,0.0,0.0,0.003721,2
1671461242223128807,269121,1671461242244226338,gps,2,1,42.300975769,-83.6979119009,272.239776611,0.000144,0.0,0.0,0.0,0.000196,0.0,0.0,0.0,0.003721,2
1671461242233296633,269122,1671461242254178146,gps,2,1,42.3009757695,-83.6979119006,272.239898682,0.000144,0.0,0.0,0.0,0.000196,0.0,0.0,0.0,0.003721,2
1671461242243133755,269123,1671461242264153182,gps,2,1,42.3009757695,-83.6979119007,272.239929199,0.000144,0.0,0.0,0.0,0.000196,0.0,0.0,0.0,0.003721,2
1671461242253148568,269124,1671461242274225675,gps,2,1,42.3009757694,-83.6979119008,272.239929199,0.000144,0.0,0.0,0.0,0.000196,0.0,0.0,0.0,0.003721,2
1671461242263529939,269125,1671461242284285578,gps,2,1,42.30097577,-83.6979119006,272.24005127,0.000144,0.0,0.0,0.0,0.000196,0.0,0.0,0.0,0.003721,2
1671461242273602755,269126,1671461242294175466,gps,2,1,42.30097577,-83.6979119007,272.24005127,0.000144,0.0,0.0,0.0,0.000196,0.0,0.0,0.0,0.003721,2
1671461242283258598,269127,1671461242304220679,gps,2,1,42.3009757699,-83.6979119008,272.240081787,0.000144,0.0,0.0,0.0,0.000196,0.0,0.0,0.0,0.003721,2
1671461242293377800,269128,1671461242314150570,gps,2,1,42.3009757705,-83.6979119006,272.24017334,0.000144,0.0,0.0,0.0,0.000196,0.0,0.0,0.0,0.003721,2
1671461242303281343,269129,1671461242324224372,gps,2,1,42.3009757705,-83.6979119007,272.240203857,0.000144,0.0,0.0,0.0,0.000196,0.0,0.0,0.0,0.003721,2
1671461242313258515,269130,1671461242334197606,gps,2,1,42.3009757705,-83.6979119008,272.240234375,0.000144,0.0,0.0,0.0,0.000196,0.0,0.0,0.0,0.003721,2
1671461242323118432,269131,1671461242344174143,gps,2,1,42.3009757711,-83.6979119006,272.240325928,0.000144,0.0,0.0,0.0,0.000196,0.0,0.0,0.0,0.003721,2
1671461242333139956,269132,1671461242354177840,gps,2,1,42.3009757711,-83.6979119008,272.240356445,0.000144,0.0,0.0,0.0,0.000196,0.0,0.0,0.0,0.003721,2
1671461242343273891,269133,1671461242364238122,gps,2,1,42.3009757711,-83.6979119009,272.240356445,0.000144,0.0,0.0,0.0,0.000196,0.0,0.0,0.0,0.003721,2
1671461242353087676,269134,1671461242374311707,gps,2,1,42.3009757717,-83.6979119008,272.240447998,0.000144,0.0,0.0,0.0,0.000196,0.0,0.0,0.0,0.003721,2
1671461242363269297,269135,1671461242384189246,gps,2,1,42.3009757717,-83.6979119009,272.240478516,0.000144,0.0,0.0,0.0,0.000196,0.0,0.0,0.0,0.003721,2
1671461242373571207,269136,1671461242394256297,gps,2,1,42.3009757717,-83.697911901,272.240509033,0.000144,0.0,0.0,0.0,0.000196,0.0,0.0,0.0,0.003721,2
1671461242383171581,269137,1671461242404191833,gps,2,1,42.3009757722,-83.6979119008,272.240600586,0.000144,0.0,0.0,0.0,0.000196,0.0,0.0,0.0,0.003721,2
1671461242393133305,269138,1671461242414160446,gps,2,1,42.3009757723,-83.697911901,272.240600586,0.000144,0.0,0.0,0.0,0.000196,0.0,0.0,0.0,0.003721,2
1671461242403500750,269139,1671461242424248833,gps,2,1,42.3009757723,-83.6979119011,272.240631104,0.000144,0.0,0.0,0.0,0.000196,0.0,0.0,0.0,0.003721,2
1671461242413395371,269140,1671461242434168662,gps,2,1,42.3009757728,-83.6979119008,272.240722656,0.000144,0.0,0.0,0.0,0.000196,0.0,0.0,0.0,0.003721,2
1671461242423584101,269141,1671461242444238092,gps,2,1,42.3009757728,-83.697911901,272.240753174,0.000144,0.0,0.0,0.0,0.000196,0.0,0.0,0.0,0.003721,2
1671461242433500694,269142,1671461242454175595,gps,2,1,42.3009757728,-83.6979119012,272.240783691,0.000144,0.0,0.0,0.0,0.000196,0.0,0.0,0.0,0.003721,2
1671461242443306803,269143,1671461242464249982,gps,2,1,42.3009757733,-83.6979119009,272.240844727,0.000144,0.0,0.0,0.0,0.000196,0.0,0.0,0.0,0.003721,2
1671461242453327809,269144,1671461242474278137,gps,2,1,42.3009757733,-83.6979119011,272.240875244,0.000144,0.0,0.0,0.0,0.000196,0.0,0.0,0.0,0.003721,2
1671461242463415639,269145,1671461242484199353,gps,2,1,42.3009757733,-83.6979119013,272.240905762,0.000144,0.0,0.0,0.0,0.000196,0.0,0.0,0.0,0.003721,2
1671461242473416887,269146,1671461242494182257,gps,2,1,42.3009757738,-83.6979119011,272.240997314,0.000144,0.0,0.0,0.0,0.000196,0.0,0.0,0.0,0.003721,2
1671461242483451047,269147,1671461242504197998,gps,2,1,42.3009757738,-83.6979119012,272.240997314,0.000144,0.0,0.0,0.0,0.000196,0.0,0.0,0.0,0.003721,2
1671461242493572810,269148,1671461242514207430,gps,2,1,42.3009757738,-83.6979119014,272.241027832,0.000144,0.0,0.0,0.0,0.000196,0.0,0.0,0.0,0.003721,2
1671461242503333304,269149,1671461242524235160,gps,2,1,42.3009757742,-83.6979119012,272.241119385,0.000144,0.0,0.0,0.0,0.000196,0.0,0.0,0.0,0.003721,2
1671461242513868738,269150,1671461242534386178,gps,2,1,42.3009757742,-83.6979119013,272.241119385,0.000144,0.0,0.0,0.0,0.000196,0.0,0.0,0.0,0.003721,2
1671461242523690862,269151,1671461242544203451,gps,2,1,42.3009757742,-83.6979119014,272.241149902,0.000144,0.0,0.0,0.0,0.000196,0.0,0.0,0.0,0.003721,2
1671461242533219063,269152,1671461242554233749,gps,2,1,42.3009757761,-83.6979119012,272.241027832,0.000144,0.0,0.0,0.0,0.000196,0.0,0.0,0.0,0.003721,2
1671461242543472641,269153,1671461242564305846,gps,2,1,42.3009757761,-83.6979119013,272.24105835,0.000144,0.0,0.0,0.0,0.000196,0.0,0.0,0.0,0.003721,2
1671461242553579070,269154,1671461242574226698,gps,2,1,42.3009757761,-83.6979119014,272.241088867,0.000144,0.0,0.0,0.0,0.000196,0.0,0.0,0.0,0.003721,2
1671461242563768462,269155,1671461242584239656,gps,2,1,42.300975778,-83.6979119011,272.240966797,0.000144,0.0,0.0,0.0,0.000196,0.0,0.0,0.0,0.003721,2
1671461242573645462,269156,1671461242594231594,gps,2,1,42.3009757781,-83.6979119012,272.240997314,0.000144,0.0,0.0,0.0,0.000196,0.0,0.0,0.0,0.003721,2
1671461242583428611,269157,1671461242604187529,gps,2,1,42.3009757781,-83.6979119013,272.240997314,0.000144,0.0,0.0,0.0,0.000196,0.0,0.0,0.0,0.003721,2
1671461242593394906,269158,1671461242614161653,gps,2,1,42.30097578,-83.6979119011,272.240905762,0.000144,0.0,0.0,0.0,0.000196,0.0,0.0,0.0,0.003721,2
1671461242603277214,269159,1671461242624224825,gps,2,1,42.3009757801,-83.6979119012,272.240905762,0.000144,0.0,0.0,0.0,0.000196,0.0,0.0,0.0,0.003721,2
1671461242613575823,269160,1671461242634164360,gps,2,1,42.3009757802,-83.6979119013,272.240936279,0.000144,0.0,0.0,0.0,0.000196,0.0,0.0,0.0,0.003721,2
1671461242623392475,269161,1671461242644149518,gps,2,1,42.3009757821,-83.6979119011,272.240844727,0.000144,0.0,0.0,0.0,0.000196,0.0,0.0,0.0,0.003721,2
1671461242633381929,269162,1671461242654237189,gps,2,1,42.3009757822,-83.6979119012,272.240844727,0.000144,0.0,0.0,0.0,0.000196,0.0,0.0,0.0,0.003721,2
1671461242643435612,269163,1671461242664142883,gps,2,1,42.3009757823,-83.6979119014,272.240875244,0.000144,0.0,0.0,0.0,0.000196,0.0,0.0,0.0,0.003721,2
1671461242653182300,269164,1671461242674159236,gps,2,1,42.3009757838,-83.6979119013,272.240814209,0.000144,0.0,0.0,0.0,0.000196,0.0,0.0,0.0,0.003721,2
1671461242663537578,269165,1671461242684218061,gps,2,1,42.3009757839,-83.6979119015,272.240814209,0.000144,0.0,0.0,0.0,0.000196,0.0,0.0,0.0,0.003721,2
1671461242673341850,269166,1671461242694219930,gps,2,1,42.3009757841,-83.6979119017,272.240844727,0.000144,0.0,0.0,0.0,0.000196,0.0,0.0,0.0,0.003721,2
1671461242683433037,269167,1671461242704188290,gps,2,1,42.3009757855,-83.6979119017,272.240783691,0.000144,0.0,0.0,0.0,0.000196,0.0,0.0,0.0,0.003721,2
1671461242693730083,269168,1671461242714307877,gps,2,1,42.3009757857,-83.6979119019,272.240783691,0.000144,0.0,0.0,0.0,0.000196,0.0,0.0,0.0,0.003721,2
1671461242703454941,269169,1671461242724175239,gps,2,1,42.3009757858,-83.6979119021,272.240814209,0.000144,0.0,0.0,0.0,0.000196,0.0,0.0,0.0,0.003721,2
1671461242713588435,269170,1671461242734156337,gps,2,1,42.3009757872,-83.697911902,272.240753174,0.000144,0.0,0.0,0.0,0.000196,0.0,0.0,0.0,0.003721,2
1671461242723548135,269171,1671461242744218311,gps,2,1,42.3009757873,-83.6979119023,272.240753174,0.000144,0.0,0.0,0.0,0.000196,0.0,0.0,0.0,0.003721,2
1671461242733618033,269172,1671461242754170309,gps,2,1,42.3009757875,-83.6979119024,272.240783691,0.000144,0.0,0.0,0.0,0.000196,0.0,0.0,0.0,0.003721,2
1671461242743408688,269173,1671461242764149168,gps,2,1,42.3009757888,-83.6979119024,272.240722656,0.000144,0.0,0.0,0.0,0.000196,0.0,0.0,0.0,0.003721,2
1671461242753406737,269174,1671461242774212905,gps,2,1,42.3009757889,-83.6979119026,272.240722656,0.000144,0.0,0.0,0.0,0.000196,0.0,0.0,0.0,0.003721,2
1671461242763310220,269175,1671461242784333108,gps,2,1,42.300975789,-83.6979119028,272.240753174,0.000144,0.0,0.0,0.0,0.000196,0.0,0.0,0.0,0.003721,2
1671461242773558471,269176,1671461242794164216,gps,2,1,42.3009757904,-83.6979119028,272.240692139,0.000144,0.0,0.0,0.0,0.000196,0.0,0.0,0.0,0.003721,2
1671461242783351289,269177,1671461242804165877,gps,2,1,42.3009757905,-83.6979119029,272.240692139,0.000144,0.0,0.0,0.0,0.000196,0.0,0.0,0.0,0.003721,2
1671461242793328817,269178,1671461242814222447,gps,2,1,42.3009757906,-83.6979119031,272.240722656,0.000144,0.0,0.0,0.0,0.000196,0.0,0.0,0.0,0.003721,2
1671461242803433910,269179,1671461242824165377,gps,2,1,42.3009757919,-83.6979119031,272.240661621,0.000144,0.0,0.0,0.0,0.000196,0.0,0.0,0.0,0.003721,2
1671461242813331557,269180,1671461242834236290,gps,2,1,42.300975792,-83.6979119032,272.240692139,0.000144,0.0,0.0,0.0,0.000196,0.0,0.0,0.0,0.003721,2
1671461242823629515,269181,1671461242844186873,gps,2,1,42.3009757921,-83.6979119034,272.240722656,0.000144,0.0,0.0,0.0,0.000196,0.0,0.0,0.0,0.003721,2
1671461242833103325,269182,1671461242854169775,gps,2,1,42.3009757933,-83.6979119033,272.240661621,0.000144,0.0,0.0,0.0,0.000196,0.0,0.0,0.0,0.003721,2
1671461242843053813,269183,1671461242864164453,gps,2,1,42.3009757935,-83.6979119035,272.240661621,0.000144,0.0,0.0,0.0,0.000196,0.0,0.0,0.0,0.003721,2
1671461242853816643,269184,1671461242874216892,gps,2,1,42.3009757936,-83.6979119036,272.240692139,0.000144,0.0,0.0,0.0,0.000196,0.0,0.0,0.0,0.003721,2
1671461242863291058,269185,1671461242884159426,gps,2,1,42.3009757948,-83.6979119036,272.240631104,0.000144,0.0,0.0,0.0,0.000196,0.0,0.0,0.0,0.003721,2
1671461242873525585,269186,1671461242894236866,gps,2,1,42.300975795,-83.6979119037,272.240661621,0.000144,0.0,0.0,0.0,0.000196,0.0,0.0,0.0,0.003721,2
1671461242883406113,269187,1671461242904159898,gps,2,1,42.3009757951,-83.6979119039,272.240661621,0.000144,0.0,0.0,0.0,0.000196,0.0,0.0,0.0,0.003721,2
1671461242893700361,269188,1671461242914160061,gps,2,1,42.3009757965,-83.6979119038,272.240600586,0.000144,0.0,0.0,0.0,0.000196,0.0,0.0,0.0,0.003721,2
1671461242903446672,269189,1671461242924221056,gps,2,1,42.3009757967,-83.697911904,272.240631104,0.000144,0.0,0.0,0.0,0.000196,0.0,0.0,0.0,0.003721,2
1671461242913377473,269190,1671461242934169405,gps,2,1,42.3009757969,-83.6979119041,272.240661621,0.000144,0.0,0.0,0.0,0.000196,0.0,0.0,0.0,0.003721,2
1671461242923095070,269191,1671461242944143693,gps,2,1,42.3009757983,-83.6979119041,272.240600586,0.000144,0.0,0.0,0.0,0.000196,0.0,0.0,0.0,0.003721,2
1671461242933036400,269192,1671461242954145018,gps,2,1,42.3009757984,-83.6979119042,272.240631104,0.000144,0.0,0.0,0.0,0.000196,0.0,0.0,0.0,0.003721,2
1671461242943664290,269193,1671461242964297615,gps,2,1,42.3009757986,-83.6979119044,272.240631104,0.000144,0.0,0.0,0.0,0.000196,0.0,0.0,0.0,0.003721,2
1671461242953399936,269194,1671461242974144199,gps,2,1,42.3009758,-83.6979119044,272.240600586,0.000144,0.0,0.0,0.0,0.000196,0.0,0.0,0.0,0.003721,2
1671461242963331824,269195,1671461242984160109,gps,2,1,42.3009758002,-83.6979119046,272.240600586,0.000144,0.0,0.0,0.0,0.000196,0.0,0.0,0.0,0.003721,2
1671461242973472811,269196,1671461242994210139,gps,2,1,42.3009758004,-83.6979119047,272.240631104,0.000144,0.0,0.0,0.0,0.000196,0.0,0.0,0.0,0.003721,2
1671461242983419083,269197,1671461243004172169,gps,2,1,42.3009758017,-83.6979119047,272.240570068,0.000144,0.0,0.0,0.0,0.000196,0.0,0.0,0.0,0.003721,2
1671461242993276963,269198,1671461243014242818,gps,2,1,42.3009758019,-83.6979119049,272.240600586,0.000144,0.0,0.0,0.0,0.000196,0.0,0.0,0.0,0.003721,2
1671461243003282591,269199,1671461243024325943,gps,2,1,42.3009758021,-83.6979119051,272.240631104,0.000144,0.0,0.0,0.0,0.000196,0.0,0.0,0.0,0.003721,2
1671461243013255215,269200,1671461243034295963,gps,2,1,42.3009758042,-83.6979119062,272.240509033,0.000144,0.0,0.0,0.0,0.000196,0.0,0.0,0.0,0.003721,2
1671461243023326808,269201,1671461243044284885,gps,2,1,42.3009758044,-83.6979119064,272.240539551,0.000144,0.0,0.0,0.0,0.000196,0.0,0.0,0.0,0.003721,2
1671461243033273156,269202,1671461243054261877,gps,2,1,42.3009758046,-83.6979119067,272.240570068,0.000144,0.0,0.0,0.0,0.000196,0.0,0.0,0.0,0.003721,2
1671461243043212929,269203,1671461243064151513,gps,2,1,42.3009758067,-83.6979119077,272.240478516,0.000144,0.0,0.0,0.0,0.000196,0.0,0.0,0.0,0.003721,2
1671461243053212864,269204,1671461243074254428,gps,2,1,42.3009758069,-83.697911908,272.240478516,0.000144,0.0,0.0,0.0,0.000196,0.0,0.0,0.0,0.003721,2
1671461243063073893,269205,1671461243084237367,gps,2,1,42.3009758071,-83.6979119082,272.240509033,0.000144,0.0,0.0,0.0,0.000196,0.0,0.0,0.0,0.003721,2
1671461243073123103,269206,1671461243094195555,gps,2,1,42.3009758092,-83.6979119092,272.24041748,0.000144,0.0,0.0,0.0,0.000196,0.0,0.0,0.0,0.003721,2
1671461243083474879,269207,1671461243104235811,gps,2,1,42.3009758094,-83.6979119094,272.24041748,0.000144,0.0,0.0,0.0,0.000196,0.0,0.0,0.0,0.003721,2
1671461243093519568,269208,1671461243114227584,gps,2,1,42.3009758096,-83.6979119096,272.240447998,0.000144,0.0,0.0,0.0,0.000196,0.0,0.0,0.0,0.003721,2
1671461243103589541,269209,1671461243124158180,gps,2,1,42.3009758116,-83.6979119106,272.240356445,0.000144,0.0,0.0,0.0,0.000196,0.0,0.0,0.0,0.003721,2
1671461243113415591,269210,1671461243134234686,gps,2,1,42.3009758119,-83.6979119108,272.240386963,0.000144,0.0,0.0,0.0,0.000196,0.0,0.0,0.0,0.003721,2
1671461243123426023,269211,1671461243144167868,gps,2,1,42.3009758121,-83.697911911,272.240386963,0.000144,0.0,0.0,0.0,0.000196,0.0,0.0,0.0,0.003721,2
1671461243133374581,269212,1671461243154155735,gps,2,1,42.300975814,-83.6979119118,272.240325928,0.000144,0.0,0.0,0.0,0.000196,0.0,0.0,0.0,0.003721,2
1671461243143281495,269213,1671461243164216128,gps,2,1,42.3009758142,-83.697911912,272.240325928,0.000144,0.0,0.0,0.0,0.000196,0.0,0.0,0.0,0.003721,2
1671461243153315086,269214,1671461243174163466,gps,2,1,42.3009758145,-83.6979119122,272.240356445,0.000144,0.0,0.0,0.0,0.000196,0.0,0.0,0.0,0.003721,2
1671461243163122148,269215,1671461243184167145,gps,2,1,42.3009758163,-83.6979119129,272.240264893,0.000144,0.0,0.0,0.0,0.000196,0.0,0.0,0.0,0.003721,2
1671461243173211004,269216,1671461243194160880,gps,2,1,42.3009758166,-83.6979119132,272.24029541,0.000144,0.0,0.0,0.0,0.000196,0.0,0.0,0.0,0.003721,2
1671461243183227623,269217,1671461243204203863,gps,2,1,42.3009758168,-83.6979119134,272.240325928,0.000144,0.0,0.0,0.0,0.000196,0.0,0.0,0.0,0.003721,2
1671461243193355611,269218,1671461243214247752,gps,2,1,42.3009758186,-83.6979119141,272.240234375,0.000144,0.0,0.0,0.0,0.000196,0.0,0.0,0.0,0.003721,2
1671461243203107332,269219,1671461243224148223,gps,2,1,42.3009758189,-83.6979119144,272.240264893,0.000144,0.0,0.0,0.0,0.000196,0.0,0.0,0.0,0.003721,2
1671461243213124861,269220,1671461243234219653,gps,2,1,42.3009758192,-83.6979119146,272.24029541,0.000144,0.0,0.0,0.0,0.000196,0.0,0.0,0.0,0.003721,2
1671461243223077616,269221,1671461243244151764,gps,2,1,42.300975821,-83.6979119153,272.240203857,0.000144,0.0,0.0,0.0,0.000196,0.0,0.0,0.0,0.003721,2
1671461243233203096,269222,1671461243254208584,gps,2,1,42.3009758213,-83.6979119156,272.240234375,0.000144,0.0,0.0,0.0,0.000196,0.0,0.0,0.0,0.003721,2
1671461243243435412,269223,1671461243264157871,gps,2,1,42.3009758216,-83.6979119158,272.240264893,0.000144,0.0,0.0,0.0,0.000196,0.0,0.0,0.0,0.003721,2
1671461243253434248,269224,1671461243274165114,gps,2,1,42.3009758233,-83.6979119165,272.24017334,0.0001,0.0,0.0,0.0,0.000121,0.0,0.0,0.0,0.0036,2
1671461243263281817,269225,1671461243284352021,gps,2,1,42.3009758236,-83.6979119168,272.240203857,0.0001,0.0,0.0,0.0,0.000121,0.0,0.0,0.0,0.0036,2
1671461243273443461,269226,1671461243294203371,gps,2,1,42.3009758239,-83.697911917,272.240203857,0.0001,0.0,0.0,0.0,0.000121,0.0,0.0,0.0,0.0036,2
1671461243283257274,269227,1671461243304211712,gps,2,1,42.3009758256,-83.6979119177,272.240142822,0.0001,0.0,0.0,0.0,0.000121,0.0,0.0,0.0,0.0036,2
1671461243293438518,269228,1671461243314186196,gps,2,1,42.300975826,-83.6979119179,272.24017334,0.0001,0.0,0.0,0.0,0.000121,0.0,0.0,0.0,0.0036,2
1671461243303259255,269229,1671461243324244400,gps,2,1,42.3009758263,-83.6979119181,272.24017334,0.0001,0.0,0.0,0.0,0.000121,0.0,0.0,0.0,0.0036,2
1671461243313111427,269230,1671461243334178914,gps,2,1,42.300975828,-83.6979119188,272.240112305,0.0001,0.0,0.0,0.0,0.000121,0.0,0.0,0.0,0.0036,2
1671461243323192219,269231,1671461243344155752,gps,2,1,42.3009758283,-83.6979119191,272.240142822,0.0001,0.0,0.0,0.0,0.000121,0.0,0.0,0.0,0.0036,2
1671461243333243749,269232,1671461243354234894,gps,2,1,42.3009758286,-83.6979119193,272.240142822,0.0001,0.0,0.0,0.0,0.000121,0.0,0.0,0.0,0.0036,2
1671461243343332813,269233,1671461243364168260,gps,2,1,42.3009758302,-83.6979119199,272.240112305,0.0001,0.0,0.0,0.0,0.000121,0.0,0.0,0.0,0.0036,2
1671461243353475236,269234,1671461243374302135,gps,2,1,42.3009758305,-83.6979119202,272.240112305,0.0001,0.0,0.0,0.0,0.000121,0.0,0.0,0.0,0.0036,2
1671461243363087877,269235,1671461243384150520,gps,2,1,42.3009758308,-83.6979119204,272.240142822,0.0001,0.0,0.0,0.0,0.000121,0.0,0.0,0.0,0.0036,2
1671461243373041392,269236,1671461243394172313,gps,2,1,42.3009758324,-83.697911921,272.240081787,0.0001,0.0,0.0,0.0,0.000121,0.0,0.0,0.0,0.0036,2
1671461243383460426,269237,1671461243404254689,gps,2,1,42.3009758327,-83.6979119213,272.240112305,0.0001,0.0,0.0,0.0,0.000121,0.0,0.0,0.0,0.0036,2
1671461243393574559,269238,1671461243414231442,gps,2,1,42.300975833,-83.6979119215,272.240112305,0.0001,0.0,0.0,0.0,0.000121,0.0,0.0,0.0,0.0036,2
1671461243403507895,269239,1671461243424180635,gps,2,1,42.3009758345,-83.6979119224,272.240081787,0.0001,0.0,0.0,0.0,0.000121,0.0,0.0,0.0,0.0036,2
1671461243413388868,269240,1671461243434159734,gps,2,1,42.3009758348,-83.6979119227,272.240081787,0.0001,0.0,0.0,0.0,0.000121,0.0,0.0,0.0,0.0036,2
1671461243423265017,269241,1671461243444226454,gps,2,1,42.3009758351,-83.6979119229,272.240112305,0.0001,0.0,0.0,0.0,0.000121,0.0,0.0,0.0,0.0036,2
1671461243433430667,269242,1671461243454193890,gps,2,1,42.3009758365,-83.6979119238,272.24005127,0.0001,0.0,0.0,0.0,0.000121,0.0,0.0,0.0,0.0036,2
1671461243443493223,269243,1671461243464321166,gps,2,1,42.3009758369,-83.697911924,272.240081787,0.0001,0.0,0.0,0.0,0.000121,0.0,0.0,0.0,0.0036,2
1671461243453214907,269244,1671461243474171243,gps,2,1,42.3009758372,-83.6979119243,272.240112305,0.0001,0.0,0.0,0.0,0.000121,0.0,0.0,0.0,0.0036,2
1671461243463234078,269245,1671461243484145017,gps,2,1,42.3009758386,-83.6979119252,272.24005127,0.0001,0.0,0.0,0.0,0.000121,0.0,0.0,0.0,0.0036,2
1671461243473381113,269246,1671461243494204028,gps,2,1,42.300975839,-83.6979119254,272.240081787,0.0001,0.0,0.0,0.0,0.000121,0.0,0.0,0.0,0.0036,2
1671461243483305689,269247,1671461243504171065,gps,2,1,42.3009758394,-83.6979119257,272.240081787,0.0001,0.0,0.0,0.0,0.000121,0.0,0.0,0.0,0.0036,2
1671461243493327405,269248,1671461243514175368,gps,2,1,42.3009758408,-83.6979119265,272.24005127,0.0001,0.0,0.0,0.0,0.000121,0.0,0.0,0.0,0.0036,2
1671461243503237361,269249,1671461243524232773,gps,2,1,42.3009758413,-83.6979119268,272.240081787,0.0001,0.0,0.0,0.0,0.000121,0.0,0.0,0.0,0.0036,2
1671461243513748525,269250,1671461243534383870,gps,2,1,42.3009758417,-83.697911927,272.240081787,0.0001,0.0,0.0,0.0,0.000121,0.0,0.0,0.0,0.0036,2
1671461243523131062,269251,1671461243544190259,gps,2,1,42.3009758431,-83.6979119279,272.24005127,0.0001,0.0,0.0,0.0,0.000121,0.0,0.0,0.0,0.0036,2
1671461243533461922,269252,1671461243554208298,gps,2,1,42.3009758435,-83.6979119281,272.24005127,0.0001,0.0,0.0,0.0,0.000121,0.0,0.0,0.0,0.0036,2
1671461243543571545,269253,1671461243564277541,gps,2,1,42.3009758439,-83.6979119284,272.240081787,0.0001,0.0,0.0,0.0,0.000121,0.0,0.0,0.0,0.0036,2
1671461243553503574,269254,1671461243574214736,gps,2,1,42.3009758449,-83.6979119289,272.239959717,0.0001,0.0,0.0,0.0,0.000121,0.0,0.0,0.0,0.0036,2
1671461243563361447,269255,1671461243584281980,gps,2,1,42.3009758453,-83.6979119291,272.239959717,0.0001,0.0,0.0,0.0,0.000121,0.0,0.0,0.0,0.0036,2
1671461243573571636,269256,1671461243594182449,gps,2,1,42.3009758457,-83.6979119293,272.239990234,0.0001,0.0,0.0,0.0,0.000121,0.0,0.0,0.0,0.0036,2
1671461243583515567,269257,1671461243604157177,gps,2,1,42.3009758466,-83.6979119298,272.239868164,0.0001,0.0,0.0,0.0,0.000121,0.0,0.0,0.0,0.0036,2
1671461243593403063,269258,1671461243614215680,gps,2,1,42.3009758469,-83.69791193,272.239868164,0.0001,0.0,0.0,0.0,0.000121,0.0,0.0,0.0,0.0036,2
1671461243603351458,269259,1671461243624173937,gps,2,1,42.3009758473,-83.6979119302,272.239898682,0.0001,0.0,0.0,0.0,0.000121,0.0,0.0,0.0,0.0036,2
1671461243613220912,269260,1671461243634138674,gps,2,1,42.3009758482,-83.6979119307,272.239776611,0.0001,0.0,0.0,0.0,0.000121,0.0,0.0,0.0,0.0036,2
1671461243623333110,269261,1671461243644257054,gps,2,1,42.3009758485,-83.6979119309,272.239776611,0.0001,0.0,0.0,0.0,0.000121,0.0,0.0,0.0,0.0036,2
1671461243633145475,269262,1671461243654223240,gps,2,1,42.3009758489,-83.6979119311,272.239776611,0.0001,0.0,0.0,0.0,0.000121,0.0,0.0,0.0,0.0036,2
1671461243643078200,269263,1671461243664161409,gps,2,1,42.3009758497,-83.6979119315,272.239685059,0.0001,0.0,0.0,0.0,0.000121,0.0,0.0,0.0,0.0036,2
1671461243653101268,269264,1671461243674163723,gps,2,1,42.3009758501,-83.6979119318,272.239685059,0.0001,0.0,0.0,0.0,0.000121,0.0,0.0,0.0,0.0036,2
1671461243663061605,269265,1671461243684214813,gps,2,1,42.3009758504,-83.697911932,272.239685059,0.0001,0.0,0.0,0.0,0.000121,0.0,0.0,0.0,0.0036,2
1671461243673110839,269266,1671461243694145485,gps,2,1,42.3009758513,-83.6979119324,272.239593506,0.0001,0.0,0.0,0.0,0.000121,0.0,0.0,0.0,0.0036,2
1671461243683659021,269267,1671461243704225857,gps,2,1,42.3009758517,-83.6979119327,272.239593506,0.0001,0.0,0.0,0.0,0.000121,0.0,0.0,0.0,0.0036,2
1671461243693462281,269268,1671461243714260017,gps,2,1,42.3009758521,-83.6979119329,272.239624023,0.0001,0.0,0.0,0.0,0.000121,0.0,0.0,0.0,0.0036,2
1671461243703542917,269269,1671461243724154429,gps,2,1,42.300975853,-83.6979119335,272.239501953,0.0001,0.0,0.0,0.0,0.000121,0.0,0.0,0.0,0.0036,2
1671461243713664675,269270,1671461243734217334,gps,2,1,42.3009758534,-83.6979119338,272.239532471,0.0001,0.0,0.0,0.0,0.000121,0.0,0.0,0.0,0.0036,2
1671461243723642960,269271,1671461243744174363,gps,2,1,42.3009758538,-83.6979119341,272.239562988,0.0001,0.0,0.0,0.0,0.000121,0.0,0.0,0.0,0.0036,2
1671461243733308793,269272,1671461243754180580,gps,2,1,42.3009758548,-83.6979119346,272.239440918,0.0001,0.0,0.0,0.0,0.000121,0.0,0.0,0.0,0.0036,2
1671461243743532542,269273,1671461243764245475,gps,2,1,42.3009758553,-83.697911935,272.239471436,0.0001,0.0,0.0,0.0,0.000121,0.0,0.0,0.0,0.0036,2
1671461243753375384,269274,1671461243774182810,gps,2,1,42.3009758557,-83.6979119353,272.239501953,0.0001,0.0,0.0,0.0,0.000121,0.0,0.0,0.0,0.0036,2
1671461243763358723,269275,1671461243784185030,gps,2,1,42.3009758567,-83.6979119359,272.239379883,0.0001,0.0,0.0,0.0,0.000121,0.0,0.0,0.0,0.0036,2
1671461243773313331,269276,1671461243794201211,gps,2,1,42.3009758573,-83.6979119363,272.2394104,0.0001,0.0,0.0,0.0,0.000121,0.0,0.0,0.0,0.0036,2
1671461243783220705,269277,1671461243804148319,gps,2,1,42.3009758578,-83.6979119366,272.2394104,0.0001,0.0,0.0,0.0,0.000121,0.0,0.0,0.0,0.0036,2
1671461243793227885,269278,1671461243814133983,gps,2,1,42.3009758588,-83.6979119372,272.239318848,0.0001,0.0,0.0,0.0,0.000121,0.0,0.0,0.0,0.0036,2
1671461243803310528,269279,1671461243824229676,gps,2,1,42.3009758594,-83.6979119375,272.239349365,0.0001,0.0,0.0,0.0,0.000121,0.0,0.0,0.0,0.0036,2
1671461243813119600,269280,1671461243834157158,gps,2,1,42.3009758599,-83.6979119379,272.239349365,0.0001,0.0,0.0,0.0,0.000121,0.0,0.0,0.0,0.0036,2
1671461243823077443,269281,1671461243844173524,gps,2,1,42.3009758609,-83.6979119384,272.239257812,0.0001,0.0,0.0,0.0,0.000121,0.0,0.0,0.0,0.0036,2
1671461243833240670,269282,1671461243854206648,gps,2,1,42.3009758615,-83.6979119387,272.239257812,0.0001,0.0,0.0,0.0,0.000121,0.0,0.0,0.0,0.0036,2
1671461243843473509,269283,1671461243864170012,gps,2,1,42.300975862,-83.697911939,272.23928833,0.0001,0.0,0.0,0.0,0.000121,0.0,0.0,0.0,0.0036,2
1671461243853521385,269284,1671461243874157543,gps,2,1,42.300975863,-83.6979119395,272.239196777,0.0001,0.0,0.0,0.0,0.000121,0.0,0.0,0.0,0.0036,2
1671461243863537689,269285,1671461243884181044,gps,2,1,42.3009758636,-83.6979119397,272.239196777,0.0001,0.0,0.0,0.0,0.000121,0.0,0.0,0.0,0.0036,2
1671461243873419002,269286,1671461243894252717,gps,2,1,42.3009758642,-83.69791194,272.239196777,0.0001,0.0,0.0,0.0,0.000121,0.0,0.0,0.0,0.0036,2
1671461243883277718,269287,1671461243904170026,gps,2,1,42.3009758655,-83.6979119402,272.239135742,0.0001,0.0,0.0,0.0,0.000121,0.0,0.0,0.0,0.0036,2
1671461243893186380,269288,1671461243914147663,gps,2,1,42.300975866,-83.6979119404,272.239135742,0.0001,0.0,0.0,0.0,0.000121,0.0,0.0,0.0,0.0036,2
1671461243903365533,269289,1671461243924211428,gps,2,1,42.3009758666,-83.6979119407,272.239135742,0.0001,0.0,0.0,0.0,0.000121,0.0,0.0,0.0,0.0036,2
1671461243913187921,269290,1671461243934149861,gps,2,1,42.3009758678,-83.697911941,272.239074707,0.0001,0.0,0.0,0.0,0.000121,0.0,0.0,0.0,0.0036,2
1671461243923104399,269291,1671461243944144263,gps,2,1,42.3009758683,-83.6979119413,272.239074707,0.0001,0.0,0.0,0.0,0.000121,0.0,0.0,0.0,0.0036,2
1671461243933448988,269292,1671461243954231352,gps,2,1,42.3009758688,-83.6979119416,272.239105225,0.0001,0.0,0.0,0.0,0.000121,0.0,0.0,0.0,0.0036,2
1671461243943291312,269293,1671461243964243147,gps,2,1,42.30097587,-83.697911942,272.239013672,0.0001,0.0,0.0,0.0,0.000121,0.0,0.0,0.0,0.0036,2
1671461243953138383,269294,1671461243974213119,gps,2,1,42.3009758705,-83.6979119424,272.239044189,0.0001,0.0,0.0,0.0,0.000121,0.0,0.0,0.0,0.0036,2
1671461243962984122,269295,1671461243984168356,gps,2,1,42.300975871,-83.6979119427,272.239074707,0.0001,0.0,0.0,0.0,0.000121,0.0,0.0,0.0,0.0036,2
1671461243973032898,269296,1671461243994156505,gps,2,1,42.3009758722,-83.6979119432,272.239013672,0.0001,0.0,0.0,0.0,0.000121,0.0,0.0,0.0,0.0036,2
1671461243983172940,269297,1671461244004170785,gps,2,1,42.3009758726,-83.697911944,272.239013672,0.0001,0.0,0.0,0.0,0.000121,0.0,0.0,0.0,0.0036,2
1671461243993563653,269298,1671461244014224518,gps,2,1,42.3009758731,-83.6979119447,272.239013672,0.0001,0.0,0.0,0.0,0.000121,0.0,0.0,0.0,0.0036,2
1671461244003467829,269299,1671461244024215187,gps,2,1,42.3009758755,-83.6979119442,272.238800049,0.0001,0.0,0.0,0.0,0.000121,0.0,0.0,0.0,0.0036,2
1671461244013424225,269300,1671461244034402014,gps,2,1,42.300975876,-83.6979119459,272.238800049,0.0001,0.0,0.0,0.0,0.000121,0.0,0.0,0.0,0.0036,2
1671461244023372892,269301,1671461244044201515,gps,2,1,42.3009758765,-83.6979119467,272.238800049,0.0001,0.0,0.0,0.0,0.000121,0.0,0.0,0.0,0.0036,2
1671461244033254208,269302,1671461244054224170,gps,2,1,42.3009758789,-83.6979119471,272.238616943,0.0001,0.0,0.0,0.0,0.000121,0.0,0.0,0.0,0.0036,2
1671461244043204998,269303,1671461244064275650,gps,2,1,42.3009758795,-83.6979119498,272.238586426,0.0001,0.0,0.0,0.0,0.000121,0.0,0.0,0.0,0.0036,2
1671461244053195367,269304,1671461244074161795,gps,2,1,42.30097588,-83.6979119517,272.238586426,0.0001,0.0,0.0,0.0,0.000121,0.0,0.0,0.0,0.0036,2
1671461244063299072,269305,1671461244084195517,gps,2,1,42.3009758824,-83.6979119532,272.238372803,0.0001,0.0,0.0,0.0,0.000121,0.0,0.0,0.0,0.0036,2
1671461244073204794,269306,1671461244094292828,gps,2,1,42.300975883,-83.697911957,272.238372803,0.0001,0.0,0.0,0.0,0.000121,0.0,0.0,0.0,0.0036,2
1671461244083094045,269307,1671461244104193859,gps,2,1,42.3009758836,-83.6979119599,272.238372803,0.0001,0.0,0.0,0.0,0.000121,0.0,0.0,0.0,0.0036,2
1671461244093185812,269308,1671461244114176738,gps,2,1,42.3009758859,-83.6979119626,272.23815918,0.0001,0.0,0.0,0.0,0.000121,0.0,0.0,0.0,0.0036,2
1671461244103070068,269309,1671461244124160957,gps,2,1,42.3009758865,-83.6979119676,272.23815918,0.0001,0.0,0.0,0.0,0.000121,0.0,0.0,0.0,0.0036,2
1671461244113578043,269310,1671461244134214631,gps,2,1,42.3009758871,-83.6979119717,272.23815918,0.0001,0.0,0.0,0.0,0.000121,0.0,0.0,0.0,0.0036,2
1671461244123515186,269311,1671461244144181733,gps,2,1,42.3009758894,-83.6979119756,272.237976074,0.0001,0.0,0.0,0.0,0.000121,0.0,0.0,0.0,0.0036,2
1671461244133587871,269312,1671461244154233345,gps,2,1,42.30097589,-83.6979119819,272.237976074,0.0001,0.0,0.0,0.0,0.000121,0.0,0.0,0.0,0.0036,2
1671461244143476128,269313,1671461244164190132,gps,2,1,42.3009758906,-83.6979119873,272.237976074,0.0001,0.0,0.0,0.0,0.000121,0.0,0.0,0.0,0.0036,2
1671461244153494257,269314,1671461244174165754,gps,2,1,42.3009758927,-83.6979119927,272.237792969,0.0001,0.0,0.0,0.0,0.000121,0.0,0.0,0.0,0.0036,2
1671461244163314156,269315,1671461244184241359,gps,2,1,42.3009758934,-83.6979120005,272.237792969,0.0001,0.0,0.0,0.0,0.000121,0.0,0.0,0.0,0.0036,2
1671461244173371404,269316,1671461244194171719,gps,2,1,42.300975894,-83.6979120069,272.237792969,0.0001,0.0,0.0,0.0,0.000121,0.0,0.0,0.0,0.0036,2
1671461244183322655,269317,1671461244204161291,gps,2,1,42.3009758961,-83.6979120138,272.237640381,0.0001,0.0,0.0,0.0,0.000121,0.0,0.0,0.0,0.0036,2
1671461244193425266,269318,1671461244214301484,gps,2,1,42.3009758968,-83.6979120229,272.237640381,0.0001,0.0,0.0,0.0,0.000121,0.0,0.0,0.0,0.0036,2
1671461244203256510,269319,1671461244224167570,gps,2,1,42.3009758974,-83.6979120309,272.237640381,0.0001,0.0,0.0,0.0,0.000121,0.0,0.0,0.0,0.0036,2
1671461244213147479,269320,1671461244234141584,gps,2,1,42.3009758995,-83.6979120392,272.237487793,0.0001,0.0,0.0,0.0,0.000121,0.0,0.0,0.0,0.0036,2
1671461244223186370,269321,1671461244244170834,gps,2,1,42.3009759002,-83.6979120499,272.237487793,0.0001,0.0,0.0,0.0,0.000121,0.0,0.0,0.0,0.0036,2
1671461244233125263,269322,1671461244254226945,gps,2,1,42.3009759008,-83.6979120593,272.237487793,0.0001,0.0,0.0,0.0,0.000121,0.0,0.0,0.0,0.0036,2
1671461244243108815,269323,1671461244264162740,gps,2,1,42.3009759029,-83.6979120692,272.237335205,0.0001,0.0,0.0,0.0,0.000121,0.0,0.0,0.0,0.0036,2
1671461244253056756,269324,1671461244274166192,gps,2,1,42.3009759036,-83.6979120815,272.237304688,0.0001,0.0,0.0,0.0,0.000121,0.0,0.0,0.0,0.0036,2
1671461244263574071,269325,1671461244284335737,gps,2,1,42.3009759043,-83.6979120923,272.237304688,0.0001,0.0,0.0,0.0,0.000121,0.0,0.0,0.0,0.0036,2
1671461244273034508,269326,1671461244294150402,gps,2,1,42.3009759064,-83.6979121038,272.2371521,0.0001,0.0,0.0,0.0,0.000121,0.0,0.0,0.0,0.0036,2
1671461244283584474,269327,1671461244304222180,gps,2,1,42.3009759071,-83.6979121176,272.237121582,0.0001,0.0,0.0,0.0,0.000121,0.0,0.0,0.0,0.0036,2
1671461244293575412,269328,1671461244314170847,gps,2,1,42.3009759079,-83.69791213,272.237121582,0.0001,0.0,0.0,0.0,0.000121,0.0,0.0,0.0,0.0036,2
1671461244303393136,269329,1671461244324169005,gps,2,1,42.3009759099,-83.6979121431,272.236968994,0.0001,0.0,0.0,0.0,0.000121,0.0,0.0,0.0,0.0036,2
1671461244313343630,269330,1671461244334253597,gps,2,1,42.3009759107,-83.6979121584,272.236938477,0.0001,0.0,0.0,0.0,0.000121,0.0,0.0,0.0,0.0036,2
1671461244323343552,269331,1671461244344166045,gps,2,1,42.3009759115,-83.6979121724,272.236907959,0.0001,0.0,0.0,0.0,0.000121,0.0,0.0,0.0,0.0036,2
1671461244333308540,269332,1671461244354161110,gps,2,1,42.3009759135,-83.6979121871,272.236755371,0.0001,0.0,0.0,0.0,0.000121,0.0,0.0,0.0,0.0036,2
1671461244343394595,269333,1671461244364155126,gps,2,1,42.3009759143,-83.6979122039,272.236724854,0.0001,0.0,0.0,0.0,0.000121,0.0,0.0,0.0,0.0036,2
1671461244353225553,269334,1671461244374297407,gps,2,1,42.3009759151,-83.6979122195,272.236694336,0.0001,0.0,0.0,0.0,0.000121,0.0,0.0,0.0,0.0036,2
1671461244362958832,269335,1671461244384175557,gps,2,1,42.3009759171,-83.6979122357,272.236572266,0.0001,0.0,0.0,0.0,0.000121,0.0,0.0,0.0,0.0036,2
1671461244373166512,269336,1671461244394167740,gps,2,1,42.3009759179,-83.6979122542,272.236541748,0.0001,0.0,0.0,0.0,0.000121,0.0,0.0,0.0,0.0036,2
1671461244383087819,269337,1671461244404260145,gps,2,1,42.3009759187,-83.6979122713,272.23651123,0.0001,0.0,0.0,0.0,0.000121,0.0,0.0,0.0,0.0036,2
1671461244393076615,269338,1671461244414178255,gps,2,1,42.3009759205,-83.6979122893,272.236358643,0.0001,0.0,0.0,0.0,0.000121,0.0,0.0,0.0,0.0036,2
1671461244403449922,269339,1671461244424188810,gps,2,1,42.3009759213,-83.6979123093,272.236328125,0.0001,0.0,0.0,0.0,0.000121,0.0,0.0,0.0,0.0036,2
1671461244413523460,269340,1671461244434236510,gps,2,1,42.3009759222,-83.6979123279,272.236297607,0.0001,0.0,0.0,0.0,0.000121,0.0,0.0,0.0,0.0036,2
1671461244423574878,269341,1671461244444175140,gps,2,1,42.300975924,-83.6979123475,272.23614502,0.0001,0.0,0.0,0.0,0.000121,0.0,0.0,0.0,0.0036,2
1671461244433506106,269342,1671461244454175925,gps,2,1,42.3009759248,-83.6979123692,272.236114502,0.0001,0.0,0.0,0.0,0.000121,0.0,0.0,0.0,0.0036,2
1671461244443470760,269343,1671461244464300347,gps,2,1,42.3009759257,-83.6979123893,272.236083984,0.0001,0.0,0.0,0.0,0.000121,0.0,0.0,0.0,0.0036,2
1671461244453212400,269344,1671461244474162131,gps,2,1,42.3009759274,-83.6979124106,272.235931396,0.0001,0.0,0.0,0.0,0.000121,0.0,0.0,0.0,0.0036,2
1671461244463232474,269345,1671461244484150166,gps,2,1,42.3009759283,-83.6979124338,272.235900879,0.0001,0.0,0.0,0.0,0.000121,0.0,0.0,0.0,0.0036,2
1671461244473186978,269346,1671461244494196752,gps,2,1,42.3009759291,-83.6979124557,272.235870361,0.0001,0.0,0.0,0.0,0.000121,0.0,0.0,0.0,0.0036,2
1671461244483280598,269347,1671461244504162213,gps,2,1,42.3009759309,-83.6979124787,272.235748291,0.0001,0.0,0.0,0.0,0.000121,0.0,0.0,0.0,0.0036,2
1671461244493112920,269348,1671461244514149607,gps,2,1,42.3009759318,-83.6979125037,272.235717773,0.0001,0.0,0.0,0.0,0.000121,0.0,0.0,0.0,0.0036,2
1671461244503537185,269349,1671461244524390368,gps,2,1,42.3009759326,-83.6979125271,272.235687256,0.0001,0.0,0.0,0.0,0.000121,0.0,0.0,0.0,0.0036,2
1671461244513068962,269350,1671461244534199306,gps,2,1,42.3009759321,-83.6979125527,272.235412598,0.0001,0.0,0.0,0.0,0.000121,0.0,0.0,0.0,0.0036,2
1671461244523086335,269351,1671461244544171781,gps,2,1,42.300975933,-83.6979125793,272.23538208,0.0001,0.0,0.0,0.0,0.000121,0.0,0.0,0.0,0.0036,2
1671461244533623994,269352,1671461244554258470,gps,2,1,42.3009759338,-83.6979126047,272.235351562,0.0001,0.0,0.0,0.0,0.000121,0.0,0.0,0.0,0.0036,2
1671461244543446768,269353,1671461244564276148,gps,2,1,42.3009759334,-83.6979126322,272.235076904,0.0001,0.0,0.0,0.0,0.000121,0.0,0.0,0.0,0.0036,2
1671461244553542539,269354,1671461244574189469,gps,2,1,42.3009759343,-83.6979126606,272.235015869,0.0001,0.0,0.0,0.0,0.000121,0.0,0.0,0.0,0.0036,2
1671461244563351599,269355,1671461244584247272,gps,2,1,42.3009759351,-83.6979126877,272.234985352,0.0001,0.0,0.0,0.0,0.000121,0.0,0.0,0.0,0.0036,2
1671461244573395671,269356,1671461244594167805,gps,2,1,42.3009759348,-83.6979127169,272.234710693,0.0001,0.0,0.0,0.0,0.000121,0.0,0.0,0.0,0.0036,2
1671461244583475136,269357,1671461244604164548,gps,2,1,42.3009759357,-83.6979127472,272.234680176,0.0001,0.0,0.0,0.0,0.000121,0.0,0.0,0.0,0.0036,2
1671461244593489891,269358,1671461244614219933,gps,2,1,42.3009759365,-83.6979127759,272.234649658,0.0001,0.0,0.0,0.0,0.000121,0.0,0.0,0.0,0.0036,2
1671461244603368791,269359,1671461244624199285,gps,2,1,42.3009759362,-83.6979128069,272.234405518,0.0001,0.0,0.0,0.0,0.000121,0.0,0.0,0.0,0.0036,2
1671461244613085160,269360,1671461244634148618,gps,2,1,42.3009759371,-83.697912839,272.234344482,0.0001,0.0,0.0,0.0,0.000121,0.0,0.0,0.0,0.0036,2
1671461244623314837,269361,1671461244644218257,gps,2,1,42.300975938,-83.6979128697,272.234313965,0.0001,0.0,0.0,0.0,0.000121,0.0,0.0,0.0,0.0036,2
1671461244633251776,269362,1671461244654161095,gps,2,1,42.3009759377,-83.6979129025,272.234069824,0.0001,0.0,0.0,0.0,0.000121,0.0,0.0,0.0,0.0036,2
1671461244643231129,269363,1671461244664164779,gps,2,1,42.3009759386,-83.6979129364,272.234039307,0.0001,0.0,0.0,0.0,0.000121,0.0,0.0,0.0,0.0036,2
1671461244653087522,269364,1671461244674212695,gps,2,1,42.3009759395,-83.6979129688,272.234008789,0.0001,0.0,0.0,0.0,0.000121,0.0,0.0,0.0,0.0036,2
1671461244663038263,269365,1671461244684155843,gps,2,1,42.3009759393,-83.6979130034,272.233764648,0.0001,0.0,0.0,0.0,0.000121,0.0,0.0,0.0,0.0036,2
1671461244673065681,269366,1671461244694155685,gps,2,1,42.3009759402,-83.697913039,272.233734131,0.0001,0.0,0.0,0.0,0.000121,0.0,0.0,0.0,0.0036,2
1671461244683222498,269367,1671461244704221098,gps,2,1,42.3009759411,-83.6979130731,272.233673096,0.0001,0.0,0.0,0.0,0.000121,0.0,0.0,0.0,0.0036,2
1671461244693513389,269368,1671461244714335277,gps,2,1,42.3009759409,-83.6979131096,272.233459473,0.0001,0.0,0.0,0.0,0.000121,0.0,0.0,0.0,0.0036,2
1671461244703473152,269369,1671461244724202312,gps,2,1,42.3009759418,-83.6979131471,272.233398438,0.0001,0.0,0.0,0.0,0.000121,0.0,0.0,0.0,0.0036,2
1671461244713414272,269370,1671461244734208221,gps,2,1,42.3009759427,-83.6979131831,272.23336792,0.0001,0.0,0.0,0.0,0.000121,0.0,0.0,0.0,0.0036,2
1671461244723535460,269371,1671461244744171539,gps,2,1,42.3009759425,-83.6979132215,272.233123779,0.0001,0.0,0.0,0.0,0.000121,0.0,0.0,0.0,0.0036,2
1671461244733450605,269372,1671461244754169040,gps,2,1,42.3009759434,-83.697913261,272.233093262,0.0001,0.0,0.0,0.0,0.000121,0.0,0.0,0.0,0.0036,2
1671461244743268544,269373,1671461244764219919,gps,2,1,42.3009759443,-83.6979132988,272.233032227,0.0001,0.0,0.0,0.0,0.000121,0.0,0.0,0.0,0.0036,2
1671461244753244860,269374,1671461244774163012,gps,2,1,42.3009759442,-83.6979133392,272.232818604,0.0001,0.0,0.0,0.0,0.000121,0.0,0.0,0.0,0.0036,2
1671461244763170600,269375,1671461244784186268,gps,2,1,42.3009759451,-83.6979133809,272.232757568,0.0001,0.0,0.0,0.0,0.000121,0.0,0.0,0.0,0.0036,2
1671461244773557708,269376,1671461244794214367,gps,2,1,42.3009759459,-83.6979134208,272.232696533,0.0001,0.0,0.0,0.0,0.000121,0.0,0.0,0.0,0.0036,2
1671461244783145393,269377,1671461244804220673,gps,2,1,42.3009759458,-83.6979134632,272.23248291,0.0001,0.0,0.0,0.0,0.000121,0.0,0.0,0.0,0.0036,2
1671461244793489254,269378,1671461244814185506,gps,2,1,42.3009759467,-83.697913507,272.232421875,0.0001,0.0,0.0,0.0,0.000121,0.0,0.0,0.0,0.0036,2
1671461244803469638,269379,1671461244824240241,gps,2,1,42.3009759476,-83.6979135491,272.23236084,0.0001,0.0,0.0,0.0,0.000121,0.0,0.0,0.0,0.0036,2
1671461244813436161,269380,1671461244834169142,gps,2,1,42.3009759475,-83.6979135937,272.232147217,0.0001,0.0,0.0,0.0,0.000121,0.0,0.0,0.0,0.0036,2
1671461244823641360,269381,1671461244844185899,gps,2,1,42.3009759484,-83.6979136397,272.232086182,0.0001,0.0,0.0,0.0,0.000121,0.0,0.0,0.0,0.0036,2
1671461244833351392,269382,1671461244854211582,gps,2,1,42.3009759492,-83.6979136838,272.232025146,0.0001,0.0,0.0,0.0,0.000121,0.0,0.0,0.0,0.0036,2
1671461244843424438,269383,1671461244864171629,gps,2,1,42.3009759492,-83.6979137306,272.231781006,0.0001,0.0,0.0,0.0,0.000121,0.0,0.0,0.0,0.0036,2
1671461244853279991,269384,1671461244874230668,gps,2,1,42.30097595,-83.6979137789,272.231719971,0.0001,0.0,0.0,0.0,0.000121,0.0,0.0,0.0,0.0036,2
1671461244863159529,269385,1671461244884246770,gps,2,1,42.3009759509,-83.6979138251,272.231658936,0.0001,0.0,0.0,0.0,0.000121,0.0,0.0,0.0,0.0036,2
1671461244873483894,269386,1671461244894160264,gps,2,1,42.3009759508,-83.6979138742,272.231445312,0.0001,0.0,0.0,0.0,0.000121,0.0,0.0,0.0,0.0036,2
1671461244883321648,269387,1671461244904226043,gps,2,1,42.3009759517,-83.6979139248,272.23135376,0.0001,0.0,0.0,0.0,0.000121,0.0,0.0,0.0,0.0036,2
1671461244893189054,269388,1671461244914148762,gps,2,1,42.3009759525,-83.6979139734,272.231292725,0.0001,0.0,0.0,0.0,0.000121,0.0,0.0,0.0,0.0036,2
1671461244903317659,269389,1671461244924169870,gps,2,1,42.3009759523,-83.6979140247,272.231079102,0.0001,0.0,0.0,0.0,0.000121,0.0,0.0,0.0,0.0036,2
1671461244913111506,269390,1671461244934280158,gps,2,1,42.3009759531,-83.6979140777,272.230987549,0.0001,0.0,0.0,0.0,0.000121,0.0,0.0,0.0,0.0036,2
1671461244923262418,269391,1671461244944187595,gps,2,1,42.3009759539,-83.6979141286,272.230895996,0.0001,0.0,0.0,0.0,0.000121,0.0,0.0,0.0,0.0036,2
1671461244933160527,269392,1671461244954164832,gps,2,1,42.3009759537,-83.6979141823,272.230682373,0.0001,0.0,0.0,0.0,0.000121,0.0,0.0,0.0,0.0036,2
1671461244943656848,269393,1671461244964245833,gps,2,1,42.3009759545,-83.6979142377,272.23059082,0.0001,0.0,0.0,0.0,0.000121,0.0,0.0,0.0,0.0036,2
1671461244953428161,269394,1671461244974230262,gps,2,1,42.3009759554,-83.6979142911,272.230499268,0.0001,0.0,0.0,0.0,0.000121,0.0,0.0,0.0,0.0036,2
1671461244963430611,269395,1671461244984174559,gps,2,1,42.3009759552,-83.6979143472,272.230285645,0.0001,0.0,0.0,0.0,0.000121,0.0,0.0,0.0,0.0036,2
1671461244973640454,269396,1671461244994172019,gps,2,1,42.3009759561,-83.697914405,272.230194092,0.0001,0.0,0.0,0.0,0.000121,0.0,0.0,0.0,0.0036,2
1671461244983391248,269397,1671461245004233108,gps,2,1,42.3009759569,-83.6979144608,272.230102539,0.0001,0.0,0.0,0.0,0.000121,0.0,0.0,0.0,0.0036,2
1671461244993336448,269398,1671461245014156185,gps,2,1,42.3009759568,-83.6979145193,272.229888916,0.0001,0.0,0.0,0.0,0.000121,0.0,0.0,0.0,0.0036,2
1671461245003346754,269399,1671461245024386543,gps,2,1,42.3009759577,-83.6979145796,272.229766846,0.0001,0.0,0.0,0.0,0.000121,0.0,0.0,0.0,0.0036,2
1671461245013449128,269400,1671461245034224563,gps,2,1,42.3009759586,-83.6979146377,272.229675293,0.0001,0.0,0.0,0.0,0.000121,0.0,0.0,0.0,0.0036,2
1671461245023385398,269401,1671461245044198003,gps,2,1,42.3009759563,-83.6979146987,272.229370117,0.0001,0.0,0.0,0.0,0.000121,0.0,0.0,0.0,0.0036,2
1671461245033319203,269402,1671461245054219478,gps,2,1,42.3009759572,-83.6979147614,272.229278564,0.0001,0.0,0.0,0.0,0.000121,0.0,0.0,0.0,0.0036,2
1671461245043664631,269403,1671461245064269787,gps,2,1,42.3009759581,-83.6979148219,272.229187012,0.0001,0.0,0.0,0.0,0.000121,0.0,0.0,0.0,0.0036,2
1671461245053147090,269404,1671461245074167507,gps,2,1,42.3009759559,-83.6979148853,272.228881836,0.0001,0.0,0.0,0.0,0.000121,0.0,0.0,0.0,0.0036,2
1671461245063146697,269405,1671461245084231583,gps,2,1,42.3009759569,-83.6979149504,272.228759766,0.0001,0.0,0.0,0.0,0.000121,0.0,0.0,0.0,0.0036,2
1671461245073696798,269406,1671461245094298841,gps,2,1,42.3009759578,-83.6979150135,272.228668213,0.0001,0.0,0.0,0.0,0.000121,0.0,0.0,0.0,0.0036,2
1671461245083520343,269407,1671461245104192839,gps,2,1,42.3009759557,-83.6979150793,272.228363037,0.0001,0.0,0.0,0.0,0.000121,0.0,0.0,0.0,0.0036,2
1671461245093547967,269408,1671461245114162734,gps,2,1,42.3009759567,-83.6979151469,272.228240967,0.0001,0.0,0.0,0.0,0.000121,0.0,0.0,0.0,0.0036,2
1671461245103388259,269409,1671461245124212782,gps,2,1,42.3009759576,-83.6979152124,272.228149414,0.0001,0.0,0.0,0.0,0.000121,0.0,0.0,0.0,0.0036,2
1671461245113081109,269410,1671461245134168455,gps,2,1,42.3009759556,-83.6979152807,272.227844238,0.0001,0.0,0.0,0.0,0.000121,0.0,0.0,0.0,0.0036,2
1671461245123343636,269411,1671461245144232126,gps,2,1,42.3009759566,-83.6979153509,272.227722168,0.0001,0.0,0.0,0.0,0.000121,0.0,0.0,0.0,0.0036,2
1671461245133406491,269412,1671461245154252908,gps,2,1,42.3009759575,-83.6979154189,272.227600098,0.0001,0.0,0.0,0.0,0.000121,0.0,0.0,0.0,0.0036,2
1671461245143171819,269413,1671461245164159927,gps,2,1,42.3009759558,-83.6979154897,272.227294922,0.0001,0.0,0.0,0.0,0.000121,0.0,0.0,0.0,0.0036,2
1671461245153191468,269414,1671461245174169930,gps,2,1,42.3009759568,-83.6979155623,272.227172852,0.0001,0.0,0.0,0.0,0.000121,0.0,0.0,0.0,0.0036,2
1671461245163269870,269415,1671461245184203698,gps,2,1,42.3009759577,-83.6979156329,272.227050781,0.0001,0.0,0.0,0.0,0.000121,0.0,0.0,0.0,0.0036,2
1671461245173392916,269416,1671461245194143325,gps,2,1,42.3009759561,-83.6979157063,272.226745605,0.0001,0.0,0.0,0.0,0.000121,0.0,0.0,0.0,0.0036,2
1671461245183301794,269417,1671461245204153224,gps,2,1,42.3009759571,-83.6979157817,272.226623535,0.0001,0.0,0.0,0.0,0.000121,0.0,0.0,0.0,0.0036,2
1671461245193332124,269418,1671461245214308131,gps,2,1,42.300975958,-83.6979158548,272.226470947,0.0001,0.0,0.0,0.0,0.000121,0.0,0.0,0.0,0.0036,2
1671461245203095635,269419,1671461245224156761,gps,2,1,42.3009759564,-83.697915931,272.226196289,0.0001,0.0,0.0,0.0,0.000121,0.0,0.0,0.0,0.0036,2
1671461245213297826,269420,1671461245234216884,gps,2,1,42.3009759573,-83.6979160091,272.226043701,0.0001,0.0,0.0,0.0,0.000121,0.0,0.0,0.0,0.0036,2
1671461245223214183,269421,1671461245244191739,gps,2,1,42.3009759583,-83.6979160849,272.225921631,0.0001,0.0,0.0,0.0,0.000121,0.0,0.0,0.0,0.0036,2
1671461245233445176,269422,1671461245254181645,gps,2,1,42.3009759568,-83.6979161637,272.225616455,0.0001,0.0,0.0,0.0,0.000121,0.0,0.0,0.0,0.0036,2
1671461245243478445,269423,1671461245264217888,gps,2,1,42.3009759577,-83.6979162445,272.225463867,0.0001,0.0,0.0,0.0,0.000121,0.0,0.0,0.0,0.0036,2
1671461245253475945,269424,1671461245274159166,gps,2,1,42.3009759587,-83.6979163231,272.225341797,0.000144,0.0,0.0,0.0,0.000196,0.0,0.0,0.0,0.003721,2
1671461245263466135,269425,1671461245284190699,gps,2,1,42.3009759573,-83.6979164048,272.225036621,0.000144,0.0,0.0,0.0,0.000196,0.0,0.0,0.0,0.003721,2
1671461245273364781,269426,1671461245294155591,gps,2,1,42.3009759582,-83.6979164884,272.224884033,0.000144,0.0,0.0,0.0,0.000196,0.0,0.0,0.0,0.003721,2
1671461245283347310,269427,1671461245304223431,gps,2,1,42.3009759591,-83.6979165697,272.224761963,0.000144,0.0,0.0,0.0,0.000196,0.0,0.0,0.0,0.003721,2
1671461245293322096,269428,1671461245314164085,gps,2,1,42.3009759578,-83.6979166542,272.224456787,0.000144,0.0,0.0,0.0,0.000196,0.0,0.0,0.0,0.003721,2
1671461245303242821,269429,1671461245324170790,gps,2,1,42.3009759588,-83.6979167407,272.224304199,0.000144,0.0,0.0,0.0,0.000196,0.0,0.0,0.0,0.003721,2
1671461245313293527,269430,1671461245334226129,gps,2,1,42.3009759597,-83.6979168248,272.224151611,0.000144,0.0,0.0,0.0,0.000196,0.0,0.0,0.0,0.003721,2
1671461245323350193,269431,1671461245344146357,gps,2,1,42.3009759585,-83.6979169122,272.223846436,0.000144,0.0,0.0,0.0,0.000196,0.0,0.0,0.0,0.003721,2
1671461245333291944,269432,1671461245354198298,gps,2,1,42.3009759595,-83.6979170016,272.223693848,0.000144,0.0,0.0,0.0,0.000196,0.0,0.0,0.0,0.003721,2
1671461245343157550,269433,1671461245364156436,gps,2,1,42.3009759604,-83.6979170886,272.22354126,0.000144,0.0,0.0,0.0,0.000196,0.0,0.0,0.0,0.003721,2
1671461245353360244,269434,1671461245374179828,gps,2,1,42.3009759592,-83.6979171789,272.223236084,0.000144,0.0,0.0,0.0,0.000196,0.0,0.0,0.0,0.003721,2
1671461245363469056,269435,1671461245384242215,gps,2,1,42.3009759602,-83.6979172712,272.223083496,0.000144,0.0,0.0,0.0,0.000196,0.0,0.0,0.0,0.003721,2
1671461245373554689,269436,1671461245394191677,gps,2,1,42.3009759612,-83.6979173611,272.222900391,0.000144,0.0,0.0,0.0,0.000196,0.0,0.0,0.0,0.003721,2
1671461245383408098,269437,1671461245404167051,gps,2,1,42.3009759603,-83.6979174546,272.222595215,0.000144,0.0,0.0,0.0,0.000196,0.0,0.0,0.0,0.003721,2
1671461245393537756,269438,1671461245414226409,gps,2,1,42.3009759613,-83.6979175499,272.222412109,0.000144,0.0,0.0,0.0,0.000196,0.0,0.0,0.0,0.003721,2
1671461245403463272,269439,1671461245424165548,gps,2,1,42.3009759623,-83.6979176427,272.222229004,0.000144,0.0,0.0,0.0,0.000196,0.0,0.0,0.0,0.003721,2
1671461245413227900,269440,1671461245434171644,gps,2,1,42.3009759615,-83.6979177393,272.221923828,0.000144,0.0,0.0,0.0,0.000196,0.0,0.0,0.0,0.003721,2
1671461245423322827,269441,1671461245444165449,gps,2,1,42.3009759625,-83.6979178376,272.221740723,0.000144,0.0,0.0,0.0,0.000196,0.0,0.0,0.0,0.003721,2
1671461245433342239,269442,1671461245454231835,gps,2,1,42.3009759635,-83.6979179333,272.221557617,0.000144,0.0,0.0,0.0,0.000196,0.0,0.0,0.0,0.003721,2
1671461245443386479,269443,1671461245464241523,gps,2,1,42.3009759627,-83.6979180328,272.221221924,0.000144,0.0,0.0,0.0,0.000196,0.0,0.0,0.0,0.003721,2
1671461245453297000,269444,1671461245474223991,gps,2,1,42.3009759637,-83.6979181342,272.221008301,0.000144,0.0,0.0,0.0,0.000196,0.0,0.0,0.0,0.003721,2
1671461245463414860,269445,1671461245484163892,gps,2,1,42.3009759647,-83.697918233,272.220855713,0.000144,0.0,0.0,0.0,0.000196,0.0,0.0,0.0,0.003721,2
1671461245473316039,269446,1671461245494182939,gps,2,1,42.300975964,-83.6979183355,272.22052002,0.000144,0.0,0.0,0.0,0.000196,0.0,0.0,0.0,0.003721,2
1671461245483210395,269447,1671461245504236543,gps,2,1,42.300975965,-83.69791844,272.220306396,0.000144,0.0,0.0,0.0,0.000196,0.0,0.0,0.0,0.003721,2
1671461245493143249,269448,1671461245514150848,gps,2,1,42.300975966,-83.6979185419,272.220092773,0.000144,0.0,0.0,0.0,0.000196,0.0,0.0,0.0,0.003721,2
1671461245503564307,269449,1671461245524317521,gps,2,1,42.3009759654,-83.6979186476,272.21975708,0.000144,0.0,0.0,0.0,0.000196,0.0,0.0,0.0,0.003721,2
1671461245513630919,269450,1671461245534227842,gps,2,1,42.3009759665,-83.6979187552,272.219543457,0.000144,0.0,0.0,0.0,0.000196,0.0,0.0,0.0,0.003721,2
1671461245523636936,269451,1671461245544235159,gps,2,1,42.3009759675,-83.6979188602,272.219329834,0.000144,0.0,0.0,0.0,0.000196,0.0,0.0,0.0,0.003721,2
1671461245533540396,269452,1671461245554239168,gps,2,1,42.3009759669,-83.6979189711,272.218688965,0.000144,0.0,0.0,0.0,0.000196,0.0,0.0,0.0,0.003721,2
1671461245543396894,269453,1671461245564222790,gps,2,1,42.300975968,-83.6979190821,272.218444824,0.000144,0.0,0.0,0.0,0.000196,0.0,0.0,0.0,0.003721,2
1671461245553376369,269454,1671461245574285708,gps,2,1,42.3009759691,-83.6979191903,272.218231201,0.000144,0.0,0.0,0.0,0.000196,0.0,0.0,0.0,0.003721,2
1671461245563465855,269455,1671461245584195631,gps,2,1,42.3009759686,-83.6979193045,272.217590332,0.000144,0.0,0.0,0.0,0.000196,0.0,0.0,0.0,0.003721,2
1671461245573420314,269456,1671461245594184517,gps,2,1,42.3009759698,-83.697919419,272.217346191,0.000144,0.0,0.0,0.0,0.000196,0.0,0.0,0.0,0.003721,2
1671461245583400842,269457,1671461245604235429,gps,2,1,42.3009759711,-83.6979195304,272.217102051,0.000144,0.0,0.0,0.0,0.000196,0.0,0.0,0.0,0.003721,2
1671461245593283113,269458,1671461245614142288,gps,2,1,42.3009759706,-83.697919648,272.216491699,0.000144,0.0,0.0,0.0,0.000196,0.0,0.0,0.0,0.003721,2
1671461245603294016,269459,1671461245624160956,gps,2,1,42.3009759718,-83.6979197659,272.216247559,0.000144,0.0,0.0,0.0,0.000196,0.0,0.0,0.0,0.003721,2
1671461245613192851,269460,1671461245634207586,gps,2,1,42.300975973,-83.6979198809,272.216003418,0.000144,0.0,0.0,0.0,0.000196,0.0,0.0,0.0,0.003721,2
1671461245623346117,269461,1671461245644184291,gps,2,1,42.3009759726,-83.6979200019,272.215393066,0.000144,0.0,0.0,0.0,0.000196,0.0,0.0,0.0,0.003721,2
1671461245633289073,269462,1671461245654122963,gps,2,1,42.3009759738,-83.6979201234,272.215118408,0.000144,0.0,0.0,0.0,0.000196,0.0,0.0,0.0,0.003721,2
1671461245643345139,269463,1671461245664107618,gps,2,1,42.3009759749,-83.6979202418,272.214874268,0.000144,0.0,0.0,0.0,0.000196,0.0,0.0,0.0,0.003721,2
1671461245653095015,269464,1671461245674113093,gps,2,1,42.3009759746,-83.6979203665,272.214263916,0.000144,0.0,0.0,0.0,0.000196,0.0,0.0,0.0,0.003721,2
1671461245662974170,269465,1671461245684109475,gps,2,1,42.3009759757,-83.6979204916,272.213989258,0.000144,0.0,0.0,0.0,0.000196,0.0,0.0,0.0,0.003721,2
1671461245673591059,269466,1671461245694302861,gps,2,1,42.3009759769,-83.6979206137,272.213745117,0.000144,0.0,0.0,0.0,0.000196,0.0,0.0,0.0,0.003721,2
1671461245683295781,269467,1671461245704224322,gps,2,1,42.3009759765,-83.697920742,272.213134766,0.000144,0.0,0.0,0.0,0.000196,0.0,0.0,0.0,0.003721,2
1671461245693476780,269468,1671461245714330359,gps,2,1,42.3009759775,-83.6979208711,272.212860107,0.000144,0.0,0.0,0.0,0.000196,0.0,0.0,0.0,0.003721,2
1671461245703301954,269469,1671461245724240711,gps,2,1,42.3009759787,-83.6979209968,272.212585449,0.000144,0.0,0.0,0.0,0.000196,0.0,0.0,0.0,0.003721,2
1671461245713224864,269470,1671461245734168679,gps,2,1,42.3009759779,-83.6979211289,272.212005615,0.000144,0.0,0.0,0.0,0.000196,0.0,0.0,0.0,0.003721,2
1671461245723393966,269471,1671461245744171476,gps,2,1,42.3009759789,-83.6979212618,272.211730957,0.000144,0.0,0.0,0.0,0.000196,0.0,0.0,0.0,0.003721,2
1671461245733224362,269472,1671461245754227786,gps,2,1,42.30097598,-83.6979213915,272.211456299,0.000144,0.0,0.0,0.0,0.000196,0.0,0.0,0.0,0.003721,2
1671461245743264754,269473,1671461245764167469,gps,2,1,42.3009759792,-83.6979215275,272.210876465,0.000144,0.0,0.0,0.0,0.000196,0.0,0.0,0.0,0.003721,2
1671461245753278959,269474,1671461245774162015,gps,2,1,42.3009759802,-83.6979216643,272.210601807,0.000144,0.0,0.0,0.0,0.000196,0.0,0.0,0.0,0.003721,2
1671461245763150206,269475,1671461245784236973,gps,2,1,42.3009759812,-83.6979217979,272.210327148,0.000144,0.0,0.0,0.0,0.000196,0.0,0.0,0.0,0.003721,2
1671461245773211935,269476,1671461245794179056,gps,2,1,42.3009759804,-83.6979219377,272.209747314,0.000144,0.0,0.0,0.0,0.000196,0.0,0.0,0.0,0.003721,2
1671461245783156398,269477,1671461245804174554,gps,2,1,42.3009759814,-83.6979220784,272.209503174,0.000144,0.0,0.0,0.0,0.000196,0.0,0.0,0.0,0.003721,2
1671461245793181401,269478,1671461245814239151,gps,2,1,42.3009759823,-83.697922216,272.209228516,0.000144,0.0,0.0,0.0,0.000196,0.0,0.0,0.0,0.003721,2
1671461245803304014,269479,1671461245824169199,gps,2,1,42.3009759816,-83.6979223596,272.208679199,0.000144,0.0,0.0,0.0,0.000196,0.0,0.0,0.0,0.003721,2
1671461245813495453,269480,1671461245834200796,gps,2,1,42.3009759826,-83.6979225044,272.208404541,0.000144,0.0,0.0,0.0,0.000196,0.0,0.0,0.0,0.003721,2
1671461245823627662,269481,1671461245844232481,gps,2,1,42.3009759836,-83.6979226458,272.2081604,0.000144,0.0,0.0,0.0,0.000196,0.0,0.0,0.0,0.003721,2
1671461245833394115,269482,1671461245854150902,gps,2,1,42.3009759829,-83.6979227934,272.207641602,0.000144,0.0,0.0,0.0,0.000196,0.0,0.0,0.0,0.003721,2
1671461245843459487,269483,1671461245864178576,gps,2,1,42.3009759841,-83.6979229421,272.207397461,0.000144,0.0,0.0,0.0,0.000196,0.0,0.0,0.0,0.003721,2
1671461245853421023,269484,1671461245874307160,gps,2,1,42.3009759851,-83.6979230875,272.20715332,0.000144,0.0,0.0,0.0,0.000196,0.0,0.0,0.0,0.003721,2
1671461245863211433,269485,1671461245884180619,gps,2,1,42.3009759846,-83.6979232391,272.206634521,0.000144,0.0,0.0,0.0,0.000196,0.0,0.0,0.0,0.003721,2
1671461245873374891,269486,1671461245894173954,gps,2,1,42.3009759859,-83.697923392,272.206420898,0.000144,0.0,0.0,0.0,0.000196,0.0,0.0,0.0,0.003721,2
1671461245883352848,269487,1671461245904248998,gps,2,1,42.300975987,-83.6979235414,272.206176758,0.000144,0.0,0.0,0.0,0.000196,0.0,0.0,0.0,0.003721,2
1671461245893393629,269488,1671461245914157542,gps,2,1,42.3009759871,-83.6979236971,272.205657959,0.000144,0.0,0.0,0.0,0.000196,0.0,0.0,0.0,0.003721,2
1671461245903222405,269489,1671461245924166481,gps,2,1,42.3009759885,-83.6979238541,272.205444336,0.000144,0.0,0.0,0.0,0.000196,0.0,0.0,0.0,0.003721,2
1671461245913106970,269490,1671461245934210751,gps,2,1,42.3009759897,-83.6979240077,272.205230713,0.000144,0.0,0.0,0.0,0.000196,0.0,0.0,0.0,0.003721,2
