%time,field.header.seq,field.header.stamp,field.header.frame_id,field.status.status,field.status.service,field.latitude,field.longitude,field.altitude,field.position_covariance0,field.position_covariance1,field.position_covariance2,field.position_covariance3,field.position_covariance4,field.position_covariance5,field.position_covariance6,field.position_covariance7,field.position_covariance8,field.position_covariance_type
1671461493773231988,294276,1671461493798417213,gps,2,1,42.3002298051,-83.6985960361,270.822113037,8.1e-05,0.0,0.0,0.0,0.0001,0.0,0.0,0.0,0.002704,2
1671461493783187372,294277,1671461493808367436,gps,2,1,42.3002298029,-83.6985960351,270.822021484,8.1e-05,0.0,0.0,0.0,0.0001,0.0,0.0,0.0,0.002704,2
1671461493793834540,294278,1671461493818361148,gps,2,1,42.3002298037,-83.6985960355,270.821990967,8.1e-05,0.0,0.0,0.0,0.0001,0.0,0.0,0.0,0.002704,2
1671461493803710337,294279,1671461493828436038,gps,2,1,42.3002298046,-83.6985960356,270.821990967,8.1e-05,0.0,0.0,0.0,0.0001,0.0,0.0,0.0,0.002704,2
1671461493813544843,294280,1671461493838459346,gps,2,1,42.3002298024,-83.6985960347,270.821899414,8.1e-05,0.0,0.0,0.0,0.0001,0.0,0.0,0.0,0.002704,2
1671461493823474650,294281,1671461493848366204,gps,2,1,42.3002298033,-83.6985960348,270.821868896,8.1e-05,0.0,0.0,0.0,0.0001,0.0,0.0,0.0,0.002704,2
1671461493833368969,294282,1671461493858421112,gps,2,1,42.3002298041,-83.6985960354,270.821868896,8.1e-05,0.0,0.0,0.0,0.0001,0.0,0.0,0.0,0.002704,2
1671461493843305104,294283,1671461493868372640,gps,2,1,42.300229802,-83.6985960344,270.821777344,8.1e-05,0.0,0.0,0.0,0.0001,0.0,0.0,0.0,0.002704,2
1671461493853347360,294284,1671461493878429115,gps,2,1,42.300229803,-83.6985960349,270.821777344,8.1e-05,0.0,0.0,0.0,0.0001,0.0,0.0,0.0,0.002704,2
1671461493863292219,294285,1671461493888372712,gps,2,1,42.3002298038,-83.6985960354,270.821777344,8.1e-05,0.0,0.0,0.0,0.0001,0.0,0.0,0.0,0.002704,2
1671461493873370284,294286,1671461493898350126,gps,2,1,42.3002298019,-83.6985960345,270.821685791,8.1e-05,0.0,0.0,0.0,0.0001,0.0,0.0,0.0,0.002704,2
1671461493883345352,294287,1671461493908347421,gps,2,1,42.3002298028,-83.6985960351,270.821685791,8.1e-05,0.0,0.0,0.0,0.0001,0.0,0.0,0.0,0.002704,2
1671461493893315496,294288,1671461493918425479,gps,2,1,42.3002298036,-83.6985960351,270.821655273,8.1e-05,0.0,0.0,0.0,0.0001,0.0,0.0,0.0,0.002704,2
1671461493903504454,294289,1671461493928350452,gps,2,1,42.3002298017,-83.6985960343,270.821594238,8.1e-05,0.0,0.0,0.0,0.0001,0.0,0.0,0.0,0.002704,2
1671461493913205323,294290,1671461493938371869,gps,2,1,42.3002298026,-83.6985960344,270.821563721,8.1e-05,0.0,0.0,0.0,0.0001,0.0,0.0,0.0,0.002704,2
1671461493923714453,294291,1671461493948439327,gps,2,1,42.3002298036,-83.6985960348,270.821563721,8.1e-05,0.0,0.0,0.0,0.0001,0.0,0.0,0.0,0.002704,2
1671461493933493447,294292,1671461493958380969,gps,2,1,42.3002298018,-83.6985960339,270.821502686,8.1e-05,0.0,0.0,0.0,0.0001,0.0,0.0,0.0,0.002704,2
1671461493943869259,294293,1671461493968423130,gps,2,1,42.3002298027,-83.6985960342,270.821472168,8.1e-05,0.0,0.0,0.0,0.0001,0.0,0.0,0.0,0.002704,2
1671461493953448423,294294,1671461493978361158,gps,2,1,42.3002298037,-83.6985960348,270.821472168,8.1e-05,0.0,0.0,0.0,0.0001,0.0,0.0,0.0,0.002704,2
1671461493963575437,294295,1671461493988359641,gps,2,1,42.300229802,-83.6985960339,270.821411133,8.1e-05,0.0,0.0,0.0,0.0001,0.0,0.0,0.0,0.002704,2
1671461493973555326,294296,1671461493998391773,gps,2,1,42.3002298029,-83.6985960345,270.821411133,8.1e-05,0.0,0.0,0.0,0.0001,0.0,0.0,0.0,0.002704,2
1671461493983366849,294297,1671461494008431443,gps,2,1,42.3002298039,-83.6985960347,270.821380615,8.1e-05,0.0,0.0,0.0,0.0001,0.0,0.0,0.0,0.002704,2
1671461493993221175,294298,1671461494018367512,gps,2,1,42.3002298022,-83.6985960339,270.82131958,8.1e-05,0.0,0.0,0.0,0.0001,0.0,0.0,0.0,0.002704,2
1671461494003415113,294299,1671461494028527620,gps,2,1,42.3002298031,-83.6985960342,270.82131958,8.1e-05,0.0,0.0,0.0,0.0001,0.0,0.0,0.0,0.002704,2
1671461494013262688,294300,1671461494038440472,gps,2,1,42.300229804,-83.6985960344,270.821289062,8.1e-05,0.0,0.0,0.0,0.0001,0.0,0.0,0.0,0.002704,2
1671461494023404976,294301,1671461494048449443,gps,2,1,42.3002298025,-83.6985960337,270.821228027,8.1e-05,0.0,0.0,0.0,0.0001,0.0,0.0,0.0,0.002704,2
1671461494033228680,294302,1671461494058489676,gps,2,1,42.3002298033,-83.6985960338,270.82119751,8.1e-05,0.0,0.0,0.0,0.0001,0.0,0.0,0.0,0.002704,2
1671461494043183796,294303,1671461494068365375,gps,2,1,42.3002298043,-83.6985960343,270.82119751,8.1e-05,0.0,0.0,0.0,0.0001,0.0,0.0,0.0,0.002704,2
1671461494053156612,294304,1671461494078412236,gps,2,1,42.3002298013,-83.6985960334,270.821136475,8.1e-05,0.0,0.0,0.0,0.0001,0.0,0.0,0.0,0.002704,2
1671461494063653077,294305,1671461494088579276,gps,2,1,42.3002298022,-83.6985960339,270.821136475,8.1e-05,0.0,0.0,0.0,0.0001,0.0,0.0,0.0,0.002704,2
1671461494073296058,294306,1671461494098380907,gps,2,1,42.3002298031,-83.6985960342,270.821105957,8.1e-05,0.0,0.0,0.0,0.0001,0.0,0.0,0.0,0.002704,2
1671461494083712107,294307,1671461494108469558,gps,2,1,42.3002298002,-83.6985960333,270.821044922,8.1e-05,0.0,0.0,0.0,0.0001,0.0,0.0,0.0,0.002704,2
1671461494093553969,294308,1671461494118436383,gps,2,1,42.3002298011,-83.6985960338,270.821044922,8.1e-05,0.0,0.0,0.0,0.0001,0.0,0.0,0.0,0.002704,2
1671461494103481567,294309,1671461494128382906,gps,2,1,42.300229802,-83.6985960339,270.821044922,8.1e-05,0.0,0.0,0.0,0.0001,0.0,0.0,0.0,0.002704,2
1671461494113509110,294310,1671461494138376185,gps,2,1,42.3002297993,-83.6985960332,270.820983887,8.1e-05,0.0,0.0,0.0,0.0001,0.0,0.0,0.0,0.002704,2
1671461494123289250,294311,1671461494148385562,gps,2,1,42.3002298001,-83.6985960333,270.820953369,8.1e-05,0.0,0.0,0.0,0.0001,0.0,0.0,0.0,0.002704,2
1671461494133389392,294312,1671461494158455763,gps,2,1,42.300229801,-83.6985960338,270.820953369,8.1e-05,0.0,0.0,0.0,0.0001,0.0,0.0,0.0,0.002704,2
1671461494143201693,294313,1671461494168365834,gps,2,1,42.3002297984,-83.6985960329,270.820892334,8.1e-05,0.0,0.0,0.0,0.0001,0.0,0.0,0.0,0.002704,2
1671461494153253504,294314,1671461494178410730,gps,2,1,42.3002297993,-83.6985960333,270.820892334,8.1e-05,0.0,0.0,0.0,0.0001,0.0,0.0,0.0,0.002704,2
1671461494163257223,294315,1671461494188313700,gps,2,1,42.3002298002,-83.6985960339,270.820861816,8.1e-05,0.0,0.0,0.0,0.0001,0.0,0.0,0.0,0.002704,2
1671461494173256074,294316,1671461494198313062,gps,2,1,42.3002297977,-83.698596033,270.820800781,8.1e-05,0.0,0.0,0.0,0.0001,0.0,0.0,0.0,0.002704,2
1671461494183293443,294317,1671461494208336662,gps,2,1,42.3002297986,-83.6985960337,270.820800781,8.1e-05,0.0,0.0,0.0,0.0001,0.0,0.0,0.0,0.002704,2
1671461494193116953,294318,1671461494218404577,gps,2,1,42.3002297995,-83.6985960338,270.820770264,8.1e-05,0.0,0.0,0.0,0.0001,0.0,0.0,0.0,0.002704,2
1671461494203542207,294319,1671461494228446195,gps,2,1,42.3002297972,-83.6985960331,270.820709229,8.1e-05,0.0,0.0,0.0,0.0001,0.0,0.0,0.0,0.002704,2
1671461494213005998,294320,1671461494238389974,gps,2,1,42.300229798,-83.6985960334,270.820709229,8.1e-05,0.0,0.0,0.0,0.0001,0.0,0.0,0.0,0.002704,2
1671461494223603928,294321,1671461494248445012,gps,2,1,42.3002297989,-83.6985960336,270.820678711,8.1e-05,0.0,0.0,0.0,0.0001,0.0,0.0,0.0,0.002704,2
1671461494233584272,294322,1671461494258372550,gps,2,1,42.3002297966,-83.6985960328,270.820617676,8.1e-05,0.0,0.0,0.0,0.0001,0.0,0.0,0.0,0.002704,2
1671461494243524611,294323,1671461494268390196,gps,2,1,42.3002297974,-83.6985960331,270.820617676,8.1e-05,0.0,0.0,0.0,0.0001,0.0,0.0,0.0,0.002704,2
1671461494253365528,294324,1671461494278434687,gps,2,1,42.3002297983,-83.6985960337,270.820617676,0.000121,0.0,0.0,0.0,0.000169,0.0,0.0,0.0,0.002809,2
1671461494263346752,294325,1671461494288401140,gps,2,1,42.300229796,-83.6985960329,270.820556641,0.000121,0.0,0.0,0.0,0.000169,0.0,0.0,0.0,0.002809,2
1671461494273503376,294326,1671461494298433204,gps,2,1,42.3002297969,-83.6985960336,270.820556641,0.000121,0.0,0.0,0.0,0.000169,0.0,0.0,0.0,0.002809,2
1671461494283210483,294327,1671461494308388658,gps,2,1,42.3002297977,-83.6985960338,270.820526123,0.000121,0.0,0.0,0.0,0.000169,0.0,0.0,0.0,0.002809,2
1671461494293348665,294328,1671461494318379758,gps,2,1,42.3002297956,-83.6985960331,270.820465088,0.000121,0.0,0.0,0.0,0.000169,0.0,0.0,0.0,0.002809,2
1671461494303253441,294329,1671461494328369665,gps,2,1,42.3002297964,-83.6985960335,270.820465088,0.000121,0.0,0.0,0.0,0.000169,0.0,0.0,0.0,0.002809,2
1671461494313226412,294330,1671461494338518041,gps,2,1,42.3002297973,-83.6985960336,270.82043457,0.000121,0.0,0.0,0.0,0.000169,0.0,0.0,0.0,0.002809,2
1671461494323434055,294331,1671461494348366106,gps,2,1,42.3002297952,-83.698596033,270.820404053,0.000121,0.0,0.0,0.0,0.000169,0.0,0.0,0.0,0.002809,2
1671461494333228588,294332,1671461494358357004,gps,2,1,42.3002297961,-83.6985960331,270.820373535,0.000121,0.0,0.0,0.0,0.000169,0.0,0.0,0.0,0.002809,2
1671461494343656907,294333,1671461494368449095,gps,2,1,42.3002297969,-83.6985960336,270.820373535,0.000121,0.0,0.0,0.0,0.000169,0.0,0.0,0.0,0.002809,2
1671461494353717284,294334,1671461494378509252,gps,2,1,42.300229795,-83.6985960328,270.8203125,0.000121,0.0,0.0,0.0,0.000169,0.0,0.0,0.0,0.002809,2
1671461494363442186,294335,1671461494388413053,gps,2,1,42.3002297958,-83.6985960333,270.8203125,0.000121,0.0,0.0,0.0,0.000169,0.0,0.0,0.0,0.002809,2
1671461494373619786,294336,1671461494398455387,gps,2,1,42.3002297966,-83.6985960337,270.8203125,0.000121,0.0,0.0,0.0,0.000169,0.0,0.0,0.0,0.002809,2
1671461494383688430,294337,1671461494408386902,gps,2,1,42.3002297947,-83.698596033,270.820281982,0.000121,0.0,0.0,0.0,0.000169,0.0,0.0,0.0,0.002809,2
1671461494393546683,294338,1671461494418394393,gps,2,1,42.3002297955,-83.6985960337,270.820281982,0.000121,0.0,0.0,0.0,0.000169,0.0,0.0,0.0,0.002809,2
1671461494403270750,294339,1671461494428453245,gps,2,1,42.3002297963,-83.6985960337,270.820251465,0.000121,0.0,0.0,0.0,0.000169,0.0,0.0,0.0,0.002809,2
1671461494413202399,294340,1671461494438387177,gps,2,1,42.3002297944,-83.6985960332,270.820220947,0.000121,0.0,0.0,0.0,0.000169,0.0,0.0,0.0,0.002809,2
1671461494423335964,294341,1671461494448382365,gps,2,1,42.3002297952,-83.6985960333,270.82019043,0.000121,0.0,0.0,0.0,0.000169,0.0,0.0,0.0,0.002809,2
1671461494433350253,294342,1671461494458442754,gps,2,1,42.3002297961,-83.6985960338,270.82019043,0.000121,0.0,0.0,0.0,0.000169,0.0,0.0,0.0,0.002809,2
1671461494443351717,294343,1671461494468390993,gps,2,1,42.3002297943,-83.6985960332,270.820159912,0.000121,0.0,0.0,0.0,0.000169,0.0,0.0,0.0,0.002809,2
1671461494453224718,294344,1671461494478368129,gps,2,1,42.3002297951,-83.6985960335,270.820159912,0.000121,0.0,0.0,0.0,0.000169,0.0,0.0,0.0,0.002809,2
1671461494463189237,294345,1671461494488487709,gps,2,1,42.3002297959,-83.6985960341,270.820159912,0.000121,0.0,0.0,0.0,0.000169,0.0,0.0,0.0,0.002809,2
1671461494473201742,294346,1671461494498377143,gps,2,1,42.3002297942,-83.6985960335,270.820129395,0.000121,0.0,0.0,0.0,0.000169,0.0,0.0,0.0,0.002809,2
1671461494483193833,294347,1671461494508367447,gps,2,1,42.300229795,-83.6985960341,270.820129395,0.000121,0.0,0.0,0.0,0.000169,0.0,0.0,0.0,0.002809,2
1671461494493211775,294348,1671461494518443273,gps,2,1,42.3002297958,-83.6985960343,270.820098877,0.000121,0.0,0.0,0.0,0.000169,0.0,0.0,0.0,0.002809,2
1671461494503490132,294349,1671461494528385511,gps,2,1,42.3002297942,-83.6985960338,270.820068359,0.000121,0.0,0.0,0.0,0.000169,0.0,0.0,0.0,0.002809,2
1671461494513548072,294350,1671461494538437622,gps,2,1,42.300229795,-83.698596034,270.820068359,0.000121,0.0,0.0,0.0,0.000169,0.0,0.0,0.0,0.002809,2
1671461494523422215,294351,1671461494548492309,gps,2,1,42.3002297958,-83.6985960343,270.820037842,0.000121,0.0,0.0,0.0,0.000169,0.0,0.0,0.0,0.002809,2
1671461494533528789,294352,1671461494558401654,gps,2,1,42.3002297942,-83.6985960338,270.820007324,0.000121,0.0,0.0,0.0,0.000169,0.0,0.0,0.0,0.002809,2
1671461494543532229,294353,1671461494568436117,gps,2,1,42.3002297951,-83.698596034,270.820007324,0.000121,0.0,0.0,0.0,0.000169,0.0,0.0,0.0,0.002809,2
1671461494553354005,294354,1671461494578494956,gps,2,1,42.3002297959,-83.6985960346,270.820007324,0.000121,0.0,0.0,0.0,0.000169,0.0,0.0,0.0,0.002809,2
1671461494563506995,294355,1671461494588565255,gps,2,1,42.3002297936,-83.698596033,270.820007324,0.000121,0.0,0.0,0.0,0.000169,0.0,0.0,0.0,0.002809,2
1671461494573360589,294356,1671461494598417603,gps,2,1,42.3002297945,-83.6985960335,270.820007324,0.000121,0.0,0.0,0.0,0.000169,0.0,0.0,0.0,0.002809,2
1671461494583321809,294357,1671461494608434466,gps,2,1,42.3002297952,-83.6985960339,270.820007324,0.000121,0.0,0.0,0.0,0.000169,0.0,0.0,0.0,0.002809,2
1671461494593312441,294358,1671461494618361128,gps,2,1,42.3002297931,-83.6985960324,270.820007324,0.000121,0.0,0.0,0.0,0.000169,0.0,0.0,0.0,0.002809,2
1671461494603315289,294359,1671461494628437069,gps,2,1,42.300229794,-83.6985960327,270.820007324,0.000121,0.0,0.0,0.0,0.000169,0.0,0.0,0.0,0.002809,2
1671461494613028059,294360,1671461494638385897,gps,2,1,42.3002297948,-83.698596033,270.820007324,0.000121,0.0,0.0,0.0,0.000169,0.0,0.0,0.0,0.002809,2
1671461494623217985,294361,1671461494648373912,gps,2,1,42.3002297928,-83.6985960316,270.820007324,0.000121,0.0,0.0,0.0,0.000169,0.0,0.0,0.0,0.002809,2
1671461494633185112,294362,1671461494658450207,gps,2,1,42.3002297936,-83.6985960317,270.820007324,0.000121,0.0,0.0,0.0,0.000169,0.0,0.0,0.0,0.002809,2
1671461494643127032,294363,1671461494668403272,gps,2,1,42.3002297944,-83.6985960323,270.820007324,0.000121,0.0,0.0,0.0,0.000169,0.0,0.0,0.0,0.002809,2
1671461494653529512,294364,1671461494678388518,gps,2,1,42.3002297924,-83.6985960311,270.820007324,0.000121,0.0,0.0,0.0,0.000169,0.0,0.0,0.0,0.002809,2
1671461494663222048,294365,1671461494688385762,gps,2,1,42.3002297933,-83.6985960316,270.820007324,0.000121,0.0,0.0,0.0,0.000169,0.0,0.0,0.0,0.002809,2
1671461494673503075,294366,1671461494698442943,gps,2,1,42.300229794,-83.698596032,270.820007324,0.000121,0.0,0.0,0.0,0.000169,0.0,0.0,0.0,0.002809,2
1671461494683377417,294367,1671461494708465188,gps,2,1,42.300229792,-83.6985960309,270.820007324,0.000121,0.0,0.0,0.0,0.000169,0.0,0.0,0.0,0.002809,2
1671461494693507979,294368,1671461494718453641,gps,2,1,42.3002297929,-83.6985960313,270.820007324,0.000121,0.0,0.0,0.0,0.000169,0.0,0.0,0.0,0.002809,2
1671461494703300398,294369,1671461494728395650,gps,2,1,42.3002297936,-83.6985960314,270.819976807,0.000121,0.0,0.0,0.0,0.000169,0.0,0.0,0.0,0.002809,2
1671461494713462305,294370,1671461494738400834,gps,2,1,42.3002297917,-83.6985960305,270.820007324,0.000121,0.0,0.0,0.0,0.000169,0.0,0.0,0.0,0.002809,2
1671461494723482517,294371,1671461494748449752,gps,2,1,42.3002297925,-83.6985960305,270.819976807,0.000121,0.0,0.0,0.0,0.000169,0.0,0.0,0.0,0.002809,2
1671461494733302737,294372,1671461494758371896,gps,2,1,42.3002297933,-83.6985960311,270.819976807,0.000121,0.0,0.0,0.0,0.000169,0.0,0.0,0.0,0.002809,2
1671461494743302529,294373,1671461494768410378,gps,2,1,42.3002297914,-83.69859603,270.819976807,0.000121,0.0,0.0,0.0,0.000169,0.0,0.0,0.0,0.002809,2
1671461494753287129,294374,1671461494778373421,gps,2,1,42.3002297923,-83.6985960304,270.819976807,0.000121,0.0,0.0,0.0,0.000169,0.0,0.0,0.0,0.002809,2
1671461494763132705,294375,1671461494788462770,gps,2,1,42.300229793,-83.698596031,270.819976807,0.000121,0.0,0.0,0.0,0.000169,0.0,0.0,0.0,0.002809,2
1671461494773176718,294376,1671461494798387000,gps,2,1,42.3002297913,-83.6985960299,270.819976807,0.000121,0.0,0.0,0.0,0.000169,0.0,0.0,0.0,0.002809,2
1671461494783533677,294377,1671461494808415243,gps,2,1,42.3002297921,-83.6985960304,270.819976807,0.000121,0.0,0.0,0.0,0.000169,0.0,0.0,0.0,0.002809,2
1671461494793521539,294378,1671461494818460822,gps,2,1,42.3002297928,-83.6985960306,270.819976807,0.000121,0.0,0.0,0.0,0.000169,0.0,0.0,0.0,0.002809,2
1671461494803684579,294379,1671461494828392490,gps,2,1,42.3002297912,-83.6985960298,270.819976807,0.000121,0.0,0.0,0.0,0.000169,0.0,0.0,0.0,0.002809,2
1671461494813491851,294380,1671461494838524649,gps,2,1,42.300229792,-83.6985960298,270.819946289,0.000121,0.0,0.0,0.0,0.000169,0.0,0.0,0.0,0.002809,2
1671461494823316079,294381,1671461494848402505,gps,2,1,42.3002297928,-83.6985960301,270.819946289,0.000121,0.0,0.0,0.0,0.000169,0.0,0.0,0.0,0.002809,2
1671461494833409844,294382,1671461494858375664,gps,2,1,42.3002297912,-83.6985960292,270.819946289,0.000121,0.0,0.0,0.0,0.000169,0.0,0.0,0.0,0.002809,2
1671461494843430807,294383,1671461494868384394,gps,2,1,42.300229792,-83.6985960294,270.819946289,0.000121,0.0,0.0,0.0,0.000169,0.0,0.0,0.0,0.002809,2
1671461494853478621,294384,1671461494878456892,gps,2,1,42.3002297928,-83.6985960301,270.819946289,0.000121,0.0,0.0,0.0,0.000169,0.0,0.0,0.0,0.002809,2
1671461494863187527,294385,1671461494888380966,gps,2,1,42.3002297913,-83.6985960291,270.819946289,0.000121,0.0,0.0,0.0,0.000169,0.0,0.0,0.0,0.002809,2
1671461494873319247,294386,1671461494898379745,gps,2,1,42.3002297922,-83.6985960298,270.819946289,0.000121,0.0,0.0,0.0,0.000169,0.0,0.0,0.0,0.002809,2
1671461494883338487,294387,1671461494908475003,gps,2,1,42.3002297929,-83.6985960301,270.819946289,0.000121,0.0,0.0,0.0,0.000169,0.0,0.0,0.0,0.002809,2
1671461494893428174,294388,1671461494918380250,gps,2,1,42.3002297915,-83.6985960291,270.819946289,0.000121,0.0,0.0,0.0,0.000169,0.0,0.0,0.0,0.002809,2
1671461494903444852,294389,1671461494928388178,gps,2,1,42.3002297923,-83.6985960294,270.819946289,0.000121,0.0,0.0,0.0,0.000169,0.0,0.0,0.0,0.002809,2
1671461494913553973,294390,1671461494938455184,gps,2,1,42.3002297931,-83.6985960296,270.819946289,0.000121,0.0,0.0,0.0,0.000169,0.0,0.0,0.0,0.002809,2
1671461494923160345,294391,1671461494948385408,gps,2,1,42.3002297917,-83.6985960287,270.819946289,0.000121,0.0,0.0,0.0,0.000169,0.0,0.0,0.0,0.002809,2
1671461494933506781,294392,1671461494958399308,gps,2,1,42.3002297925,-83.6985960288,270.819915771,0.000121,0.0,0.0,0.0,0.000169,0.0,0.0,0.0,0.002809,2
1671461494943294090,294393,1671461494968464860,gps,2,1,42.3002297933,-83.6985960294,270.819915771,0.000121,0.0,0.0,0.0,0.000169,0.0,0.0,0.0,0.002809,2
1671461494953507199,294394,1671461494978385694,gps,2,1,42.3002297919,-83.6985960284,270.819946289,0.000121,0.0,0.0,0.0,0.000169,0.0,0.0,0.0,0.002809,2
1671461494963558973,294395,1671461494988407371,gps,2,1,42.3002297928,-83.698596029,270.819946289,0.000121,0.0,0.0,0.0,0.000169,0.0,0.0,0.0,0.002809,2
1671461494973339491,294396,1671461494998448429,gps,2,1,42.3002297936,-83.6985960293,270.819915771,0.000121,0.0,0.0,0.0,0.000169,0.0,0.0,0.0,0.002809,2
1671461494983346664,294397,1671461495008405121,gps,2,1,42.3002297923,-83.6985960284,270.819946289,0.000121,0.0,0.0,0.0,0.000169,0.0,0.0,0.0,0.002809,2
1671461494993358333,294398,1671461495018425755,gps,2,1,42.300229793,-83.6985960288,270.819915771,0.000121,0.0,0.0,0.0,0.000169,0.0,0.0,0.0,0.002809,2
1671461495003581931,294399,1671461495028603268,gps,2,1,42.3002297938,-83.6985960288,270.819915771,0.000121,0.0,0.0,0.0,0.000169,0.0,0.0,0.0,0.002809,2
1671461495013410178,294400,1671461495038474202,gps,2,1,42.3002297917,-83.6985960282,270.820037842,0.000121,0.0,0.0,0.0,0.000169,0.0,0.0,0.0,0.002809,2
1671461495023364512,294401,1671461495048441108,gps,2,1,42.3002297924,-83.6985960282,270.820007324,0.000121,0.0,0.0,0.0,0.000169,0.0,0.0,0.0,0.002809,2
1671461495033301297,294402,1671461495058508075,gps,2,1,42.3002297932,-83.6985960287,270.820007324,0.000121,0.0,0.0,0.0,0.000169,0.0,0.0,0.0,0.002809,2
1671461495043171152,294403,1671461495068479880,gps,2,1,42.3002297911,-83.6985960279,270.820129395,0.000121,0.0,0.0,0.0,0.000169,0.0,0.0,0.0,0.002809,2
1671461495053153977,294404,1671461495078383067,gps,2,1,42.3002297919,-83.6985960283,270.820129395,0.000121,0.0,0.0,0.0,0.000169,0.0,0.0,0.0,0.002809,2
1671461495063427243,294405,1671461495088596479,gps,2,1,42.3002297927,-83.698596029,270.820098877,0.000121,0.0,0.0,0.0,0.000169,0.0,0.0,0.0,0.002809,2
1671461495073599357,294406,1671461495098473291,gps,2,1,42.3002297907,-83.6985960282,270.820220947,0.000121,0.0,0.0,0.0,0.000169,0.0,0.0,0.0,0.002809,2
1671461495083629687,294407,1671461495108458780,gps,2,1,42.3002297915,-83.6985960288,270.820220947,0.000121,0.0,0.0,0.0,0.000169,0.0,0.0,0.0,0.002809,2
1671461495093715689,294408,1671461495118464785,gps,2,1,42.3002297923,-83.6985960288,270.82019043,0.000121,0.0,0.0,0.0,0.000169,0.0,0.0,0.0,0.002809,2
1671461495103443617,294409,1671461495128397407,gps,2,1,42.3002297904,-83.6985960282,270.8203125,0.000121,0.0,0.0,0.0,0.000169,0.0,0.0,0.0,0.002809,2
1671461495113359737,294410,1671461495138404139,gps,2,1,42.3002297911,-83.6985960284,270.820281982,0.000121,0.0,0.0,0.0,0.000169,0.0,0.0,0.0,0.002809,2
1671461495123399005,294411,1671461495148463821,gps,2,1,42.300229792,-83.6985960286,270.820281982,0.000121,0.0,0.0,0.0,0.000169,0.0,0.0,0.0,0.002809,2
1671461495133353198,294412,1671461495158389312,gps,2,1,42.3002297901,-83.698596028,270.820373535,0.000121,0.0,0.0,0.0,0.000169,0.0,0.0,0.0,0.002809,2
1671461495143362008,294413,1671461495168470953,gps,2,1,42.3002297909,-83.6985960281,270.820373535,0.000121,0.0,0.0,0.0,0.000169,0.0,0.0,0.0,0.002809,2
1671461495153311739,294414,1671461495178397802,gps,2,1,42.3002297917,-83.6985960287,270.820373535,0.000121,0.0,0.0,0.0,0.000169,0.0,0.0,0.0,0.002809,2
1671461495163342965,294415,1671461495188405365,gps,2,1,42.3002297899,-83.698596028,270.820465088,0.000121,0.0,0.0,0.0,0.000169,0.0,0.0,0.0,0.002809,2
1671461495173302589,294416,1671461495198401939,gps,2,1,42.3002297907,-83.6985960285,270.820465088,0.000121,0.0,0.0,0.0,0.000169,0.0,0.0,0.0,0.002809,2
1671461495183265985,294417,1671461495208452465,gps,2,1,42.3002297915,-83.6985960288,270.820465088,0.000121,0.0,0.0,0.0,0.000169,0.0,0.0,0.0,0.002809,2
1671461495193191075,294418,1671461495218384102,gps,2,1,42.3002297897,-83.6985960282,270.820556641,0.000121,0.0,0.0,0.0,0.000169,0.0,0.0,0.0,0.002809,2
1671461495203157711,294419,1671461495228398030,gps,2,1,42.3002297904,-83.6985960287,270.820526123,0.000121,0.0,0.0,0.0,0.000169,0.0,0.0,0.0,0.002809,2
1671461495213521027,294420,1671461495238475457,gps,2,1,42.3002297913,-83.6985960287,270.820526123,0.000121,0.0,0.0,0.0,0.000169,0.0,0.0,0.0,0.002809,2
1671461495223523689,294421,1671461495248383067,gps,2,1,42.3002297896,-83.6985960282,270.820617676,0.000121,0.0,0.0,0.0,0.000169,0.0,0.0,0.0,0.002809,2
1671461495233524950,294422,1671461495258446128,gps,2,1,42.3002297904,-83.6985960283,270.820617676,0.000121,0.0,0.0,0.0,0.000169,0.0,0.0,0.0,0.002809,2
1671461495243649243,294423,1671461495268423891,gps,2,1,42.3002297912,-83.6985960287,270.820617676,0.000121,0.0,0.0,0.0,0.000169,0.0,0.0,0.0,0.002809,2
1671461495253087916,294424,1671461495278410173,gps,2,1,42.3002297896,-83.6985960281,270.820678711,8.1e-05,0.0,0.0,0.0,0.0001,0.0,0.0,0.0,0.002704,2
1671461495263425290,294425,1671461495288418519,gps,2,1,42.3002297904,-83.6985960285,270.820678711,8.1e-05,0.0,0.0,0.0,0.0001,0.0,0.0,0.0,0.002704,2
1671461495273510236,294426,1671461495298472601,gps,2,1,42.3002297912,-83.698596029,270.820678711,8.1e-05,0.0,0.0,0.0,0.0001,0.0,0.0,0.0,0.002704,2
1671461495283328413,294427,1671461495308398122,gps,2,1,42.3002297896,-83.6985960284,270.820770264,8.1e-05,0.0,0.0,0.0,0.0001,0.0,0.0,0.0,0.002704,2
1671461495293290877,294428,1671461495318377182,gps,2,1,42.3002297904,-83.6985960291,270.820770264,8.1e-05,0.0,0.0,0.0,0.0001,0.0,0.0,0.0,0.002704,2
1671461495303327194,294429,1671461495328508966,gps,2,1,42.3002297911,-83.6985960292,270.820739746,8.1e-05,0.0,0.0,0.0,0.0001,0.0,0.0,0.0,0.002704,2
1671461495313310180,294430,1671461495338503513,gps,2,1,42.3002297897,-83.6985960288,270.820831299,8.1e-05,0.0,0.0,0.0,0.0001,0.0,0.0,0.0,0.002704,2
1671461495323365018,294431,1671461495348386509,gps,2,1,42.3002297904,-83.6985960291,270.820831299,8.1e-05,0.0,0.0,0.0,0.0001,0.0,0.0,0.0,0.002704,2
1671461495333131043,294432,1671461495358448922,gps,2,1,42.3002297912,-83.6985960294,270.820800781,8.1e-05,0.0,0.0,0.0,0.0001,0.0,0.0,0.0,0.002704,2
1671461495343200555,294433,1671461495368394821,gps,2,1,42.3002297898,-83.698596029,270.820892334,8.1e-05,0.0,0.0,0.0,0.0001,0.0,0.0,0.0,0.002704,2
1671461495353665675,294434,1671461495378548639,gps,2,1,42.3002297905,-83.6985960292,270.820892334,8.1e-05,0.0,0.0,0.0,0.0001,0.0,0.0,0.0,0.002704,2
1671461495363435106,294435,1671461495388402733,gps,2,1,42.3002297913,-83.6985960298,270.820861816,8.1e-05,0.0,0.0,0.0,0.0001,0.0,0.0,0.0,0.002704,2
1671461495373536880,294436,1671461495398396430,gps,2,1,42.30022979,-83.6985960293,270.820953369,8.1e-05,0.0,0.0,0.0,0.0001,0.0,0.0,0.0,0.002704,2
1671461495383552218,294437,1671461495408394991,gps,2,1,42.3002297906,-83.6985960299,270.820953369,8.1e-05,0.0,0.0,0.0,0.0001,0.0,0.0,0.0,0.002704,2
1671461495393368252,294438,1671461495418487443,gps,2,1,42.3002297914,-83.6985960302,270.820922852,8.1e-05,0.0,0.0,0.0,0.0001,0.0,0.0,0.0,0.002704,2
1671461495403481840,294439,1671461495428419944,gps,2,1,42.3002297902,-83.6985960297,270.821014404,8.1e-05,0.0,0.0,0.0,0.0001,0.0,0.0,0.0,0.002704,2
1671461495413220991,294440,1671461495438416193,gps,2,1,42.3002297909,-83.6985960301,270.821014404,8.1e-05,0.0,0.0,0.0,0.0001,0.0,0.0,0.0,0.002704,2
1671461495423397149,294441,1671461495448455617,gps,2,1,42.3002297916,-83.6985960302,270.820983887,8.1e-05,0.0,0.0,0.0,0.0001,0.0,0.0,0.0,0.002704,2
1671461495433319057,294442,1671461495458409907,gps,2,1,42.3002297904,-83.6985960298,270.821044922,8.1e-05,0.0,0.0,0.0,0.0001,0.0,0.0,0.0,0.002704,2
1671461495443262330,294443,1671461495468397901,gps,2,1,42.3002297912,-83.69859603,270.821044922,8.1e-05,0.0,0.0,0.0,0.0001,0.0,0.0,0.0,0.002704,2
1671461495453308999,294444,1671461495478446705,gps,2,1,42.3002297919,-83.6985960305,270.821044922,8.1e-05,0.0,0.0,0.0,0.0001,0.0,0.0,0.0,0.002704,2
1671461495463170509,294445,1671461495488381703,gps,2,1,42.3002297908,-83.6985960299,270.821105957,8.1e-05,0.0,0.0,0.0,0.0001,0.0,0.0,0.0,0.002704,2
1671461495473164684,294446,1671461495498410157,gps,2,1,42.3002297915,-83.6985960303,270.821105957,8.1e-05,0.0,0.0,0.0,0.0001,0.0,0.0,0.0,0.002704,2
1671461495483338760,294447,1671461495508466714,gps,2,1,42.3002297923,-83.6985960309,270.821105957,8.1e-05,0.0,0.0,0.0,0.0001,0.0,0.0,0.0,0.002704,2
1671461495493265666,294448,1671461495518466304,gps,2,1,42.3002297912,-83.6985960304,270.821166992,8.1e-05,0.0,0.0,0.0,0.0001,0.0,0.0,0.0,0.002704,2
1671461495503790614,294449,1671461495528541123,gps,2,1,42.3002297919,-83.6985960309,270.821166992,8.1e-05,0.0,0.0,0.0,0.0001,0.0,0.0,0.0,0.002704,2
1671461495513491909,294450,1671461495538540609,gps,2,1,42.3002297926,-83.6985960309,270.821136475,8.1e-05,0.0,0.0,0.0,0.0001,0.0,0.0,0.0,0.002704,2
1671461495523700469,294451,1671461495548459580,gps,2,1,42.3002297916,-83.6985960305,270.82119751,8.1e-05,0.0,0.0,0.0,0.0001,0.0,0.0,0.0,0.002704,2
1671461495533665520,294452,1671461495558455169,gps,2,1,42.3002297923,-83.6985960307,270.82119751,8.1e-05,0.0,0.0,0.0,0.0001,0.0,0.0,0.0,0.002704,2
1671461495543648754,294453,1671461495568519820,gps,2,1,42.300229793,-83.698596031,270.82119751,8.1e-05,0.0,0.0,0.0,0.0001,0.0,0.0,0.0,0.002704,2
1671461495553306685,294454,1671461495578414252,gps,2,1,42.300229791,-83.6985960297,270.82119751,8.1e-05,0.0,0.0,0.0,0.0001,0.0,0.0,0.0,0.002704,2
1671461495563506949,294455,1671461495588596106,gps,2,1,42.3002297917,-83.69859603,270.82119751,8.1e-05,0.0,0.0,0.0,0.0001,0.0,0.0,0.0,0.002704,2
1671461495573557736,294456,1671461495598532552,gps,2,1,42.3002297924,-83.6985960305,270.82119751,8.1e-05,0.0,0.0,0.0,0.0001,0.0,0.0,0.0,0.002704,2
1671461495583454127,294457,1671461495608409689,gps,2,1,42.3002297904,-83.6985960292,270.821228027,8.1e-05,0.0,0.0,0.0,0.0001,0.0,0.0,0.0,0.002704,2
1671461495593453116,294458,1671461495618388151,gps,2,1,42.3002297912,-83.6985960297,270.821228027,8.1e-05,0.0,0.0,0.0,0.0001,0.0,0.0,0.0,0.002704,2
1671461495603266724,294459,1671461495628465698,gps,2,1,42.3002297918,-83.69859603,270.82119751,8.1e-05,0.0,0.0,0.0,0.0001,0.0,0.0,0.0,0.002704,2
1671461495613272068,294460,1671461495638403656,gps,2,1,42.3002297899,-83.6985960288,270.821228027,8.1e-05,0.0,0.0,0.0,0.0001,0.0,0.0,0.0,0.002704,2
1671461495623326048,294461,1671461495648387021,gps,2,1,42.3002297906,-83.6985960291,270.821228027,8.1e-05,0.0,0.0,0.0,0.0001,0.0,0.0,0.0,0.002704,2
1671461495633280779,294462,1671461495658532986,gps,2,1,42.3002297913,-83.6985960293,270.821228027,8.1e-05,0.0,0.0,0.0,0.0001,0.0,0.0,0.0,0.002704,2
1671461495643607876,294463,1671461495668428857,gps,2,1,42.3002297895,-83.6985960282,270.821228027,8.1e-05,0.0,0.0,0.0,0.0001,0.0,0.0,0.0,0.002704,2
1671461495653171364,294464,1671461495678397676,gps,2,1,42.3002297902,-83.6985960283,270.821228027,8.1e-05,0.0,0.0,0.0,0.0001,0.0,0.0,0.0,0.002704,2
1671461495663268289,294465,1671461495688456447,gps,2,1,42.3002297909,-83.6985960288,270.821228027,8.1e-05,0.0,0.0,0.0,0.0001,0.0,0.0,0.0,0.002704,2
1671461495673489553,294466,1671461495698402955,gps,2,1,42.3002297891,-83.6985960277,270.821228027,8.1e-05,0.0,0.0,0.0,0.0001,0.0,0.0,0.0,0.002704,2
1671461495683610454,294467,1671461495708400854,gps,2,1,42.30022979,-83.6985960281,270.821228027,8.1e-05,0.0,0.0,0.0,0.0001,0.0,0.0,0.0,0.002704,2
1671461495693518815,294468,1671461495718455272,gps,2,1,42.3002297906,-83.6985960286,270.821228027,8.1e-05,0.0,0.0,0.0,0.0001,0.0,0.0,0.0,0.002704,2
1671461495703592244,294469,1671461495728406546,gps,2,1,42.300229789,-83.6985960275,270.821228027,8.1e-05,0.0,0.0,0.0,0.0001,0.0,0.0,0.0,0.002704,2
1671461495713480348,294470,1671461495738413079,gps,2,1,42.3002297898,-83.6985960281,270.821228027,8.1e-05,0.0,0.0,0.0,0.0001,0.0,0.0,0.0,0.002704,2
1671461495723496531,294471,1671461495748445588,gps,2,1,42.3002297906,-83.6985960283,270.821228027,8.1e-05,0.0,0.0,0.0,0.0001,0.0,0.0,0.0,0.002704,2
1671461495733424609,294472,1671461495758385814,gps,2,1,42.300229789,-83.6985960274,270.821228027,8.1e-05,0.0,0.0,0.0,0.0001,0.0,0.0,0.0,0.002704,2
1671461495743249986,294473,1671461495768443724,gps,2,1,42.3002297898,-83.6985960275,270.821228027,8.1e-05,0.0,0.0,0.0,0.0001,0.0,0.0,0.0,0.002704,2
1671461495753984288,294474,1671461495778452795,gps,2,1,42.3002297905,-83.698596028,270.821228027,8.1e-05,0.0,0.0,0.0,0.0001,0.0,0.0,0.0,0.002704,2
1671461495763519598,294475,1671461495788420319,gps,2,1,42.300229789,-83.698596027,270.821228027,8.1e-05,0.0,0.0,0.0,0.0001,0.0,0.0,0.0,0.002704,2
1671461495773496273,294476,1671461495798463340,gps,2,1,42.3002297897,-83.6985960273,270.821228027,8.1e-05,0.0,0.0,0.0,0.0001,0.0,0.0,0.0,0.002704,2
1671461495783336380,294477,1671461495808404567,gps,2,1,42.3002297905,-83.6985960279,270.821228027,8.1e-05,0.0,0.0,0.0,0.0001,0.0,0.0,0.0,0.002704,2
1671461495793514282,294478,1671461495818392982,gps,2,1,42.300229789,-83.6985960269,270.821228027,8.1e-05,0.0,0.0,0.0,0.0001,0.0,0.0,0.0,0.002704,2
1671461495803912186,294479,1671461495828419330,gps,2,1,42.3002297897,-83.6985960273,270.821258545,8.1e-05,0.0,0.0,0.0,0.0001,0.0,0.0,0.0,0.002704,2
1671461495813996851,294480,1671461495838563580,gps,2,1,42.3002297904,-83.6985960276,270.821228027,8.1e-05,0.0,0.0,0.0,0.0001,0.0,0.0,0.0,0.002704,2
1671461495823685367,294481,1671461495848403574,gps,2,1,42.300229789,-83.6985960267,270.821228027,8.1e-05,0.0,0.0,0.0,0.0001,0.0,0.0,0.0,0.002704,2
1671461495833668304,294482,1671461495858423292,gps,2,1,42.3002297897,-83.698596027,270.821228027,8.1e-05,0.0,0.0,0.0,0.0001,0.0,0.0,0.0,0.002704,2
1671461495843675013,294483,1671461495868455885,gps,2,1,42.3002297904,-83.698596027,270.821228027,8.1e-05,0.0,0.0,0.0,0.0001,0.0,0.0,0.0,0.002704,2
1671461495853656562,294484,1671461495878422915,gps,2,1,42.300229789,-83.6985960262,270.821228027,8.1e-05,0.0,0.0,0.0,0.0001,0.0,0.0,0.0,0.002704,2
1671461495863524963,294485,1671461495888486732,gps,2,1,42.3002297897,-83.6985960262,270.82119751,8.1e-05,0.0,0.0,0.0,0.0001,0.0,0.0,0.0,0.002704,2
1671461495873719580,294486,1671461495898411192,gps,2,1,42.3002297904,-83.6985960267,270.82119751,8.1e-05,0.0,0.0,0.0,0.0001,0.0,0.0,0.0,0.002704,2
1671461495883539025,294487,1671461495908386745,gps,2,1,42.3002297889,-83.698596026,270.821228027,8.1e-05,0.0,0.0,0.0,0.0001,0.0,0.0,0.0,0.002704,2
1671461495893406590,294488,1671461495918449040,gps,2,1,42.3002297896,-83.6985960263,270.821228027,8.1e-05,0.0,0.0,0.0,0.0001,0.0,0.0,0.0,0.002704,2
1671461495903196576,294489,1671461495928417761,gps,2,1,42.3002297903,-83.6985960267,270.821228027,8.1e-05,0.0,0.0,0.0,0.0001,0.0,0.0,0.0,0.002704,2
1671461495913509223,294490,1671461495938399706,gps,2,1,42.3002297888,-83.698596026,270.821228027,8.1e-05,0.0,0.0,0.0,0.0001,0.0,0.0,0.0,0.002704,2
1671461495923336153,294491,1671461495948483410,gps,2,1,42.3002297895,-83.6985960264,270.821228027,8.1e-05,0.0,0.0,0.0,0.0001,0.0,0.0,0.0,0.002704,2
1671461495933602137,294492,1671461495958419457,gps,2,1,42.3002297902,-83.6985960264,270.821228027,8.1e-05,0.0,0.0,0.0,0.0001,0.0,0.0,0.0,0.002704,2
1671461495943231049,294493,1671461495968408596,gps,2,1,42.3002297888,-83.6985960259,270.821228027,8.1e-05,0.0,0.0,0.0,0.0001,0.0,0.0,0.0,0.002704,2
1671461495953857258,294494,1671461495978460619,gps,2,1,42.3002297895,-83.6985960259,270.821228027,8.1e-05,0.0,0.0,0.0,0.0001,0.0,0.0,0.0,0.002704,2
1671461495963534532,294495,1671461495988405912,gps,2,1,42.3002297902,-83.6985960262,270.821228027,8.1e-05,0.0,0.0,0.0,0.0001,0.0,0.0,0.0,0.002704,2
1671461495973481745,294496,1671461495998427337,gps,2,1,42.3002297889,-83.6985960256,270.821258545,8.1e-05,0.0,0.0,0.0,0.0001,0.0,0.0,0.0,0.002704,2
1671461495983731059,294497,1671461496008468930,gps,2,1,42.3002297897,-83.6985960259,270.821228027,8.1e-05,0.0,0.0,0.0,0.0001,0.0,0.0,0.0,0.002704,2
1671461495993343342,294498,1671461496018486452,gps,2,1,42.3002297904,-83.6985960262,270.821258545,8.1e-05,0.0,0.0,0.0,0.0001,0.0,0.0,0.0,0.002704,2
1671461496003563300,294499,1671461496028431373,gps,2,1,42.3002297891,-83.6985960256,270.821258545,8.1e-05,0.0,0.0,0.0,0.0001,0.0,0.0,0.0,0.002704,2
1671461496013504353,294500,1671461496038523179,gps,2,1,42.3002297899,-83.6985960261,270.821258545,8.1e-05,0.0,0.0,0.0,0.0001,0.0,0.0,0.0,0.002704,2
1671461496023383888,294501,1671461496048525471,gps,2,1,42.3002297907,-83.6985960263,270.821258545,8.1e-05,0.0,0.0,0.0,0.0001,0.0,0.0,0.0,0.002704,2
1671461496033501981,294502,1671461496058410896,gps,2,1,42.3002297877,-83.6985960271,270.821166992,8.1e-05,0.0,0.0,0.0,0.0001,0.0,0.0,0.0,0.002704,2
1671461496043349540,294503,1671461496068454445,gps,2,1,42.3002297884,-83.6985960274,270.821166992,8.1e-05,0.0,0.0,0.0,0.0001,0.0,0.0,0.0,0.002704,2
1671461496053708338,294504,1671461496078545048,gps,2,1,42.3002297892,-83.6985960276,270.821166992,8.1e-05,0.0,0.0,0.0,0.0001,0.0,0.0,0.0,0.002704,2
1671461496063594512,294505,1671461496088520210,gps,2,1,42.3002297863,-83.6985960285,270.821105957,8.1e-05,0.0,0.0,0.0,0.0001,0.0,0.0,0.0,0.002704,2
1671461496073445293,294506,1671461496098512058,gps,2,1,42.300229787,-83.6985960287,270.821075439,8.1e-05,0.0,0.0,0.0,0.0001,0.0,0.0,0.0,0.002704,2
1671461496083525031,294507,1671461496108549444,gps,2,1,42.3002297877,-83.6985960293,270.821075439,8.1e-05,0.0,0.0,0.0,0.0001,0.0,0.0,0.0,0.002704,2
1671461496093423902,294508,1671461496118435950,gps,2,1,42.3002297849,-83.6985960301,270.821014404,8.1e-05,0.0,0.0,0.0,0.0001,0.0,0.0,0.0,0.002704,2
1671461496103626757,294509,1671461496128479255,gps,2,1,42.3002297856,-83.6985960307,270.821014404,8.1e-05,0.0,0.0,0.0,0.0001,0.0,0.0,0.0,0.002704,2
1671461496113554032,294510,1671461496138421123,gps,2,1,42.3002297863,-83.6985960309,270.821014404,8.1e-05,0.0,0.0,0.0,0.0001,0.0,0.0,0.0,0.002704,2
1671461496123772861,294511,1671461496148411261,gps,2,1,42.3002297836,-83.6985960317,270.820953369,8.1e-05,0.0,0.0,0.0,0.0001,0.0,0.0,0.0,0.002704,2
1671461496133551642,294512,1671461496158426527,gps,2,1,42.3002297841,-83.6985960322,270.820953369,8.1e-05,0.0,0.0,0.0,0.0001,0.0,0.0,0.0,0.002704,2
1671461496143458984,294513,1671461496168509824,gps,2,1,42.3002297849,-83.6985960323,270.820922852,8.1e-05,0.0,0.0,0.0,0.0001,0.0,0.0,0.0,0.002704,2
1671461496153481902,294514,1671461496178433014,gps,2,1,42.3002297823,-83.6985960332,270.820892334,8.1e-05,0.0,0.0,0.0,0.0001,0.0,0.0,0.0,0.002704,2
1671461496163483730,294515,1671461496188411379,gps,2,1,42.3002297829,-83.6985960333,270.820861816,8.1e-05,0.0,0.0,0.0,0.0001,0.0,0.0,0.0,0.002704,2
1671461496173602659,294516,1671461496198461067,gps,2,1,42.3002297836,-83.6985960338,270.820861816,8.1e-05,0.0,0.0,0.0,0.0001,0.0,0.0,0.0,0.002704,2
1671461496183467331,294517,1671461496208400539,gps,2,1,42.3002297811,-83.6985960345,270.820800781,8.1e-05,0.0,0.0,0.0,0.0001,0.0,0.0,0.0,0.002704,2
1671461496193600365,294518,1671461496218469357,gps,2,1,42.3002297817,-83.6985960348,270.820800781,8.1e-05,0.0,0.0,0.0,0.0001,0.0,0.0,0.0,0.002704,2
1671461496203375199,294519,1671461496228424311,gps,2,1,42.3002297824,-83.6985960352,270.820800781,8.1e-05,0.0,0.0,0.0,0.0001,0.0,0.0,0.0,0.002704,2
1671461496213520193,294520,1671461496238417428,gps,2,1,42.3002297799,-83.6985960358,270.820739746,8.1e-05,0.0,0.0,0.0,0.0001,0.0,0.0,0.0,0.002704,2
1671461496223353742,294521,1671461496248427930,gps,2,1,42.3002297805,-83.6985960362,270.820739746,8.1e-05,0.0,0.0,0.0,0.0001,0.0,0.0,0.0,0.002704,2
1671461496233847975,294522,1671461496258469592,gps,2,1,42.3002297812,-83.6985960362,270.820739746,8.1e-05,0.0,0.0,0.0,0.0001,0.0,0.0,0.0,0.002704,2
1671461496244013513,294523,1671461496268495327,gps,2,1,42.3002297788,-83.6985960369,270.820678711,8.1e-05,0.0,0.0,0.0,0.0001,0.0,0.0,0.0,0.002704,2
1671461496253792188,294524,1671461496278416088,gps,2,1,42.3002297795,-83.6985960369,270.820678711,0.000121,0.0,0.0,0.0,0.000169,0.0,0.0,0.0,0.002809,2
1671461496263502932,294525,1671461496288488075,gps,2,1,42.3002297801,-83.6985960371,270.820678711,0.000121,0.0,0.0,0.0,0.000169,0.0,0.0,0.0,0.002809,2
1671461496273857431,294526,1671461496298419723,gps,2,1,42.3002297778,-83.6985960376,270.820617676,0.000121,0.0,0.0,0.0,0.000169,0.0,0.0,0.0,0.002809,2
1671461496283481743,294527,1671461496308530148,gps,2,1,42.3002297785,-83.6985960379,270.820617676,0.000121,0.0,0.0,0.0,0.000169,0.0,0.0,0.0,0.002809,2
1671461496293373373,294528,1671461496318445189,gps,2,1,42.3002297792,-83.6985960382,270.820587158,0.000121,0.0,0.0,0.0,0.000169,0.0,0.0,0.0,0.002809,2
1671461496303464836,294529,1671461496328434239,gps,2,1,42.3002297771,-83.6985960388,270.820556641,0.000121,0.0,0.0,0.0,0.000169,0.0,0.0,0.0,0.002809,2
1671461496313464387,294530,1671461496338585935,gps,2,1,42.3002297777,-83.6985960393,270.820556641,0.000121,0.0,0.0,0.0,0.000169,0.0,0.0,0.0,0.002809,2
1671461496323541154,294531,1671461496348437785,gps,2,1,42.3002297784,-83.6985960394,270.820526123,0.000121,0.0,0.0,0.0,0.000169,0.0,0.0,0.0,0.002809,2
1671461496333422849,294532,1671461496358418224,gps,2,1,42.3002297763,-83.6985960401,270.820495605,0.000121,0.0,0.0,0.0,0.000169,0.0,0.0,0.0,0.002809,2
1671461496343558673,294533,1671461496368416973,gps,2,1,42.300229777,-83.6985960405,270.820495605,0.000121,0.0,0.0,0.0,0.000169,0.0,0.0,0.0,0.002809,2
1671461496353302527,294534,1671461496378490136,gps,2,1,42.3002297776,-83.6985960407,270.820465088,0.000121,0.0,0.0,0.0,0.000169,0.0,0.0,0.0,0.002809,2
1671461496363213999,294535,1671461496388440104,gps,2,1,42.3002297757,-83.6985960415,270.82043457,0.000121,0.0,0.0,0.0,0.000169,0.0,0.0,0.0,0.002809,2
1671461496373591887,294536,1671461496398509525,gps,2,1,42.3002297763,-83.6985960419,270.82043457,0.000121,0.0,0.0,0.0,0.000169,0.0,0.0,0.0,0.002809,2
1671461496383810183,294537,1671461496408444098,gps,2,1,42.300229777,-83.6985960425,270.82043457,0.000121,0.0,0.0,0.0,0.000169,0.0,0.0,0.0,0.002809,2
1671461496393979802,294538,1671461496418496065,gps,2,1,42.3002297751,-83.6985960428,270.820373535,0.000121,0.0,0.0,0.0,0.000169,0.0,0.0,0.0,0.002809,2
1671461496403752101,294539,1671461496428498553,gps,2,1,42.3002297757,-83.6985960434,270.820373535,0.000121,0.0,0.0,0.0,0.000169,0.0,0.0,0.0,0.002809,2
1671461496413742746,294540,1671461496438421725,gps,2,1,42.3002297763,-83.6985960439,270.820373535,0.000121,0.0,0.0,0.0,0.000169,0.0,0.0,0.0,0.002809,2
1671461496423839866,294541,1671461496448424266,gps,2,1,42.3002297745,-83.6985960442,270.820343018,0.000121,0.0,0.0,0.0,0.000169,0.0,0.0,0.0,0.002809,2
1671461496433551007,294542,1671461496458463820,gps,2,1,42.3002297751,-83.6985960447,270.820343018,0.000121,0.0,0.0,0.0,0.000169,0.0,0.0,0.0,0.002809,2
1671461496443416747,294543,1671461496468421315,gps,2,1,42.3002297756,-83.6985960451,270.820343018,0.000121,0.0,0.0,0.0,0.000169,0.0,0.0,0.0,0.002809,2
1671461496453480716,294544,1671461496478419194,gps,2,1,42.3002297739,-83.6985960454,270.8203125,0.000121,0.0,0.0,0.0,0.000169,0.0,0.0,0.0,0.002809,2
1671461496463594074,294545,1671461496488471343,gps,2,1,42.3002297744,-83.6985960456,270.820281982,0.000121,0.0,0.0,0.0,0.000169,0.0,0.0,0.0,0.002809,2
1671461496473438629,294546,1671461496498430120,gps,2,1,42.3002297751,-83.6985960463,270.820281982,0.000121,0.0,0.0,0.0,0.000169,0.0,0.0,0.0,0.002809,2
1671461496483378944,294547,1671461496508495365,gps,2,1,42.3002297733,-83.6985960465,270.820251465,0.000121,0.0,0.0,0.0,0.000169,0.0,0.0,0.0,0.002809,2
1671461496493604682,294548,1671461496518634493,gps,2,1,42.3002297739,-83.6985960469,270.820251465,0.000121,0.0,0.0,0.0,0.000169,0.0,0.0,0.0,0.002809,2
1671461496503805326,294549,1671461496528564188,gps,2,1,42.3002297745,-83.6985960474,270.820251465,0.000121,0.0,0.0,0.0,0.000169,0.0,0.0,0.0,0.002809,2
1671461496513557512,294550,1671461496538519529,gps,2,1,42.3002297718,-83.6985960463,270.820281982,0.000121,0.0,0.0,0.0,0.000169,0.0,0.0,0.0,0.002809,2
1671461496523929911,294551,1671461496548489261,gps,2,1,42.3002297724,-83.6985960467,270.820281982,0.000121,0.0,0.0,0.0,0.000169,0.0,0.0,0.0,0.002809,2
1671461496533461773,294552,1671461496558480311,gps,2,1,42.300229773,-83.6985960469,270.820281982,0.000121,0.0,0.0,0.0,0.000169,0.0,0.0,0.0,0.002809,2
1671461496543794585,294553,1671461496568502711,gps,2,1,42.3002297704,-83.6985960458,270.8203125,0.000121,0.0,0.0,0.0,0.000169,0.0,0.0,0.0,0.002809,2
1671461496553714781,294554,1671461496578548038,gps,2,1,42.300229771,-83.6985960459,270.8203125,0.000121,0.0,0.0,0.0,0.000169,0.0,0.0,0.0,0.002809,2
1671461496563594687,294555,1671461496588572812,gps,2,1,42.3002297715,-83.6985960463,270.820281982,0.000121,0.0,0.0,0.0,0.000169,0.0,0.0,0.0,0.002809,2
1671461496573446765,294556,1671461496598434068,gps,2,1,42.300229769,-83.6985960452,270.8203125,0.000121,0.0,0.0,0.0,0.000169,0.0,0.0,0.0,0.002809,2
1671461496583542899,294557,1671461496608407507,gps,2,1,42.3002297696,-83.6985960456,270.8203125,0.000121,0.0,0.0,0.0,0.000169,0.0,0.0,0.0,0.002809,2
1671461496593491805,294558,1671461496618463838,gps,2,1,42.3002297701,-83.698596046,270.8203125,0.000121,0.0,0.0,0.0,0.000169,0.0,0.0,0.0,0.002809,2
1671461496603276612,294559,1671461496628406149,gps,2,1,42.3002297677,-83.6985960449,270.820343018,0.000121,0.0,0.0,0.0,0.000169,0.0,0.0,0.0,0.002809,2
1671461496613555315,294560,1671461496638498947,gps,2,1,42.3002297683,-83.6985960455,270.820343018,0.000121,0.0,0.0,0.0,0.000169,0.0,0.0,0.0,0.002809,2
1671461496623451998,294561,1671461496648479368,gps,2,1,42.3002297688,-83.6985960457,270.820343018,0.000121,0.0,0.0,0.0,0.000169,0.0,0.0,0.0,0.002809,2
1671461496633324437,294562,1671461496658422287,gps,2,1,42.3002297665,-83.6985960448,270.820373535,0.000121,0.0,0.0,0.0,0.000169,0.0,0.0,0.0,0.002809,2
1671461496643417747,294563,1671461496668417950,gps,2,1,42.3002297671,-83.698596045,270.820343018,0.000121,0.0,0.0,0.0,0.000169,0.0,0.0,0.0,0.002809,2
1671461496653156652,294564,1671461496678475164,gps,2,1,42.3002297677,-83.6985960454,270.820343018,0.000121,0.0,0.0,0.0,0.000169,0.0,0.0,0.0,0.002809,2
1671461496663611599,294565,1671461496688418343,gps,2,1,42.3002297655,-83.6985960446,270.820373535,0.000121,0.0,0.0,0.0,0.000169,0.0,0.0,0.0,0.002809,2
1671461496673462448,294566,1671461496698430625,gps,2,1,42.3002297661,-83.6985960448,270.820373535,0.000121,0.0,0.0,0.0,0.000169,0.0,0.0,0.0,0.002809,2
1671461496683488840,294567,1671461496708477356,gps,2,1,42.3002297667,-83.6985960455,270.820373535,0.000121,0.0,0.0,0.0,0.000169,0.0,0.0,0.0,0.002809,2
1671461496693868274,294568,1671461496718424891,gps,2,1,42.3002297646,-83.6985960447,270.820404053,0.000121,0.0,0.0,0.0,0.000169,0.0,0.0,0.0,0.002809,2
1671461496703594995,294569,1671461496728419722,gps,2,1,42.3002297653,-83.6985960454,270.820404053,0.000121,0.0,0.0,0.0,0.000169,0.0,0.0,0.0,0.002809,2
1671461496713371933,294570,1671461496738498810,gps,2,1,42.3002297658,-83.6985960456,270.820404053,0.000121,0.0,0.0,0.0,0.000169,0.0,0.0,0.0,0.002809,2
1671461496723629727,294571,1671461496748420395,gps,2,1,42.3002297638,-83.6985960449,270.82043457,0.000121,0.0,0.0,0.0,0.000169,0.0,0.0,0.0,0.002809,2
1671461496733537867,294572,1671461496758408446,gps,2,1,42.3002297645,-83.6985960452,270.82043457,0.000121,0.0,0.0,0.0,0.000169,0.0,0.0,0.0,0.002809,2
1671461496743697582,294573,1671461496768592826,gps,2,1,42.3002297651,-83.6985960455,270.82043457,0.000121,0.0,0.0,0.0,0.000169,0.0,0.0,0.0,0.002809,2
1671461496753459129,294574,1671461496778427536,gps,2,1,42.3002297631,-83.6985960448,270.820465088,0.000121,0.0,0.0,0.0,0.000169,0.0,0.0,0.0,0.002809,2
1671461496763352700,294575,1671461496788464199,gps,2,1,42.3002297637,-83.6985960449,270.820465088,0.000121,0.0,0.0,0.0,0.000169,0.0,0.0,0.0,0.002809,2
1671461496773328564,294576,1671461496798522277,gps,2,1,42.3002297643,-83.6985960456,270.820465088,0.000121,0.0,0.0,0.0,0.000169,0.0,0.0,0.0,0.002809,2
1671461496783287596,294577,1671461496808431815,gps,2,1,42.3002297623,-83.6985960448,270.820465088,0.000121,0.0,0.0,0.0,0.000169,0.0,0.0,0.0,0.002809,2
1671461496793248150,294578,1671461496818434368,gps,2,1,42.3002297629,-83.6985960454,270.820465088,0.000121,0.0,0.0,0.0,0.000169,0.0,0.0,0.0,0.002809,2
1671461496803243781,294579,1671461496828480268,gps,2,1,42.3002297634,-83.6985960459,270.820465088,0.000121,0.0,0.0,0.0,0.000169,0.0,0.0,0.0,0.002809,2
1671461496813765873,294580,1671461496838542356,gps,2,1,42.3002297615,-83.6985960452,270.820495605,0.000121,0.0,0.0,0.0,0.000169,0.0,0.0,0.0,0.002809,2
1671461496823834773,294581,1671461496848426366,gps,2,1,42.300229762,-83.6985960457,270.820495605,0.000121,0.0,0.0,0.0,0.000169,0.0,0.0,0.0,0.002809,2
1671461496833750658,294582,1671461496858506380,gps,2,1,42.3002297626,-83.6985960459,270.820465088,0.000121,0.0,0.0,0.0,0.000169,0.0,0.0,0.0,0.002809,2
1671461496843874363,294583,1671461496868426236,gps,2,1,42.3002297607,-83.6985960453,270.820495605,0.000121,0.0,0.0,0.0,0.000169,0.0,0.0,0.0,0.002809,2
1671461496853663014,294584,1671461496878548538,gps,2,1,42.3002297612,-83.6985960454,270.820495605,0.000121,0.0,0.0,0.0,0.000169,0.0,0.0,0.0,0.002809,2
1671461496863290548,294585,1671461496888472839,gps,2,1,42.3002297617,-83.6985960457,270.820495605,0.000121,0.0,0.0,0.0,0.000169,0.0,0.0,0.0,0.002809,2
1671461496873483335,294586,1671461496898418896,gps,2,1,42.3002297599,-83.6985960451,270.820495605,0.000121,0.0,0.0,0.0,0.000169,0.0,0.0,0.0,0.002809,2
1671461496883357611,294587,1671461496908413157,gps,2,1,42.3002297604,-83.6985960454,270.820495605,0.000121,0.0,0.0,0.0,0.000169,0.0,0.0,0.0,0.002809,2
1671461496893457933,294588,1671461496918504738,gps,2,1,42.3002297609,-83.6985960459,270.820495605,0.000121,0.0,0.0,0.0,0.000169,0.0,0.0,0.0,0.002809,2
1671461496903328503,294589,1671461496928434264,gps,2,1,42.3002297592,-83.6985960453,270.820526123,0.000121,0.0,0.0,0.0,0.000169,0.0,0.0,0.0,0.002809,2
1671461496913409802,294590,1671461496938453792,gps,2,1,42.3002297597,-83.6985960459,270.820526123,0.000121,0.0,0.0,0.0,0.000169,0.0,0.0,0.0,0.002809,2
1671461496923414957,294591,1671461496948502075,gps,2,1,42.3002297602,-83.6985960461,270.820526123,0.000121,0.0,0.0,0.0,0.000169,0.0,0.0,0.0,0.002809,2
1671461496933286298,294592,1671461496958433263,gps,2,1,42.3002297586,-83.6985960457,270.820556641,0.000121,0.0,0.0,0.0,0.000169,0.0,0.0,0.0,0.002809,2
1671461496943761083,294593,1671461496968427145,gps,2,1,42.3002297592,-83.6985960459,270.820556641,0.000121,0.0,0.0,0.0,0.000169,0.0,0.0,0.0,0.002809,2
1671461496953730262,294594,1671461496978500797,gps,2,1,42.3002297597,-83.6985960463,270.820556641,0.000121,0.0,0.0,0.0,0.000169,0.0,0.0,0.0,0.002809,2
1671461496963682160,294595,1671461496988421713,gps,2,1,42.3002297581,-83.6985960459,270.820587158,0.000121,0.0,0.0,0.0,0.000169,0.0,0.0,0.0,0.002809,2
1671461496973831621,294596,1671461496998431399,gps,2,1,42.3002297588,-83.6985960461,270.820587158,0.000121,0.0,0.0,0.0,0.000169,0.0,0.0,0.0,0.002809,2
1671461496983608595,294597,1671461497008510896,gps,2,1,42.3002297594,-83.6985960468,270.820587158,0.000121,0.0,0.0,0.0,0.000169,0.0,0.0,0.0,0.002809,2
1671461496993765022,294598,1671461497018518907,gps,2,1,42.300229758,-83.6985960464,270.820617676,0.000121,0.0,0.0,0.0,0.000169,0.0,0.0,0.0,0.002809,2
1671461497003379491,294599,1671461497028477790,gps,2,1,42.3002297587,-83.698596047,270.820617676,0.000121,0.0,0.0,0.0,0.000169,0.0,0.0,0.0,0.002809,2
1671461497013307246,294600,1671461497038591104,gps,2,1,42.3002297594,-83.6985960473,270.820617676,0.000121,0.0,0.0,0.0,0.000169,0.0,0.0,0.0,0.002809,2
1671461497023235536,294601,1671461497048462542,gps,2,1,42.3002297582,-83.698596047,270.820617676,0.000121,0.0,0.0,0.0,0.000169,0.0,0.0,0.0,0.002809,2
1671461497033441942,294602,1671461497058550308,gps,2,1,42.300229759,-83.6985960473,270.820617676,0.000121,0.0,0.0,0.0,0.000169,0.0,0.0,0.0,0.002809,2
1671461497043577967,294603,1671461497068504056,gps,2,1,42.3002297597,-83.6985960476,270.820617676,0.000121,0.0,0.0,0.0,0.000169,0.0,0.0,0.0,0.002809,2
1671461497053474328,294604,1671461497078444148,gps,2,1,42.300229758,-83.6985960476,270.820770264,0.000121,0.0,0.0,0.0,0.000169,0.0,0.0,0.0,0.002809,2
1671461497063516884,294605,1671461497088570614,gps,2,1,42.3002297591,-83.6985960478,270.820739746,0.000121,0.0,0.0,0.0,0.000169,0.0,0.0,0.0,0.002809,2
1671461497073831428,294606,1671461497098561815,gps,2,1,42.3002297599,-83.6985960484,270.820739746,0.000121,0.0,0.0,0.0,0.000169,0.0,0.0,0.0,0.002809,2
1671461497083197737,294607,1671461497108439583,gps,2,1,42.3002297585,-83.6985960484,270.820892334,0.000121,0.0,0.0,0.0,0.000169,0.0,0.0,0.0,0.002809,2
1671461497093681785,294608,1671461497118485226,gps,2,1,42.3002297597,-83.698596049,270.820861816,0.000121,0.0,0.0,0.0,0.000169,0.0,0.0,0.0,0.002809,2
1671461497103829309,294609,1671461497128566998,gps,2,1,42.3002297609,-83.6985960494,270.820861816,0.000121,0.0,0.0,0.0,0.000169,0.0,0.0,0.0,0.002809,2
1671461497113311681,294610,1671461497138445854,gps,2,1,42.3002297597,-83.6985960495,270.820983887,0.000121,0.0,0.0,0.0,0.000169,0.0,0.0,0.0,0.002809,2
1671461497123481660,294611,1671461497148493493,gps,2,1,42.3002297611,-83.6985960501,270.820983887,0.000121,0.0,0.0,0.0,0.000169,0.0,0.0,0.0,0.002809,2
1671461497133672093,294612,1671461497158551310,gps,2,1,42.3002297624,-83.6985960502,270.820953369,0.000121,0.0,0.0,0.0,0.000169,0.0,0.0,0.0,0.002809,2
1671461497143432990,294613,1671461497168460680,gps,2,1,42.3002297615,-83.6985960504,270.821075439,0.000121,0.0,0.0,0.0,0.000169,0.0,0.0,0.0,0.002809,2
1671461497153633487,294614,1671461497178478838,gps,2,1,42.3002297632,-83.6985960506,270.821075439,0.000121,0.0,0.0,0.0,0.000169,0.0,0.0,0.0,0.002809,2
1671461497163865757,294615,1671461497188577809,gps,2,1,42.3002297645,-83.698596051,270.821075439,0.000121,0.0,0.0,0.0,0.000169,0.0,0.0,0.0,0.002809,2
1671461497173434705,294616,1671461497198440902,gps,2,1,42.3002297639,-83.6985960511,270.821166992,0.000121,0.0,0.0,0.0,0.000169,0.0,0.0,0.0,0.002809,2
1671461497183469909,294617,1671461497208491957,gps,2,1,42.3002297659,-83.6985960516,270.821166992,0.000121,0.0,0.0,0.0,0.000169,0.0,0.0,0.0,0.002809,2
1671461497193877236,294618,1671461497218596129,gps,2,1,42.3002297677,-83.6985960523,270.821166992,0.000121,0.0,0.0,0.0,0.000169,0.0,0.0,0.0,0.002809,2
1671461497203783719,294619,1671461497228474560,gps,2,1,42.3002297675,-83.6985960523,270.821258545,0.000121,0.0,0.0,0.0,0.000169,0.0,0.0,0.0,0.002809,2
1671461497213468437,294620,1671461497238460167,gps,2,1,42.3002297698,-83.6985960533,270.821258545,0.000121,0.0,0.0,0.0,0.000169,0.0,0.0,0.0,0.002809,2
1671461497223991805,294621,1671461497248531965,gps,2,1,42.3002297719,-83.6985960535,270.821258545,0.000121,0.0,0.0,0.0,0.000169,0.0,0.0,0.0,0.002809,2
1671461497233485886,294622,1671461497258430714,gps,2,1,42.3002297721,-83.6985960538,270.821350098,0.000121,0.0,0.0,0.0,0.000169,0.0,0.0,0.0,0.002809,2
1671461497243954998,294623,1671461497268551321,gps,2,1,42.3002297749,-83.6985960543,270.821350098,0.000121,0.0,0.0,0.0,0.000169,0.0,0.0,0.0,0.002809,2
1671461497253583352,294624,1671461497278498285,gps,2,1,42.3002297773,-83.6985960547,270.82131958,0.000121,0.0,0.0,0.0,0.000169,0.0,0.0,0.0,0.002809,2
1671461497263541907,294625,1671461497288487645,gps,2,1,42.300229778,-83.6985960551,270.821411133,0.000121,0.0,0.0,0.0,0.000169,0.0,0.0,0.0,0.002809,2
1671461497273809033,294626,1671461497298446353,gps,2,1,42.3002297812,-83.6985960555,270.821411133,0.000121,0.0,0.0,0.0,0.000169,0.0,0.0,0.0,0.002809,2
1671461497283440175,294627,1671461497308511320,gps,2,1,42.3002297841,-83.6985960564,270.821411133,0.000121,0.0,0.0,0.0,0.000169,0.0,0.0,0.0,0.002809,2
1671461497293341961,294628,1671461497318427941,gps,2,1,42.3002297854,-83.6985960566,270.821472168,0.000121,0.0,0.0,0.0,0.000169,0.0,0.0,0.0,0.002809,2
1671461497303529924,294629,1671461497328451873,gps,2,1,42.3002297891,-83.6985960576,270.821472168,0.000121,0.0,0.0,0.0,0.000169,0.0,0.0,0.0,0.002809,2
1671461497313521103,294630,1671461497338612719,gps,2,1,42.3002297924,-83.6985960582,270.821472168,0.000121,0.0,0.0,0.0,0.000169,0.0,0.0,0.0,0.002809,2
1671461497323218587,294631,1671461497348440304,gps,2,1,42.3002297942,-83.6985960586,270.821533203,0.000121,0.0,0.0,0.0,0.000169,0.0,0.0,0.0,0.002809,2
1671461497333232030,294632,1671461497358455081,gps,2,1,42.3002297984,-83.6985960595,270.821533203,0.000121,0.0,0.0,0.0,0.000169,0.0,0.0,0.0,0.002809,2
1671461497343804590,294633,1671461497368501238,gps,2,1,42.3002298022,-83.6985960598,270.821502686,0.000121,0.0,0.0,0.0,0.000169,0.0,0.0,0.0,0.002809,2
1671461497353644408,294634,1671461497378544325,gps,2,1,42.3002298046,-83.6985960603,270.821594238,0.000121,0.0,0.0,0.0,0.000169,0.0,0.0,0.0,0.002809,2
1671461497363414586,294635,1671461497388456313,gps,2,1,42.3002298092,-83.6985960608,270.821563721,0.000121,0.0,0.0,0.0,0.000169,0.0,0.0,0.0,0.002809,2
1671461497373939855,294636,1671461497398534769,gps,2,1,42.3002298136,-83.6985960616,270.821533203,0.000121,0.0,0.0,0.0,0.000169,0.0,0.0,0.0,0.002809,2
1671461497383403574,294637,1671461497408444968,gps,2,1,42.3002298165,-83.698596062,270.821624756,0.000121,0.0,0.0,0.0,0.000169,0.0,0.0,0.0,0.002809,2
1671461497393703387,294638,1671461497418435532,gps,2,1,42.3002298218,-83.6985960628,270.821624756,0.000121,0.0,0.0,0.0,0.000169,0.0,0.0,0.0,0.002809,2
1671461497403527850,294639,1671461497428508874,gps,2,1,42.3002298265,-83.6985960639,270.821594238,0.000121,0.0,0.0,0.0,0.000169,0.0,0.0,0.0,0.002809,2
1671461497413593706,294640,1671461497438449299,gps,2,1,42.30022983,-83.6985960642,270.821685791,0.000121,0.0,0.0,0.0,0.000169,0.0,0.0,0.0,0.002809,2
1671461497423665002,294641,1671461497448425927,gps,2,1,42.3002298359,-83.6985960654,270.821685791,0.000121,0.0,0.0,0.0,0.000169,0.0,0.0,0.0,0.002809,2
1671461497433598288,294642,1671461497458514483,gps,2,1,42.3002298412,-83.6985960659,270.821655273,0.000121,0.0,0.0,0.0,0.000169,0.0,0.0,0.0,0.002809,2
1671461497443472708,294643,1671461497468432521,gps,2,1,42.3002298454,-83.6985960665,270.821746826,0.000121,0.0,0.0,0.0,0.000169,0.0,0.0,0.0,0.002809,2
1671461497453498406,294644,1671461497478494330,gps,2,1,42.3002298519,-83.6985960673,270.821716309,0.000121,0.0,0.0,0.0,0.000169,0.0,0.0,0.0,0.002809,2
1671461497463710091,294645,1671461497488440482,gps,2,1,42.3002298579,-83.6985960679,270.821716309,0.000121,0.0,0.0,0.0,0.000169,0.0,0.0,0.0,0.002809,2
1671461497473598620,294646,1671461497498451170,gps,2,1,42.3002298629,-83.6985960685,270.821777344,0.000121,0.0,0.0,0.0,0.000169,0.0,0.0,0.0,0.002809,2
1671461497483320120,294647,1671461497508464608,gps,2,1,42.3002298702,-83.6985960693,270.821777344,0.000121,0.0,0.0,0.0,0.000169,0.0,0.0,0.0,0.002809,2
1671461497493813373,294648,1671461497518604773,gps,2,1,42.3002298768,-83.6985960705,270.821746826,0.000121,0.0,0.0,0.0,0.000169,0.0,0.0,0.0,0.002809,2
1671461497503747629,294649,1671461497528616439,gps,2,1,42.3002298826,-83.698596071,270.821838379,0.000121,0.0,0.0,0.0,0.000169,0.0,0.0,0.0,0.002809,2
1671461497513363701,294650,1671461497538486395,gps,2,1,42.3002298907,-83.6985960724,270.821838379,0.000121,0.0,0.0,0.0,0.000169,0.0,0.0,0.0,0.002809,2
1671461497523944763,294651,1671461497548553653,gps,2,1,42.3002298981,-83.6985960733,270.821807861,0.000121,0.0,0.0,0.0,0.000169,0.0,0.0,0.0,0.002809,2
1671461497533669754,294652,1671461497558563701,gps,2,1,42.3002299047,-83.698596074,270.821899414,0.000121,0.0,0.0,0.0,0.000169,0.0,0.0,0.0,0.002809,2
1671461497543972069,294653,1671461497568520955,gps,2,1,42.3002299137,-83.6985960751,270.821868896,0.000121,0.0,0.0,0.0,0.000169,0.0,0.0,0.0,0.002809,2
1671461497553512425,294654,1671461497578588185,gps,2,1,42.3002299218,-83.6985960759,270.821868896,0.000121,0.0,0.0,0.0,0.000169,0.0,0.0,0.0,0.002809,2
1671461497563750245,294655,1671461497588698527,gps,2,1,42.3002299278,-83.6985960759,270.822052002,0.000121,0.0,0.0,0.0,0.000169,0.0,0.0,0.0,0.002809,2
1671461497573749898,294656,1671461497598517558,gps,2,1,42.3002299375,-83.6985960768,270.822052002,0.000121,0.0,0.0,0.0,0.000169,0.0,0.0,0.0,0.002809,2
1671461497583566215,294657,1671461497608439659,gps,2,1,42.3002299466,-83.6985960782,270.822052002,0.000121,0.0,0.0,0.0,0.000169,0.0,0.0,0.0,0.002809,2
1671461497593706565,294658,1671461497618432351,gps,2,1,42.3002299535,-83.6985960781,270.82220459,0.000121,0.0,0.0,0.0,0.000169,0.0,0.0,0.0,0.002809,2
1671461497603334453,294659,1671461497628510242,gps,2,1,42.3002299642,-83.6985960797,270.822235107,0.000121,0.0,0.0,0.0,0.000169,0.0,0.0,0.0,0.002809,2
1671461497613443274,294660,1671461497638465188,gps,2,1,42.3002299741,-83.6985960809,270.82220459,0.000121,0.0,0.0,0.0,0.000169,0.0,0.0,0.0,0.002809,2
1671461497623807995,294661,1671461497648465371,gps,2,1,42.300229982,-83.6985960811,270.822387695,0.000121,0.0,0.0,0.0,0.000169,0.0,0.0,0.0,0.002809,2
1671461497633273047,294662,1671461497658537449,gps,2,1,42.3002299937,-83.6985960827,270.822387695,0.000121,0.0,0.0,0.0,0.000169,0.0,0.0,0.0,0.002809,2
1671461497643804479,294663,1671461497668470467,gps,2,1,42.3002300045,-83.6985960835,270.822387695,0.000121,0.0,0.0,0.0,0.000169,0.0,0.0,0.0,0.002809,2
1671461497653682910,294664,1671461497678467888,gps,2,1,42.3002300135,-83.698596084,270.822570801,0.000121,0.0,0.0,0.0,0.000169,0.0,0.0,0.0,0.002809,2
1671461497663463094,294665,1671461497688560929,gps,2,1,42.3002300261,-83.698596085,270.822570801,0.000121,0.0,0.0,0.0,0.000169,0.0,0.0,0.0,0.002809,2
1671461497673929561,294666,1671461497698468040,gps,2,1,42.3002300379,-83.6985960868,270.822570801,0.000121,0.0,0.0,0.0,0.000169,0.0,0.0,0.0,0.002809,2
1671461497683641400,294667,1671461497708464017,gps,2,1,42.3002300479,-83.6985960872,270.822753906,0.000121,0.0,0.0,0.0,0.000169,0.0,0.0,0.0,0.002809,2
1671461497693676148,294668,1671461497718519730,gps,2,1,42.3002300616,-83.6985960889,270.822784424,0.000121,0.0,0.0,0.0,0.000169,0.0,0.0,0.0,0.002809,2
1671461497703351582,294669,1671461497728473387,gps,2,1,42.3002300744,-83.6985960908,270.822784424,0.000121,0.0,0.0,0.0,0.000169,0.0,0.0,0.0,0.002809,2
1671461497713673307,294670,1671461497738467739,gps,2,1,42.3002300855,-83.6985960913,270.822967529,0.000121,0.0,0.0,0.0,0.000169,0.0,0.0,0.0,0.002809,2
1671461497723716979,294671,1671461497748512799,gps,2,1,42.3002301002,-83.6985960935,270.822998047,0.000121,0.0,0.0,0.0,0.000169,0.0,0.0,0.0,0.002809,2
1671461497733353473,294672,1671461497758448832,gps,2,1,42.300230114,-83.6985960945,270.822998047,0.000121,0.0,0.0,0.0,0.000169,0.0,0.0,0.0,0.002809,2
1671461497743469614,294673,1671461497768551831,gps,2,1,42.3002301263,-83.6985960955,270.823181152,0.000121,0.0,0.0,0.0,0.000169,0.0,0.0,0.0,0.002809,2
