%time,field.header.seq,field.header.stamp,field.header.frame_id,field.status.status,field.status.service,field.latitude,field.longitude,field.altitude,field.position_covariance0,field.position_covariance1,field.position_covariance2,field.position_covariance3,field.position_covariance4,field.position_covariance5,field.position_covariance6,field.position_covariance7,field.position_covariance8,field.position_covariance_type
1671461847783490477,329677,1671461847814764231,gps,2,1,42.3009697228,-83.6979117788,272.315460205,0.000121,0.0,0.0,0.0,0.000169,0.0,0.0,0.0,0.002401,2
1671461847793285278,329678,1671461847824743920,gps,2,1,42.3009697231,-83.6979117788,272.315460205,0.000121,0.0,0.0,0.0,0.000169,0.0,0.0,0.0,0.002401,2
1671461847803366298,329679,1671461847834806410,gps,2,1,42.3009697233,-83.6979117788,272.315490723,0.000121,0.0,0.0,0.0,0.000169,0.0,0.0,0.0,0.002401,2
1671461847813412827,329680,1671461847844751575,gps,2,1,42.3009697219,-83.6979117781,272.31552124,0.000121,0.0,0.0,0.0,0.000169,0.0,0.0,0.0,0.002401,2
1671461847823320422,329681,1671461847854730602,gps,2,1,42.3009697221,-83.697911778,272.315551758,0.000121,0.0,0.0,0.0,0.000169,0.0,0.0,0.0,0.002401,2
1671461847833363582,329682,1671461847864792821,gps,2,1,42.3009697223,-83.697911778,272.315582275,0.000121,0.0,0.0,0.0,0.000169,0.0,0.0,0.0,0.002401,2
1671461847843274393,329683,1671461847874725272,gps,2,1,42.3009697209,-83.6979117773,272.315612793,0.000121,0.0,0.0,0.0,0.000169,0.0,0.0,0.0,0.002401,2
1671461847853302819,329684,1671461847884735517,gps,2,1,42.3009697211,-83.6979117772,272.315643311,0.000121,0.0,0.0,0.0,0.000169,0.0,0.0,0.0,0.002401,2
1671461847863596219,329685,1671461847894811799,gps,2,1,42.3009697214,-83.6979117772,272.315643311,0.000121,0.0,0.0,0.0,0.000169,0.0,0.0,0.0,0.002401,2
1671461847873384618,329686,1671461847904714791,gps,2,1,42.3009697201,-83.6979117765,272.315673828,0.000121,0.0,0.0,0.0,0.000169,0.0,0.0,0.0,0.002401,2
1671461847883167640,329687,1671461847914740240,gps,2,1,42.3009697203,-83.6979117765,272.315704346,0.000121,0.0,0.0,0.0,0.000169,0.0,0.0,0.0,0.002401,2
1671461847893567276,329688,1671461847924823519,gps,2,1,42.3009697205,-83.6979117764,272.315734863,0.000121,0.0,0.0,0.0,0.000169,0.0,0.0,0.0,0.002401,2
1671461847903565625,329689,1671461847934749416,gps,2,1,42.3009697194,-83.6979117759,272.315734863,0.000121,0.0,0.0,0.0,0.000169,0.0,0.0,0.0,0.002401,2
1671461847913532637,329690,1671461847944750656,gps,2,1,42.3009697196,-83.6979117759,272.315765381,0.000121,0.0,0.0,0.0,0.000169,0.0,0.0,0.0,0.002401,2
1671461847923717841,329691,1671461847954797243,gps,2,1,42.3009697198,-83.6979117758,272.315795898,0.000121,0.0,0.0,0.0,0.000169,0.0,0.0,0.0,0.002401,2
1671461847933449397,329692,1671461847964743426,gps,2,1,42.3009697187,-83.6979117753,272.315826416,0.000121,0.0,0.0,0.0,0.000169,0.0,0.0,0.0,0.002401,2
1671461847943336842,329693,1671461847974799847,gps,2,1,42.3009697189,-83.6979117752,272.315856934,0.000121,0.0,0.0,0.0,0.000169,0.0,0.0,0.0,0.002401,2
1671461847953353674,329694,1671461847984743219,gps,2,1,42.3009697191,-83.6979117751,272.315887451,0.000121,0.0,0.0,0.0,0.000169,0.0,0.0,0.0,0.002401,2
1671461847963285808,329695,1671461847994735372,gps,2,1,42.300969718,-83.6979117747,272.315887451,0.000121,0.0,0.0,0.0,0.000169,0.0,0.0,0.0,0.002401,2
1671461847973203190,329696,1671461848004739399,gps,2,1,42.3009697182,-83.6979117746,272.315917969,0.000121,0.0,0.0,0.0,0.000169,0.0,0.0,0.0,0.002401,2
1671461847983354591,329697,1671461848014791517,gps,2,1,42.3009697184,-83.6979117745,272.315948486,0.000121,0.0,0.0,0.0,0.000169,0.0,0.0,0.0,0.002401,2
1671461847993252314,329698,1671461848024818202,gps,2,1,42.3009697174,-83.6979117741,272.315979004,0.000121,0.0,0.0,0.0,0.000169,0.0,0.0,0.0,0.002401,2
1671461848003161862,329699,1671461848034823973,gps,2,1,42.3009697176,-83.697911774,272.316009521,0.000121,0.0,0.0,0.0,0.000169,0.0,0.0,0.0,0.002401,2
1671461848013540946,329700,1671461848044879511,gps,2,1,42.3009697178,-83.697911774,272.316040039,0.000121,0.0,0.0,0.0,0.000169,0.0,0.0,0.0,0.002401,2
1671461848023668551,329701,1671461848054844979,gps,2,1,42.3009697168,-83.6979117735,272.316070557,0.000121,0.0,0.0,0.0,0.000169,0.0,0.0,0.0,0.002401,2
1671461848033605814,329702,1671461848064835068,gps,2,1,42.300969717,-83.6979117735,272.316070557,0.000121,0.0,0.0,0.0,0.000169,0.0,0.0,0.0,0.002401,2
1671461848043556121,329703,1671461848074795580,gps,2,1,42.3009697172,-83.6979117734,272.316101074,0.000121,0.0,0.0,0.0,0.000169,0.0,0.0,0.0,0.002401,2
1671461848053468880,329704,1671461848084776145,gps,2,1,42.3009697157,-83.6979117729,272.316223145,0.000121,0.0,0.0,0.0,0.000169,0.0,0.0,0.0,0.002401,2
1671461848063368476,329705,1671461848094803684,gps,2,1,42.3009697159,-83.6979117728,272.316223145,0.000121,0.0,0.0,0.0,0.000169,0.0,0.0,0.0,0.002401,2
1671461848073310768,329706,1671461848104824929,gps,2,1,42.3009697161,-83.6979117727,272.316253662,0.000121,0.0,0.0,0.0,0.000169,0.0,0.0,0.0,0.002401,2
1671461848083444104,329707,1671461848114868109,gps,2,1,42.3009697146,-83.6979117722,272.316375732,0.000121,0.0,0.0,0.0,0.000169,0.0,0.0,0.0,0.002401,2
1671461848093390811,329708,1671461848124827890,gps,2,1,42.3009697148,-83.6979117721,272.316375732,0.000121,0.0,0.0,0.0,0.000169,0.0,0.0,0.0,0.002401,2
1671461848103255472,329709,1671461848134757029,gps,2,1,42.300969715,-83.6979117721,272.31640625,0.000121,0.0,0.0,0.0,0.000169,0.0,0.0,0.0,0.002401,2
1671461848113311349,329710,1671461848144756298,gps,2,1,42.3009697136,-83.6979117715,272.316497803,0.000121,0.0,0.0,0.0,0.000169,0.0,0.0,0.0,0.002401,2
1671461848123263024,329711,1671461848154818823,gps,2,1,42.3009697138,-83.6979117715,272.31652832,0.000121,0.0,0.0,0.0,0.000169,0.0,0.0,0.0,0.002401,2
1671461848133306964,329712,1671461848164750948,gps,2,1,42.3009697139,-83.6979117714,272.316558838,0.000121,0.0,0.0,0.0,0.000169,0.0,0.0,0.0,0.002401,2
1671461848143222487,329713,1671461848174743142,gps,2,1,42.3009697126,-83.6979117709,272.316650391,0.000121,0.0,0.0,0.0,0.000169,0.0,0.0,0.0,0.002401,2
1671461848153127422,329714,1671461848184728175,gps,2,1,42.3009697128,-83.6979117709,272.316650391,0.000121,0.0,0.0,0.0,0.000169,0.0,0.0,0.0,0.002401,2
1671461848163394032,329715,1671461848194801591,gps,2,1,42.300969713,-83.6979117709,272.316680908,0.000121,0.0,0.0,0.0,0.000169,0.0,0.0,0.0,0.002401,2
1671461848173162445,329716,1671461848204738976,gps,2,1,42.3009697117,-83.6979117704,272.316772461,0.000121,0.0,0.0,0.0,0.000169,0.0,0.0,0.0,0.002401,2
1671461848183568789,329717,1671461848214803085,gps,2,1,42.3009697119,-83.6979117703,272.316802979,0.000121,0.0,0.0,0.0,0.000169,0.0,0.0,0.0,0.002401,2
1671461848193471458,329718,1671461848224741269,gps,2,1,42.3009697121,-83.6979117703,272.316802979,0.000121,0.0,0.0,0.0,0.000169,0.0,0.0,0.0,0.002401,2
1671461848203771121,329719,1671461848234746798,gps,2,1,42.3009697109,-83.6979117698,272.316894531,0.000121,0.0,0.0,0.0,0.000169,0.0,0.0,0.0,0.002401,2
1671461848213435791,329720,1671461848244819232,gps,2,1,42.300969711,-83.6979117698,272.316925049,0.000121,0.0,0.0,0.0,0.000169,0.0,0.0,0.0,0.002401,2
1671461848223206118,329721,1671461848254749329,gps,2,1,42.3009697112,-83.6979117698,272.316955566,0.000121,0.0,0.0,0.0,0.000169,0.0,0.0,0.0,0.002401,2
1671461848233365780,329722,1671461848264750205,gps,2,1,42.30096971,-83.6979117694,272.317047119,0.000121,0.0,0.0,0.0,0.000169,0.0,0.0,0.0,0.002401,2
1671461848243358596,329723,1671461848274838367,gps,2,1,42.3009697102,-83.6979117693,272.317077637,0.000121,0.0,0.0,0.0,0.000169,0.0,0.0,0.0,0.002401,2
1671461848253297136,329724,1671461848284788625,gps,2,1,42.3009697104,-83.6979117693,272.317077637,0.000121,0.0,0.0,0.0,0.000144,0.0,0.0,0.0,0.002401,2
1671461848263328241,329725,1671461848294759911,gps,2,1,42.3009697092,-83.6979117689,272.317169189,0.000121,0.0,0.0,0.0,0.000144,0.0,0.0,0.0,0.002401,2
1671461848273366263,329726,1671461848304729819,gps,2,1,42.3009697094,-83.6979117688,272.317199707,0.000121,0.0,0.0,0.0,0.000144,0.0,0.0,0.0,0.002401,2
1671461848283280034,329727,1671461848314788953,gps,2,1,42.3009697095,-83.6979117688,272.317230225,0.000121,0.0,0.0,0.0,0.000144,0.0,0.0,0.0,0.002401,2
1671461848293161077,329728,1671461848324725942,gps,2,1,42.3009697084,-83.6979117683,272.31729126,0.000121,0.0,0.0,0.0,0.000144,0.0,0.0,0.0,0.002401,2
1671461848303261074,329729,1671461848334818213,gps,2,1,42.3009697086,-83.6979117683,272.317321777,0.000121,0.0,0.0,0.0,0.000144,0.0,0.0,0.0,0.002401,2
1671461848313451058,329730,1671461848344769650,gps,2,1,42.3009697087,-83.6979117683,272.317352295,0.000121,0.0,0.0,0.0,0.000144,0.0,0.0,0.0,0.002401,2
1671461848323516328,329731,1671461848354750266,gps,2,1,42.3009697076,-83.6979117678,272.317443848,0.000121,0.0,0.0,0.0,0.000144,0.0,0.0,0.0,0.002401,2
1671461848333518092,329732,1671461848364754250,gps,2,1,42.3009697078,-83.6979117678,272.317443848,0.000121,0.0,0.0,0.0,0.000144,0.0,0.0,0.0,0.002401,2
1671461848343636580,329733,1671461848374812486,gps,2,1,42.300969708,-83.6979117678,272.317474365,0.000121,0.0,0.0,0.0,0.000144,0.0,0.0,0.0,0.002401,2
1671461848353504111,329734,1671461848384868060,gps,2,1,42.3009697069,-83.6979117674,272.317565918,0.000121,0.0,0.0,0.0,0.000144,0.0,0.0,0.0,0.002401,2
1671461848363432134,329735,1671461848394776716,gps,2,1,42.3009697071,-83.6979117673,272.317565918,0.000121,0.0,0.0,0.0,0.000144,0.0,0.0,0.0,0.002401,2
1671461848373414620,329736,1671461848404821077,gps,2,1,42.3009697072,-83.6979117672,272.317596436,0.000121,0.0,0.0,0.0,0.000144,0.0,0.0,0.0,0.002401,2
1671461848383302503,329737,1671461848414762233,gps,2,1,42.3009697062,-83.6979117669,272.317657471,0.000121,0.0,0.0,0.0,0.000144,0.0,0.0,0.0,0.002401,2
1671461848393434134,329738,1671461848424807246,gps,2,1,42.3009697063,-83.6979117668,272.317687988,0.000121,0.0,0.0,0.0,0.000144,0.0,0.0,0.0,0.002401,2
1671461848403313337,329739,1671461848434750807,gps,2,1,42.3009697065,-83.6979117668,272.317718506,0.000121,0.0,0.0,0.0,0.000144,0.0,0.0,0.0,0.002401,2
1671461848413349830,329740,1671461848444723646,gps,2,1,42.3009697055,-83.6979117664,272.317779541,0.000121,0.0,0.0,0.0,0.000144,0.0,0.0,0.0,0.002401,2
1671461848423295215,329741,1671461848454825680,gps,2,1,42.3009697056,-83.6979117664,272.317810059,0.000121,0.0,0.0,0.0,0.000144,0.0,0.0,0.0,0.002401,2
1671461848433413548,329742,1671461848464741266,gps,2,1,42.3009697058,-83.6979117663,272.317840576,0.000121,0.0,0.0,0.0,0.000144,0.0,0.0,0.0,0.002401,2
1671461848443128321,329743,1671461848474722313,gps,2,1,42.3009697048,-83.697911766,272.317901611,0.000121,0.0,0.0,0.0,0.000144,0.0,0.0,0.0,0.002401,2
1671461848453668535,329744,1671461848484848492,gps,2,1,42.3009697049,-83.697911766,272.317932129,0.000121,0.0,0.0,0.0,0.000144,0.0,0.0,0.0,0.002401,2
1671461848463583681,329745,1671461848494809568,gps,2,1,42.3009697051,-83.697911766,272.317962646,0.000121,0.0,0.0,0.0,0.000144,0.0,0.0,0.0,0.002401,2
1671461848473598347,329746,1671461848504767590,gps,2,1,42.3009697041,-83.6979117657,272.318054199,0.000121,0.0,0.0,0.0,0.000144,0.0,0.0,0.0,0.002401,2
1671461848483659522,329747,1671461848514773582,gps,2,1,42.3009697043,-83.6979117657,272.318084717,0.000121,0.0,0.0,0.0,0.000144,0.0,0.0,0.0,0.002401,2
1671461848493413154,329748,1671461848524890193,gps,2,1,42.3009697045,-83.6979117656,272.318115234,0.000121,0.0,0.0,0.0,0.000144,0.0,0.0,0.0,0.002401,2
1671461848503259392,329749,1671461848534775547,gps,2,1,42.3009697035,-83.6979117654,272.31817627,0.000121,0.0,0.0,0.0,0.000144,0.0,0.0,0.0,0.002401,2
1671461848513472502,329750,1671461848544856287,gps,2,1,42.3009697037,-83.6979117653,272.318206787,0.000121,0.0,0.0,0.0,0.000144,0.0,0.0,0.0,0.002401,2
1671461848523390322,329751,1671461848554862079,gps,2,1,42.3009697039,-83.6979117653,272.318237305,0.000121,0.0,0.0,0.0,0.000144,0.0,0.0,0.0,0.002401,2
1671461848533356109,329752,1671461848564752688,gps,2,1,42.3009697029,-83.6979117653,272.318237305,0.000121,0.0,0.0,0.0,0.000144,0.0,0.0,0.0,0.002401,2
1671461848543380114,329753,1671461848574848647,gps,2,1,42.300969703,-83.6979117653,272.318267822,0.000121,0.0,0.0,0.0,0.000144,0.0,0.0,0.0,0.002401,2
1671461848553414468,329754,1671461848584857655,gps,2,1,42.3009697032,-83.6979117652,272.31829834,0.000121,0.0,0.0,0.0,0.000144,0.0,0.0,0.0,0.002401,2
1671461848563385220,329755,1671461848594747851,gps,2,1,42.3009697022,-83.6979117652,272.318328857,0.000121,0.0,0.0,0.0,0.000144,0.0,0.0,0.0,0.002401,2
1671461848573251219,329756,1671461848604846748,gps,2,1,42.3009697023,-83.6979117652,272.318359375,0.000121,0.0,0.0,0.0,0.000144,0.0,0.0,0.0,0.002401,2
1671461848583314820,329757,1671461848614781616,gps,2,1,42.3009697025,-83.6979117652,272.318389893,0.000121,0.0,0.0,0.0,0.000144,0.0,0.0,0.0,0.002401,2
1671461848593139897,329758,1671461848624748632,gps,2,1,42.3009697015,-83.6979117651,272.318389893,0.000121,0.0,0.0,0.0,0.000144,0.0,0.0,0.0,0.002401,2
1671461848603886212,329759,1671461848634830266,gps,2,1,42.3009697017,-83.6979117651,272.31842041,0.000121,0.0,0.0,0.0,0.000144,0.0,0.0,0.0,0.002401,2
1671461848613162018,329760,1671461848644751272,gps,2,1,42.3009697018,-83.697911765,272.318450928,0.000121,0.0,0.0,0.0,0.000144,0.0,0.0,0.0,0.002401,2
1671461848623487202,329761,1671461848654735238,gps,2,1,42.3009697009,-83.697911765,272.318481445,0.000121,0.0,0.0,0.0,0.000144,0.0,0.0,0.0,0.002401,2
1671461848633751552,329762,1671461848664823328,gps,2,1,42.300969701,-83.697911765,272.318511963,0.000121,0.0,0.0,0.0,0.000144,0.0,0.0,0.0,0.002401,2
1671461848643484373,329763,1671461848674754132,gps,2,1,42.3009697012,-83.6979117649,272.31854248,0.000121,0.0,0.0,0.0,0.000144,0.0,0.0,0.0,0.002401,2
1671461848653596227,329764,1671461848684744945,gps,2,1,42.3009697003,-83.6979117652,272.31854248,0.000121,0.0,0.0,0.0,0.000144,0.0,0.0,0.0,0.002401,2
1671461848663493012,329765,1671461848694825482,gps,2,1,42.3009697004,-83.6979117652,272.318572998,0.000121,0.0,0.0,0.0,0.000144,0.0,0.0,0.0,0.002401,2
1671461848673361958,329766,1671461848704780754,gps,2,1,42.3009697006,-83.6979117652,272.318603516,0.000121,0.0,0.0,0.0,0.000144,0.0,0.0,0.0,0.002401,2
1671461848683511502,329767,1671461848714774736,gps,2,1,42.3009696997,-83.6979117654,272.318603516,0.000121,0.0,0.0,0.0,0.000144,0.0,0.0,0.0,0.002401,2
1671461848693434070,329768,1671461848724810175,gps,2,1,42.3009696998,-83.6979117654,272.318634033,0.000121,0.0,0.0,0.0,0.000144,0.0,0.0,0.0,0.002401,2
1671461848703358945,329769,1671461848734742216,gps,2,1,42.3009696999,-83.6979117654,272.318664551,0.000121,0.0,0.0,0.0,0.000144,0.0,0.0,0.0,0.002401,2
1671461848713539590,329770,1671461848744737994,gps,2,1,42.3009696991,-83.6979117657,272.318664551,0.000121,0.0,0.0,0.0,0.000144,0.0,0.0,0.0,0.002401,2
1671461848723388765,329771,1671461848754752005,gps,2,1,42.3009696992,-83.6979117657,272.318695068,0.000121,0.0,0.0,0.0,0.000144,0.0,0.0,0.0,0.002401,2
1671461848733764713,329772,1671461848764827101,gps,2,1,42.3009696994,-83.6979117657,272.318725586,0.000121,0.0,0.0,0.0,0.000144,0.0,0.0,0.0,0.002401,2
1671461848743664732,329773,1671461848774837730,gps,2,1,42.3009696985,-83.697911766,272.318756104,0.000121,0.0,0.0,0.0,0.000144,0.0,0.0,0.0,0.002401,2
1671461848753962748,329774,1671461848784766152,gps,2,1,42.3009696987,-83.697911766,272.318786621,0.000121,0.0,0.0,0.0,0.000144,0.0,0.0,0.0,0.002401,2
1671461848763222360,329775,1671461848794840503,gps,2,1,42.3009696988,-83.697911766,272.318786621,0.000121,0.0,0.0,0.0,0.000144,0.0,0.0,0.0,0.002401,2
1671461848773539775,329776,1671461848804752984,gps,2,1,42.300969698,-83.6979117663,272.318817139,0.000121,0.0,0.0,0.0,0.000144,0.0,0.0,0.0,0.002401,2
1671461848783437964,329777,1671461848814750675,gps,2,1,42.3009696981,-83.6979117663,272.318847656,0.000121,0.0,0.0,0.0,0.000144,0.0,0.0,0.0,0.002401,2
1671461848793474441,329778,1671461848824808645,gps,2,1,42.3009696982,-83.6979117663,272.318878174,0.000121,0.0,0.0,0.0,0.000144,0.0,0.0,0.0,0.002401,2
1671461848803421606,329779,1671461848834755360,gps,2,1,42.3009696975,-83.6979117666,272.318878174,0.000121,0.0,0.0,0.0,0.000144,0.0,0.0,0.0,0.002401,2
1671461848813415432,329780,1671461848844823748,gps,2,1,42.3009696976,-83.6979117666,272.318908691,0.000121,0.0,0.0,0.0,0.000144,0.0,0.0,0.0,0.002401,2
1671461848823499587,329781,1671461848854766555,gps,2,1,42.3009696977,-83.6979117665,272.318939209,0.000121,0.0,0.0,0.0,0.000144,0.0,0.0,0.0,0.002401,2
1671461848833492470,329782,1671461848864759014,gps,2,1,42.300969697,-83.6979117668,272.318969727,0.000121,0.0,0.0,0.0,0.000144,0.0,0.0,0.0,0.002401,2
1671461848843339081,329783,1671461848874752943,gps,2,1,42.3009696971,-83.6979117668,272.319000244,0.000121,0.0,0.0,0.0,0.000144,0.0,0.0,0.0,0.002401,2
1671461848853894033,329784,1671461848884895734,gps,2,1,42.3009696973,-83.6979117668,272.319030762,0.000121,0.0,0.0,0.0,0.000144,0.0,0.0,0.0,0.002401,2
1671461848863341935,329785,1671461848894739247,gps,2,1,42.3009696966,-83.6979117671,272.319030762,0.000121,0.0,0.0,0.0,0.000144,0.0,0.0,0.0,0.002401,2
1671461848873158226,329786,1671461848904748182,gps,2,1,42.3009696967,-83.6979117671,272.319061279,0.000121,0.0,0.0,0.0,0.000144,0.0,0.0,0.0,0.002401,2
1671461848883308566,329787,1671461848914829295,gps,2,1,42.3009696968,-83.697911767,272.319091797,0.000121,0.0,0.0,0.0,0.000144,0.0,0.0,0.0,0.002401,2
1671461848893576738,329788,1671461848924742649,gps,2,1,42.300969696,-83.6979117672,272.319091797,0.000121,0.0,0.0,0.0,0.000144,0.0,0.0,0.0,0.002401,2
1671461848903575134,329789,1671461848934810404,gps,2,1,42.3009696962,-83.6979117672,272.319122314,0.000121,0.0,0.0,0.0,0.000144,0.0,0.0,0.0,0.002401,2
1671461848913628121,329790,1671461848944748346,gps,2,1,42.3009696963,-83.6979117672,272.319152832,0.000121,0.0,0.0,0.0,0.000144,0.0,0.0,0.0,0.002401,2
1671461848923349371,329791,1671461848954773980,gps,2,1,42.3009696955,-83.6979117674,272.31918335,0.000121,0.0,0.0,0.0,0.000144,0.0,0.0,0.0,0.002401,2
1671461848933501996,329792,1671461848964751876,gps,2,1,42.3009696956,-83.6979117674,272.31918335,0.000121,0.0,0.0,0.0,0.000144,0.0,0.0,0.0,0.002401,2
1671461848943472223,329793,1671461848974806861,gps,2,1,42.3009696958,-83.6979117674,272.319213867,0.000121,0.0,0.0,0.0,0.000144,0.0,0.0,0.0,0.002401,2
1671461848953422746,329794,1671461848984753128,gps,2,1,42.300969695,-83.6979117675,272.319244385,0.000121,0.0,0.0,0.0,0.000144,0.0,0.0,0.0,0.002401,2
1671461848963360935,329795,1671461848994761874,gps,2,1,42.3009696952,-83.6979117675,272.319274902,0.000121,0.0,0.0,0.0,0.000144,0.0,0.0,0.0,0.002401,2
1671461848973457100,329796,1671461849004813476,gps,2,1,42.3009696953,-83.6979117675,272.31930542,0.000121,0.0,0.0,0.0,0.000144,0.0,0.0,0.0,0.002401,2
1671461848983449334,329797,1671461849014737908,gps,2,1,42.3009696946,-83.6979117677,272.31930542,0.000121,0.0,0.0,0.0,0.000144,0.0,0.0,0.0,0.002401,2
1671461848993777612,329798,1671461849024920305,gps,2,1,42.3009696947,-83.6979117677,272.319335938,0.000121,0.0,0.0,0.0,0.000144,0.0,0.0,0.0,0.002401,2
1671461849003852044,329799,1671461849034902648,gps,2,1,42.3009696947,-83.6979117678,272.319366455,0.000121,0.0,0.0,0.0,0.000144,0.0,0.0,0.0,0.002401,2
1671461849013579348,329800,1671461849044829215,gps,2,1,42.3009696944,-83.6979117716,272.319061279,0.000121,0.0,0.0,0.0,0.000144,0.0,0.0,0.0,0.002401,2
1671461849023660062,329801,1671461849054863795,gps,2,1,42.3009696945,-83.6979117717,272.319091797,0.000121,0.0,0.0,0.0,0.000144,0.0,0.0,0.0,0.002401,2
1671461849033816596,329802,1671461849064838939,gps,2,1,42.3009696946,-83.6979117717,272.319122314,0.000121,0.0,0.0,0.0,0.000144,0.0,0.0,0.0,0.002401,2
1671461849043647204,329803,1671461849074746096,gps,2,1,42.3009696942,-83.6979117755,272.318817139,0.000121,0.0,0.0,0.0,0.000144,0.0,0.0,0.0,0.002401,2
1671461849053648992,329804,1671461849084860086,gps,2,1,42.3009696943,-83.6979117755,272.318847656,0.000121,0.0,0.0,0.0,0.000144,0.0,0.0,0.0,0.002401,2
1671461849063575069,329805,1671461849094812142,gps,2,1,42.3009696944,-83.6979117756,272.318878174,0.000121,0.0,0.0,0.0,0.000144,0.0,0.0,0.0,0.002401,2
1671461849073570372,329806,1671461849104759074,gps,2,1,42.300969694,-83.6979117792,272.318572998,0.000121,0.0,0.0,0.0,0.000144,0.0,0.0,0.0,0.002401,2
1671461849083552872,329807,1671461849114857814,gps,2,1,42.3009696941,-83.6979117793,272.318603516,0.000121,0.0,0.0,0.0,0.000144,0.0,0.0,0.0,0.002401,2
1671461849093508911,329808,1671461849124835587,gps,2,1,42.3009696942,-83.6979117794,272.318634033,0.000121,0.0,0.0,0.0,0.000144,0.0,0.0,0.0,0.002401,2
1671461849103420334,329809,1671461849134764831,gps,2,1,42.3009696939,-83.6979117829,272.318359375,0.000121,0.0,0.0,0.0,0.000144,0.0,0.0,0.0,0.002401,2
1671461849113291539,329810,1671461849144753661,gps,2,1,42.300969694,-83.697911783,272.318359375,0.000121,0.0,0.0,0.0,0.000144,0.0,0.0,0.0,0.002401,2
1671461849123319623,329811,1671461849154812688,gps,2,1,42.3009696941,-83.6979117831,272.318389893,0.000121,0.0,0.0,0.0,0.000144,0.0,0.0,0.0,0.002401,2
1671461849133286786,329812,1671461849164744472,gps,2,1,42.3009696938,-83.6979117866,272.318115234,0.000121,0.0,0.0,0.0,0.000144,0.0,0.0,0.0,0.002401,2
1671461849143337446,329813,1671461849174804948,gps,2,1,42.3009696939,-83.6979117867,272.318145752,0.000121,0.0,0.0,0.0,0.000144,0.0,0.0,0.0,0.002401,2
1671461849153268061,329814,1671461849184758933,gps,2,1,42.300969694,-83.6979117868,272.31817627,0.000121,0.0,0.0,0.0,0.000144,0.0,0.0,0.0,0.002401,2
1671461849163117172,329815,1671461849194746835,gps,2,1,42.3009696938,-83.6979117902,272.317901611,0.000121,0.0,0.0,0.0,0.000144,0.0,0.0,0.0,0.002401,2
1671461849173497130,329816,1671461849204791868,gps,2,1,42.3009696939,-83.6979117903,272.317932129,0.000121,0.0,0.0,0.0,0.000144,0.0,0.0,0.0,0.002401,2
1671461849183763513,329817,1671461849214810335,gps,2,1,42.300969694,-83.6979117905,272.317962646,0.000121,0.0,0.0,0.0,0.000144,0.0,0.0,0.0,0.002401,2
1671461849193601971,329818,1671461849224756206,gps,2,1,42.3009696937,-83.6979117938,272.317718506,0.000121,0.0,0.0,0.0,0.000144,0.0,0.0,0.0,0.002401,2
1671461849203394214,329819,1671461849234759212,gps,2,1,42.3009696939,-83.6979117939,272.317718506,0.000121,0.0,0.0,0.0,0.000144,0.0,0.0,0.0,0.002401,2
1671461849213610711,329820,1671461849244815862,gps,2,1,42.300969694,-83.697911794,272.317749023,0.000121,0.0,0.0,0.0,0.000144,0.0,0.0,0.0,0.002401,2
1671461849223472284,329821,1671461849254764345,gps,2,1,42.3009696937,-83.6979117972,272.317504883,0.000121,0.0,0.0,0.0,0.000144,0.0,0.0,0.0,0.002401,2
1671461849233646199,329822,1671461849264750986,gps,2,1,42.3009696938,-83.6979117974,272.3175354,0.000121,0.0,0.0,0.0,0.000144,0.0,0.0,0.0,0.002401,2
1671461849243498815,329823,1671461849274893602,gps,2,1,42.3009696939,-83.6979117975,272.317565918,0.000121,0.0,0.0,0.0,0.000144,0.0,0.0,0.0,0.002401,2
1671461849253388158,329824,1671461849284751536,gps,2,1,42.3009696937,-83.6979118006,272.317321777,8.1e-05,0.0,0.0,0.0,0.0001,0.0,0.0,0.0,0.002304,2
1671461849263500143,329825,1671461849294809388,gps,2,1,42.3009696938,-83.6979118008,272.317352295,8.1e-05,0.0,0.0,0.0,0.0001,0.0,0.0,0.0,0.002304,2
1671461849273553180,329826,1671461849304757285,gps,2,1,42.3009696939,-83.6979118009,272.317382812,8.1e-05,0.0,0.0,0.0,0.0001,0.0,0.0,0.0,0.002304,2
1671461849283397951,329827,1671461849314743439,gps,2,1,42.3009696937,-83.697911804,272.317169189,8.1e-05,0.0,0.0,0.0,0.0001,0.0,0.0,0.0,0.002304,2
1671461849293228085,329828,1671461849324738528,gps,2,1,42.3009696938,-83.6979118041,272.317199707,8.1e-05,0.0,0.0,0.0,0.0001,0.0,0.0,0.0,0.002304,2
1671461849303643085,329829,1671461849334826089,gps,2,1,42.3009696939,-83.6979118043,272.317199707,8.1e-05,0.0,0.0,0.0,0.0001,0.0,0.0,0.0,0.002304,2
1671461849313547513,329830,1671461849344771043,gps,2,1,42.3009696937,-83.6979118073,272.316986084,8.1e-05,0.0,0.0,0.0,0.0001,0.0,0.0,0.0,0.002304,2
1671461849323669899,329831,1671461849354765065,gps,2,1,42.3009696938,-83.6979118075,272.317016602,8.1e-05,0.0,0.0,0.0,0.0001,0.0,0.0,0.0,0.002304,2
1671461849333754101,329832,1671461849364820948,gps,2,1,42.3009696939,-83.6979118077,272.317047119,8.1e-05,0.0,0.0,0.0,0.0001,0.0,0.0,0.0,0.002304,2
1671461849343626227,329833,1671461849374755647,gps,2,1,42.3009696937,-83.6979118106,272.316833496,8.1e-05,0.0,0.0,0.0,0.0001,0.0,0.0,0.0,0.002304,2
1671461849353505432,329834,1671461849384842348,gps,2,1,42.3009696938,-83.6979118108,272.316864014,8.1e-05,0.0,0.0,0.0,0.0001,0.0,0.0,0.0,0.002304,2
1671461849363389563,329835,1671461849394825948,gps,2,1,42.3009696939,-83.697911811,272.316894531,8.1e-05,0.0,0.0,0.0,0.0001,0.0,0.0,0.0,0.002304,2
1671461849373358965,329836,1671461849404748990,gps,2,1,42.3009696937,-83.6979118139,272.316680908,8.1e-05,0.0,0.0,0.0,0.0001,0.0,0.0,0.0,0.002304,2
1671461849383510767,329837,1671461849414767838,gps,2,1,42.3009696938,-83.6979118141,272.316711426,8.1e-05,0.0,0.0,0.0,0.0001,0.0,0.0,0.0,0.002304,2
1671461849393462711,329838,1671461849424850786,gps,2,1,42.3009696939,-83.6979118143,272.316741943,8.1e-05,0.0,0.0,0.0,0.0001,0.0,0.0,0.0,0.002304,2
1671461849403453024,329839,1671461849434801636,gps,2,1,42.3009696938,-83.6979118169,272.316558838,8.1e-05,0.0,0.0,0.0,0.0001,0.0,0.0,0.0,0.002304,2
1671461849413299320,329840,1671461849444828177,gps,2,1,42.3009696939,-83.6979118171,272.316558838,8.1e-05,0.0,0.0,0.0,0.0001,0.0,0.0,0.0,0.002304,2
1671461849423475433,329841,1671461849454897482,gps,2,1,42.300969694,-83.6979118174,272.316589355,8.1e-05,0.0,0.0,0.0,0.0001,0.0,0.0,0.0,0.002304,2
1671461849433376909,329842,1671461849464753856,gps,2,1,42.3009696939,-83.6979118199,272.31640625,8.1e-05,0.0,0.0,0.0,0.0001,0.0,0.0,0.0,0.002304,2
1671461849443236212,329843,1671461849474758727,gps,2,1,42.300969694,-83.6979118201,272.316436768,8.1e-05,0.0,0.0,0.0,0.0001,0.0,0.0,0.0,0.002304,2
1671461849453902534,329844,1671461849484809678,gps,2,1,42.3009696941,-83.6979118204,272.316467285,8.1e-05,0.0,0.0,0.0,0.0001,0.0,0.0,0.0,0.002304,2
1671461849463666937,329845,1671461849494745363,gps,2,1,42.300969694,-83.6979118228,272.31628418,8.1e-05,0.0,0.0,0.0,0.0001,0.0,0.0,0.0,0.002304,2
1671461849473522254,329846,1671461849504754492,gps,2,1,42.3009696942,-83.6979118231,272.316314697,8.1e-05,0.0,0.0,0.0,0.0001,0.0,0.0,0.0,0.002304,2
1671461849483613305,329847,1671461849514822416,gps,2,1,42.3009696943,-83.6979118233,272.316314697,8.1e-05,0.0,0.0,0.0,0.0001,0.0,0.0,0.0,0.002304,2
1671461849493632240,329848,1671461849524846742,gps,2,1,42.3009696942,-83.6979118258,272.316162109,8.1e-05,0.0,0.0,0.0,0.0001,0.0,0.0,0.0,0.002304,2
1671461849503531070,329849,1671461849534905820,gps,2,1,42.3009696943,-83.697911826,272.316192627,8.1e-05,0.0,0.0,0.0,0.0001,0.0,0.0,0.0,0.002304,2
1671461849513490988,329850,1671461849544870053,gps,2,1,42.3009696944,-83.6979118263,272.316192627,8.1e-05,0.0,0.0,0.0,0.0001,0.0,0.0,0.0,0.002304,2
1671461849523280139,329851,1671461849554839225,gps,2,1,42.3009696944,-83.6979118286,272.316040039,8.1e-05,0.0,0.0,0.0,0.0001,0.0,0.0,0.0,0.002304,2
1671461849533480845,329852,1671461849564797388,gps,2,1,42.3009696945,-83.6979118289,272.316070557,8.1e-05,0.0,0.0,0.0,0.0001,0.0,0.0,0.0,0.002304,2
1671461849543456995,329853,1671461849574853924,gps,2,1,42.3009696946,-83.6979118292,272.316101074,8.1e-05,0.0,0.0,0.0,0.0001,0.0,0.0,0.0,0.002304,2
1671461849553381332,329854,1671461849584851638,gps,2,1,42.3009696962,-83.69791183,272.315704346,8.1e-05,0.0,0.0,0.0,0.0001,0.0,0.0,0.0,0.002304,2
1671461849563394845,329855,1671461849594790606,gps,2,1,42.3009696963,-83.6979118303,272.315734863,8.1e-05,0.0,0.0,0.0,0.0001,0.0,0.0,0.0,0.002304,2
1671461849573240966,329856,1671461849604830605,gps,2,1,42.3009696964,-83.6979118305,272.315765381,8.1e-05,0.0,0.0,0.0,0.0001,0.0,0.0,0.0,0.002304,2
1671461849583343337,329857,1671461849614751043,gps,2,1,42.3009696979,-83.6979118314,272.31539917,8.1e-05,0.0,0.0,0.0,0.0001,0.0,0.0,0.0,0.002304,2
1671461849593656531,329858,1671461849624812309,gps,2,1,42.3009696981,-83.6979118317,272.31539917,8.1e-05,0.0,0.0,0.0,0.0001,0.0,0.0,0.0,0.002304,2
1671461849603826846,329859,1671461849634768384,gps,2,1,42.3009696982,-83.6979118319,272.315429688,8.1e-05,0.0,0.0,0.0,0.0001,0.0,0.0,0.0,0.002304,2
1671461849613568762,329860,1671461849644748943,gps,2,1,42.3009696997,-83.6979118328,272.315093994,8.1e-05,0.0,0.0,0.0,0.0001,0.0,0.0,0.0,0.002304,2
1671461849623489519,329861,1671461849654754839,gps,2,1,42.3009696998,-83.6979118331,272.315093994,8.1e-05,0.0,0.0,0.0,0.0001,0.0,0.0,0.0,0.002304,2
1671461849633765688,329862,1671461849664872485,gps,2,1,42.3009696999,-83.6979118334,272.315124512,8.1e-05,0.0,0.0,0.0,0.0001,0.0,0.0,0.0,0.002304,2
1671461849643421182,329863,1671461849674774250,gps,2,1,42.3009697012,-83.6979118342,272.314788818,8.1e-05,0.0,0.0,0.0,0.0001,0.0,0.0,0.0,0.002304,2
1671461849653611216,329864,1671461849684763025,gps,2,1,42.3009697014,-83.6979118345,272.314819336,8.1e-05,0.0,0.0,0.0,0.0001,0.0,0.0,0.0,0.002304,2
1671461849663464252,329865,1671461849694812047,gps,2,1,42.3009697015,-83.6979118348,272.314819336,8.1e-05,0.0,0.0,0.0,0.0001,0.0,0.0,0.0,0.002304,2
1671461849673360761,329866,1671461849704824248,gps,2,1,42.3009697028,-83.6979118357,272.31451416,8.1e-05,0.0,0.0,0.0,0.0001,0.0,0.0,0.0,0.002304,2
1671461849683699104,329867,1671461849714778976,gps,2,1,42.3009697029,-83.697911836,272.314544678,8.1e-05,0.0,0.0,0.0,0.0001,0.0,0.0,0.0,0.002304,2
1671461849693256180,329868,1671461849724819738,gps,2,1,42.300969703,-83.6979118363,272.314544678,8.1e-05,0.0,0.0,0.0,0.0001,0.0,0.0,0.0,0.002304,2
1671461849703632258,329869,1671461849734748102,gps,2,1,42.3009697043,-83.6979118372,272.314239502,8.1e-05,0.0,0.0,0.0,0.0001,0.0,0.0,0.0,0.002304,2
1671461849713305047,329870,1671461849744830772,gps,2,1,42.3009697044,-83.6979118375,272.31427002,8.1e-05,0.0,0.0,0.0,0.0001,0.0,0.0,0.0,0.002304,2
1671461849723287645,329871,1671461849754763787,gps,2,1,42.3009697045,-83.6979118378,272.31427002,8.1e-05,0.0,0.0,0.0,0.0001,0.0,0.0,0.0,0.002304,2
1671461849733442796,329872,1671461849764755197,gps,2,1,42.3009697057,-83.6979118387,272.313995361,8.1e-05,0.0,0.0,0.0,0.0001,0.0,0.0,0.0,0.002304,2
1671461849743293412,329873,1671461849774903893,gps,2,1,42.3009697058,-83.6979118391,272.314025879,8.1e-05,0.0,0.0,0.0,0.0001,0.0,0.0,0.0,0.002304,2
1671461849753251327,329874,1671461849784765069,gps,2,1,42.300969706,-83.6979118394,272.314025879,8.1e-05,0.0,0.0,0.0,0.0001,0.0,0.0,0.0,0.002304,2
1671461849763248580,329875,1671461849794788057,gps,2,1,42.3009697071,-83.6979118403,272.313781738,8.1e-05,0.0,0.0,0.0,0.0001,0.0,0.0,0.0,0.002304,2
1671461849773748029,329876,1671461849804837027,gps,2,1,42.3009697073,-83.6979118406,272.313781738,8.1e-05,0.0,0.0,0.0,0.0001,0.0,0.0,0.0,0.002304,2
1671461849783689166,329877,1671461849814769833,gps,2,1,42.3009697074,-83.697911841,272.313781738,8.1e-05,0.0,0.0,0.0,0.0001,0.0,0.0,0.0,0.002304,2
1671461849793693340,329878,1671461849824758210,gps,2,1,42.3009697086,-83.6979118419,272.313537598,8.1e-05,0.0,0.0,0.0,0.0001,0.0,0.0,0.0,0.002304,2
1671461849803582075,329879,1671461849834774688,gps,2,1,42.3009697087,-83.6979118422,272.313537598,8.1e-05,0.0,0.0,0.0,0.0001,0.0,0.0,0.0,0.002304,2
1671461849813464083,329880,1671461849844801556,gps,2,1,42.3009697089,-83.6979118426,272.313568115,8.1e-05,0.0,0.0,0.0,0.0001,0.0,0.0,0.0,0.002304,2
1671461849823443693,329881,1671461849854745104,gps,2,1,42.30096971,-83.6979118435,272.313323975,8.1e-05,0.0,0.0,0.0,0.0001,0.0,0.0,0.0,0.002304,2
1671461849833591303,329882,1671461849864825726,gps,2,1,42.3009697101,-83.6979118438,272.313323975,8.1e-05,0.0,0.0,0.0,0.0001,0.0,0.0,0.0,0.002304,2
1671461849843433631,329883,1671461849874782145,gps,2,1,42.3009697103,-83.6979118442,272.313354492,8.1e-05,0.0,0.0,0.0,0.0001,0.0,0.0,0.0,0.002304,2
1671461849853588753,329884,1671461849884834702,gps,2,1,42.3009697114,-83.6979118451,272.313110352,8.1e-05,0.0,0.0,0.0,0.0001,0.0,0.0,0.0,0.002304,2
1671461849863819974,329885,1671461849894847043,gps,2,1,42.3009697115,-83.6979118455,272.313110352,8.1e-05,0.0,0.0,0.0,0.0001,0.0,0.0,0.0,0.002304,2
1671461849873340040,329886,1671461849904773381,gps,2,1,42.3009697117,-83.6979118458,272.313140869,8.1e-05,0.0,0.0,0.0,0.0001,0.0,0.0,0.0,0.002304,2
1671461849883457997,329887,1671461849914757118,gps,2,1,42.3009697127,-83.6979118463,272.312896729,8.1e-05,0.0,0.0,0.0,0.0001,0.0,0.0,0.0,0.002304,2
1671461849893285266,329888,1671461849924759363,gps,2,1,42.3009697129,-83.6979118467,272.312927246,8.1e-05,0.0,0.0,0.0,0.0001,0.0,0.0,0.0,0.002304,2
1671461849903726869,329889,1671461849934829706,gps,2,1,42.3009697131,-83.6979118471,272.312927246,8.1e-05,0.0,0.0,0.0,0.0001,0.0,0.0,0.0,0.002304,2
1671461849913690741,329890,1671461849944764920,gps,2,1,42.3009697141,-83.6979118476,272.312713623,8.1e-05,0.0,0.0,0.0,0.0001,0.0,0.0,0.0,0.002304,2
1671461849923703695,329891,1671461849954842233,gps,2,1,42.3009697143,-83.697911848,272.312744141,8.1e-05,0.0,0.0,0.0,0.0001,0.0,0.0,0.0,0.002304,2
1671461849933848354,329892,1671461849964845141,gps,2,1,42.3009697145,-83.6979118484,272.312744141,8.1e-05,0.0,0.0,0.0,0.0001,0.0,0.0,0.0,0.002304,2
1671461849943692696,329893,1671461849974775322,gps,2,1,42.3009697154,-83.697911849,272.312530518,8.1e-05,0.0,0.0,0.0,0.0001,0.0,0.0,0.0,0.002304,2
1671461849953603144,329894,1671461849984823429,gps,2,1,42.3009697156,-83.6979118494,272.312561035,8.1e-05,0.0,0.0,0.0,0.0001,0.0,0.0,0.0,0.002304,2
1671461849963532205,329895,1671461849994770137,gps,2,1,42.3009697158,-83.6979118498,272.312561035,8.1e-05,0.0,0.0,0.0,0.0001,0.0,0.0,0.0,0.002304,2
1671461849973430663,329896,1671461850004747440,gps,2,1,42.3009697168,-83.6979118504,272.31237793,8.1e-05,0.0,0.0,0.0,0.0001,0.0,0.0,0.0,0.002304,2
1671461849983544647,329897,1671461850014746777,gps,2,1,42.300969717,-83.6979118508,272.31237793,8.1e-05,0.0,0.0,0.0,0.0001,0.0,0.0,0.0,0.002304,2
1671461849993456952,329898,1671461850024956370,gps,2,1,42.3009697171,-83.6979118512,272.31237793,8.1e-05,0.0,0.0,0.0,0.0001,0.0,0.0,0.0,0.002304,2
1671461850003532789,329899,1671461850034913841,gps,2,1,42.300969718,-83.6979118487,272.312255859,8.1e-05,0.0,0.0,0.0,0.0001,0.0,0.0,0.0,0.002304,2
1671461850013391418,329900,1671461850044900044,gps,2,1,42.3009697182,-83.6979118491,272.312286377,8.1e-05,0.0,0.0,0.0,0.0001,0.0,0.0,0.0,0.002304,2
1671461850023340291,329901,1671461850054836532,gps,2,1,42.3009697183,-83.6979118495,272.312286377,8.1e-05,0.0,0.0,0.0,0.0001,0.0,0.0,0.0,0.002304,2
1671461850033400205,329902,1671461850064836593,gps,2,1,42.3009697192,-83.6979118471,272.312164307,8.1e-05,0.0,0.0,0.0,0.0001,0.0,0.0,0.0,0.002304,2
1671461850043233544,329903,1671461850074776007,gps,2,1,42.3009697193,-83.6979118475,272.312164307,8.1e-05,0.0,0.0,0.0,0.0001,0.0,0.0,0.0,0.002304,2
1671461850053999807,329904,1671461850084863313,gps,2,1,42.3009697195,-83.6979118479,272.312164307,8.1e-05,0.0,0.0,0.0,0.0001,0.0,0.0,0.0,0.002304,2
1671461850063681315,329905,1671461850094837629,gps,2,1,42.3009697203,-83.6979118456,272.312042236,8.1e-05,0.0,0.0,0.0,0.0001,0.0,0.0,0.0,0.002304,2
1671461850073685651,329906,1671461850104820614,gps,2,1,42.3009697205,-83.697911846,272.312072754,8.1e-05,0.0,0.0,0.0,0.0001,0.0,0.0,0.0,0.002304,2
1671461850083707174,329907,1671461850114885604,gps,2,1,42.3009697207,-83.6979118464,272.312072754,8.1e-05,0.0,0.0,0.0,0.0001,0.0,0.0,0.0,0.002304,2
1671461850093651814,329908,1671461850124741792,gps,2,1,42.3009697215,-83.6979118442,272.311950684,8.1e-05,0.0,0.0,0.0,0.0001,0.0,0.0,0.0,0.002304,2
1671461850103611358,329909,1671461850134710861,gps,2,1,42.3009697217,-83.6979118446,272.311981201,8.1e-05,0.0,0.0,0.0,0.0001,0.0,0.0,0.0,0.002304,2
1671461850113461072,329910,1671461850144718229,gps,2,1,42.3009697218,-83.697911845,272.311981201,8.1e-05,0.0,0.0,0.0,0.0001,0.0,0.0,0.0,0.002304,2
1671461850123368412,329911,1671461850154776893,gps,2,1,42.3009697226,-83.6979118429,272.311889648,8.1e-05,0.0,0.0,0.0,0.0001,0.0,0.0,0.0,0.002304,2
1671461850133689780,329912,1671461850164850785,gps,2,1,42.3009697228,-83.6979118433,272.311889648,8.1e-05,0.0,0.0,0.0,0.0001,0.0,0.0,0.0,0.002304,2
1671461850143415471,329913,1671461850174859411,gps,2,1,42.300969723,-83.6979118437,272.311889648,8.1e-05,0.0,0.0,0.0,0.0001,0.0,0.0,0.0,0.002304,2
1671461850153333454,329914,1671461850184766943,gps,2,1,42.3009697238,-83.6979118417,272.311798096,8.1e-05,0.0,0.0,0.0,0.0001,0.0,0.0,0.0,0.002304,2
1671461850163313190,329915,1671461850194765752,gps,2,1,42.300969724,-83.6979118421,272.311798096,8.1e-05,0.0,0.0,0.0,0.0001,0.0,0.0,0.0,0.002304,2
1671461850173844201,329916,1671461850204918356,gps,2,1,42.3009697242,-83.6979118425,272.311798096,8.1e-05,0.0,0.0,0.0,0.0001,0.0,0.0,0.0,0.002304,2
1671461850183276501,329917,1671461850214756171,gps,2,1,42.300969725,-83.6979118407,272.311706543,8.1e-05,0.0,0.0,0.0,0.0001,0.0,0.0,0.0,0.002304,2
1671461850193750614,329918,1671461850224827687,gps,2,1,42.3009697252,-83.697911841,272.311706543,8.1e-05,0.0,0.0,0.0,0.0001,0.0,0.0,0.0,0.002304,2
1671461850203872905,329919,1671461850234785993,gps,2,1,42.3009697254,-83.6979118414,272.311737061,8.1e-05,0.0,0.0,0.0,0.0001,0.0,0.0,0.0,0.002304,2
1671461850213748209,329920,1671461850244773079,gps,2,1,42.3009697262,-83.6979118396,272.31161499,8.1e-05,0.0,0.0,0.0,0.0001,0.0,0.0,0.0,0.002304,2
1671461850223618518,329921,1671461850254820764,gps,2,1,42.3009697264,-83.69791184,272.311645508,8.1e-05,0.0,0.0,0.0,0.0001,0.0,0.0,0.0,0.002304,2
1671461850233612328,329922,1671461850264779425,gps,2,1,42.3009697266,-83.6979118404,272.311645508,8.1e-05,0.0,0.0,0.0,0.0001,0.0,0.0,0.0,0.002304,2
1671461850243586485,329923,1671461850274935236,gps,2,1,42.3009697273,-83.6979118387,272.311553955,8.1e-05,0.0,0.0,0.0,0.0001,0.0,0.0,0.0,0.002304,2
1671461850253758383,329924,1671461850284825256,gps,2,1,42.3009697275,-83.6979118391,272.311553955,8.1e-05,0.0,0.0,0.0,0.0001,0.0,0.0,0.0,0.002304,2
1671461850263454081,329925,1671461850294828664,gps,2,1,42.3009697278,-83.6979118395,272.311553955,8.1e-05,0.0,0.0,0.0,0.0001,0.0,0.0,0.0,0.002304,2
1671461850273431898,329926,1671461850304767497,gps,2,1,42.3009697285,-83.6979118378,272.31149292,8.1e-05,0.0,0.0,0.0,0.0001,0.0,0.0,0.0,0.002304,2
1671461850283511551,329927,1671461850314840822,gps,2,1,42.3009697287,-83.6979118383,272.31149292,8.1e-05,0.0,0.0,0.0,0.0001,0.0,0.0,0.0,0.002304,2
1671461850293381696,329928,1671461850324765216,gps,2,1,42.3009697289,-83.6979118386,272.31149292,8.1e-05,0.0,0.0,0.0,0.0001,0.0,0.0,0.0,0.002304,2
1671461850303485250,329929,1671461850334780511,gps,2,1,42.3009697297,-83.6979118371,272.311401367,8.1e-05,0.0,0.0,0.0,0.0001,0.0,0.0,0.0,0.002304,2
1671461850313213548,329930,1671461850344832070,gps,2,1,42.3009697299,-83.6979118375,272.311431885,8.1e-05,0.0,0.0,0.0,0.0001,0.0,0.0,0.0,0.002304,2
1671461850323206831,329931,1671461850354780905,gps,2,1,42.3009697301,-83.6979118379,272.311431885,8.1e-05,0.0,0.0,0.0,0.0001,0.0,0.0,0.0,0.002304,2
1671461850333146263,329932,1671461850364773304,gps,2,1,42.3009697308,-83.6979118364,272.311340332,8.1e-05,0.0,0.0,0.0,0.0001,0.0,0.0,0.0,0.002304,2
1671461850343768389,329933,1671461850374825410,gps,2,1,42.300969731,-83.6979118367,272.31137085,8.1e-05,0.0,0.0,0.0,0.0001,0.0,0.0,0.0,0.002304,2
1671461850353982200,329934,1671461850384844757,gps,2,1,42.3009697312,-83.6979118371,272.31137085,8.1e-05,0.0,0.0,0.0,0.0001,0.0,0.0,0.0,0.002304,2
1671461850363716903,329935,1671461850394778880,gps,2,1,42.300969732,-83.6979118357,272.311309814,8.1e-05,0.0,0.0,0.0,0.0001,0.0,0.0,0.0,0.002304,2
1671461850373695658,329936,1671461850404779594,gps,2,1,42.3009697322,-83.6979118361,272.311309814,8.1e-05,0.0,0.0,0.0,0.0001,0.0,0.0,0.0,0.002304,2
1671461850383809405,329937,1671461850414839150,gps,2,1,42.3009697324,-83.6979118365,272.311309814,8.1e-05,0.0,0.0,0.0,0.0001,0.0,0.0,0.0,0.002304,2
1671461850393491374,329938,1671461850424769806,gps,2,1,42.3009697331,-83.6979118352,272.311218262,8.1e-05,0.0,0.0,0.0,0.0001,0.0,0.0,0.0,0.002304,2
1671461850403720621,329939,1671461850434774719,gps,2,1,42.3009697334,-83.6979118356,272.311218262,8.1e-05,0.0,0.0,0.0,0.0001,0.0,0.0,0.0,0.002304,2
1671461850413449744,329940,1671461850444827920,gps,2,1,42.3009697336,-83.697911836,272.311248779,8.1e-05,0.0,0.0,0.0,0.0001,0.0,0.0,0.0,0.002304,2
1671461850423381548,329941,1671461850454848014,gps,2,1,42.3009697343,-83.6979118347,272.311157227,8.1e-05,0.0,0.0,0.0,0.0001,0.0,0.0,0.0,0.002304,2
1671461850433501919,329942,1671461850464779338,gps,2,1,42.3009697345,-83.6979118351,272.311157227,8.1e-05,0.0,0.0,0.0,0.0001,0.0,0.0,0.0,0.002304,2
1671461850443352207,329943,1671461850474823369,gps,2,1,42.3009697347,-83.6979118355,272.311187744,8.1e-05,0.0,0.0,0.0,0.0001,0.0,0.0,0.0,0.002304,2
1671461850453323259,329944,1671461850484767758,gps,2,1,42.3009697354,-83.6979118343,272.311096191,8.1e-05,0.0,0.0,0.0,0.0001,0.0,0.0,0.0,0.002304,2
1671461850463239039,329945,1671461850494773278,gps,2,1,42.3009697357,-83.6979118347,272.311096191,8.1e-05,0.0,0.0,0.0,0.0001,0.0,0.0,0.0,0.002304,2
1671461850473703708,329946,1671461850504823660,gps,2,1,42.3009697359,-83.697911835,272.311096191,8.1e-05,0.0,0.0,0.0,0.0001,0.0,0.0,0.0,0.002304,2
1671461850483736014,329947,1671461850514782166,gps,2,1,42.3009697366,-83.6979118339,272.311035156,8.1e-05,0.0,0.0,0.0,0.0001,0.0,0.0,0.0,0.002304,2
1671461850493758425,329948,1671461850524876409,gps,2,1,42.3009697368,-83.6979118342,272.311035156,8.1e-05,0.0,0.0,0.0,0.0001,0.0,0.0,0.0,0.002304,2
1671461850503716748,329949,1671461850535015492,gps,2,1,42.3009697371,-83.6979118346,272.311035156,8.1e-05,0.0,0.0,0.0,0.0001,0.0,0.0,0.0,0.002304,2
1671461850513604120,329950,1671461850544793022,gps,2,1,42.3009697376,-83.6979118319,272.311035156,8.1e-05,0.0,0.0,0.0,0.0001,0.0,0.0,0.0,0.002304,2
1671461850523513589,329951,1671461850554808918,gps,2,1,42.3009697378,-83.6979118323,272.311035156,8.1e-05,0.0,0.0,0.0,0.0001,0.0,0.0,0.0,0.002304,2
1671461850533672146,329952,1671461850564894260,gps,2,1,42.300969738,-83.6979118327,272.311035156,8.1e-05,0.0,0.0,0.0,0.0001,0.0,0.0,0.0,0.002304,2
1671461850543478441,329953,1671461850574754160,gps,2,1,42.3009697386,-83.6979118301,272.311035156,8.1e-05,0.0,0.0,0.0,0.0001,0.0,0.0,0.0,0.002304,2
1671461850553645846,329954,1671461850584878335,gps,2,1,42.3009697388,-83.6979118305,272.311035156,8.1e-05,0.0,0.0,0.0,0.0001,0.0,0.0,0.0,0.002304,2
1671461850563591010,329955,1671461850594910227,gps,2,1,42.300969739,-83.6979118308,272.311065674,8.1e-05,0.0,0.0,0.0,0.0001,0.0,0.0,0.0,0.002304,2
1671461850573303750,329956,1671461850604788495,gps,2,1,42.3009697395,-83.6979118283,272.311035156,8.1e-05,0.0,0.0,0.0,0.0001,0.0,0.0,0.0,0.002304,2
1671461850583285423,329957,1671461850614780158,gps,2,1,42.3009697398,-83.6979118287,272.311035156,8.1e-05,0.0,0.0,0.0,0.0001,0.0,0.0,0.0,0.002304,2
1671461850593275889,329958,1671461850624842887,gps,2,1,42.30096974,-83.697911829,272.311065674,8.1e-05,0.0,0.0,0.0,0.0001,0.0,0.0,0.0,0.002304,2
1671461850603428095,329959,1671461850634789358,gps,2,1,42.3009697406,-83.6979118266,272.311035156,8.1e-05,0.0,0.0,0.0,0.0001,0.0,0.0,0.0,0.002304,2
1671461850613237519,329960,1671461850644780314,gps,2,1,42.3009697408,-83.697911827,272.311065674,8.1e-05,0.0,0.0,0.0,0.0001,0.0,0.0,0.0,0.002304,2
1671461850623789035,329961,1671461850654852854,gps,2,1,42.3009697411,-83.6979118274,272.311065674,8.1e-05,0.0,0.0,0.0,0.0001,0.0,0.0,0.0,0.002304,2
1671461850633558558,329962,1671461850664773619,gps,2,1,42.3009697414,-83.697911825,272.311065674,8.1e-05,0.0,0.0,0.0,0.0001,0.0,0.0,0.0,0.002304,2
1671461850643700981,329963,1671461850674775260,gps,2,1,42.3009697417,-83.6979118253,272.311065674,8.1e-05,0.0,0.0,0.0,0.0001,0.0,0.0,0.0,0.002304,2
1671461850653512173,329964,1671461850684845432,gps,2,1,42.300969742,-83.6979118257,272.311096191,8.1e-05,0.0,0.0,0.0,0.0001,0.0,0.0,0.0,0.002304,2
1671461850663387552,329965,1671461850694774251,gps,2,1,42.3009697423,-83.6979118233,272.311096191,8.1e-05,0.0,0.0,0.0,0.0001,0.0,0.0,0.0,0.002304,2
1671461850673504949,329966,1671461850704855801,gps,2,1,42.3009697426,-83.6979118237,272.311096191,8.1e-05,0.0,0.0,0.0,0.0001,0.0,0.0,0.0,0.002304,2
1671461850683554437,329967,1671461850714911295,gps,2,1,42.3009697429,-83.697911824,272.311096191,8.1e-05,0.0,0.0,0.0,0.0001,0.0,0.0,0.0,0.002304,2
1671461850693503835,329968,1671461850724793829,gps,2,1,42.3009697433,-83.6979118218,272.311096191,8.1e-05,0.0,0.0,0.0,0.0001,0.0,0.0,0.0,0.002304,2
1671461850703421996,329969,1671461850734794102,gps,2,1,42.3009697435,-83.6979118221,272.311126709,8.1e-05,0.0,0.0,0.0,0.0001,0.0,0.0,0.0,0.002304,2
1671461850713431437,329970,1671461850744845772,gps,2,1,42.3009697438,-83.6979118225,272.311126709,8.1e-05,0.0,0.0,0.0,0.0001,0.0,0.0,0.0,0.002304,2
1671461850723322538,329971,1671461850754773930,gps,2,1,42.3009697442,-83.6979118203,272.311126709,8.1e-05,0.0,0.0,0.0,0.0001,0.0,0.0,0.0,0.002304,2
1671461850733415094,329972,1671461850764779916,gps,2,1,42.3009697444,-83.6979118206,272.311157227,8.1e-05,0.0,0.0,0.0,0.0001,0.0,0.0,0.0,0.002304,2
1671461850743879640,329973,1671461850774935882,gps,2,1,42.3009697447,-83.6979118209,272.311157227,8.1e-05,0.0,0.0,0.0,0.0001,0.0,0.0,0.0,0.002304,2
1671461850753228702,329974,1671461850784772720,gps,2,1,42.3009697451,-83.6979118188,272.311157227,8.1e-05,0.0,0.0,0.0,0.0001,0.0,0.0,0.0,0.002304,2
1671461850763701815,329975,1671461850794824952,gps,2,1,42.3009697453,-83.6979118191,272.311157227,8.1e-05,0.0,0.0,0.0,0.0001,0.0,0.0,0.0,0.002304,2
1671461850773827299,329976,1671461850804842722,gps,2,1,42.3009697456,-83.6979118195,272.311187744,8.1e-05,0.0,0.0,0.0,0.0001,0.0,0.0,0.0,0.002304,2
1671461850783845498,329977,1671461850814816483,gps,2,1,42.300969746,-83.6979118174,272.311187744,8.1e-05,0.0,0.0,0.0,0.0001,0.0,0.0,0.0,0.002304,2
1671461850793710120,329978,1671461850824805329,gps,2,1,42.3009697463,-83.6979118177,272.311187744,8.1e-05,0.0,0.0,0.0,0.0001,0.0,0.0,0.0,0.002304,2
1671461850803726833,329979,1671461850834837538,gps,2,1,42.3009697465,-83.697911818,272.311218262,8.1e-05,0.0,0.0,0.0,0.0001,0.0,0.0,0.0,0.002304,2
1671461850813571059,329980,1671461850844780137,gps,2,1,42.3009697469,-83.697911816,272.311218262,8.1e-05,0.0,0.0,0.0,0.0001,0.0,0.0,0.0,0.002304,2
1671461850823726206,329981,1671461850854762787,gps,2,1,42.3009697472,-83.6979118163,272.311218262,8.1e-05,0.0,0.0,0.0,0.0001,0.0,0.0,0.0,0.002304,2
1671461850833566049,329982,1671461850864821889,gps,2,1,42.3009697474,-83.6979118166,272.311218262,8.1e-05,0.0,0.0,0.0,0.0001,0.0,0.0,0.0,0.002304,2
1671461850843479468,329983,1671461850874782136,gps,2,1,42.3009697478,-83.6979118147,272.311248779,8.1e-05,0.0,0.0,0.0,0.0001,0.0,0.0,0.0,0.002304,2
1671461850853588199,329984,1671461850884797877,gps,2,1,42.3009697481,-83.6979118149,272.311248779,8.1e-05,0.0,0.0,0.0,0.0001,0.0,0.0,0.0,0.002304,2
1671461850863345995,329985,1671461850894830768,gps,2,1,42.3009697483,-83.6979118153,272.311248779,8.1e-05,0.0,0.0,0.0,0.0001,0.0,0.0,0.0,0.002304,2
1671461850873243404,329986,1671461850904772113,gps,2,1,42.3009697487,-83.6979118133,272.311248779,8.1e-05,0.0,0.0,0.0,0.0001,0.0,0.0,0.0,0.002304,2
1671461850883214242,329987,1671461850914786330,gps,2,1,42.3009697489,-83.6979118136,272.311279297,8.1e-05,0.0,0.0,0.0,0.0001,0.0,0.0,0.0,0.002304,2
1671461850893790124,329988,1671461850924876837,gps,2,1,42.3009697492,-83.697911814,272.311279297,8.1e-05,0.0,0.0,0.0,0.0001,0.0,0.0,0.0,0.002304,2
1671461850903353719,329989,1671461850934792116,gps,2,1,42.3009697495,-83.6979118123,272.311279297,8.1e-05,0.0,0.0,0.0,0.0001,0.0,0.0,0.0,0.002304,2
1671461850913755091,329990,1671461850944834963,gps,2,1,42.3009697497,-83.6979118126,272.311279297,8.1e-05,0.0,0.0,0.0,0.0001,0.0,0.0,0.0,0.002304,2
1671461850923611183,329991,1671461850954957001,gps,2,1,42.30096975,-83.6979118129,272.311279297,8.1e-05,0.0,0.0,0.0,0.0001,0.0,0.0,0.0,0.002304,2
1671461850933824674,329992,1671461850964773836,gps,2,1,42.3009697503,-83.6979118112,272.311279297,8.1e-05,0.0,0.0,0.0,0.0001,0.0,0.0,0.0,0.002304,2
1671461850943637889,329993,1671461850974778701,gps,2,1,42.3009697506,-83.6979118115,272.311279297,8.1e-05,0.0,0.0,0.0,0.0001,0.0,0.0,0.0,0.002304,2
1671461850953792666,329994,1671461850984831550,gps,2,1,42.3009697508,-83.6979118118,272.311309814,8.1e-05,0.0,0.0,0.0,0.0001,0.0,0.0,0.0,0.002304,2
1671461850963526906,329995,1671461850994767944,gps,2,1,42.3009697512,-83.6979118102,272.311279297,8.1e-05,0.0,0.0,0.0,0.0001,0.0,0.0,0.0,0.002304,2
1671461850973457078,329996,1671461851004760897,gps,2,1,42.3009697515,-83.6979118105,272.311309814,8.1e-05,0.0,0.0,0.0,0.0001,0.0,0.0,0.0,0.002304,2
1671461850983425167,329997,1671461851014826057,gps,2,1,42.3009697518,-83.6979118108,272.311309814,8.1e-05,0.0,0.0,0.0,0.0001,0.0,0.0,0.0,0.002304,2
1671461850993431988,329998,1671461851024885706,gps,2,1,42.3009697522,-83.6979118093,272.311309814,8.1e-05,0.0,0.0,0.0,0.0001,0.0,0.0,0.0,0.002304,2
1671461851003529571,329999,1671461851034920237,gps,2,1,42.3009697525,-83.6979118096,272.311309814,8.1e-05,0.0,0.0,0.0,0.0001,0.0,0.0,0.0,0.002304,2
1671461851013858740,330000,1671461851044938543,gps,2,1,42.3009697528,-83.6979118099,272.311340332,8.1e-05,0.0,0.0,0.0,0.0001,0.0,0.0,0.0,0.002304,2
1671461851023203974,330001,1671461851054844386,gps,2,1,42.3009697532,-83.6979118083,272.311309814,8.1e-05,0.0,0.0,0.0,0.0001,0.0,0.0,0.0,0.002304,2
1671461851033760661,330002,1671461851064850916,gps,2,1,42.3009697535,-83.6979118086,272.311340332,8.1e-05,0.0,0.0,0.0,0.0001,0.0,0.0,0.0,0.002304,2
1671461851043526572,330003,1671461851074915421,gps,2,1,42.3009697538,-83.697911809,272.311340332,8.1e-05,0.0,0.0,0.0,0.0001,0.0,0.0,0.0,0.002304,2
1671461851053924879,330004,1671461851084845819,gps,2,1,42.3009697534,-83.697911807,272.311401367,8.1e-05,0.0,0.0,0.0,0.0001,0.0,0.0,0.0,0.002304,2
1671461851063756163,330005,1671461851094782313,gps,2,1,42.3009697537,-83.6979118073,272.311401367,8.1e-05,0.0,0.0,0.0,0.0001,0.0,0.0,0.0,0.002304,2
1671461851073567525,330006,1671461851104898882,gps,2,1,42.300969754,-83.6979118076,272.311431885,8.1e-05,0.0,0.0,0.0,0.0001,0.0,0.0,0.0,0.002304,2
1671461851083686009,330007,1671461851114901580,gps,2,1,42.3009697536,-83.6979118057,272.311462402,8.1e-05,0.0,0.0,0.0,0.0001,0.0,0.0,0.0,0.002304,2
1671461851093558523,330008,1671461851124801023,gps,2,1,42.3009697539,-83.697911806,272.311462402,8.1e-05,0.0,0.0,0.0,0.0001,0.0,0.0,0.0,0.002304,2
1671461851103618470,330009,1671461851134855799,gps,2,1,42.3009697542,-83.6979118062,272.31149292,8.1e-05,0.0,0.0,0.0,0.0001,0.0,0.0,0.0,0.002304,2
1671461851113455801,330010,1671461851144799459,gps,2,1,42.3009697538,-83.6979118044,272.311523438,8.1e-05,0.0,0.0,0.0,0.0001,0.0,0.0,0.0,0.002304,2
1671461851123426310,330011,1671461851154767068,gps,2,1,42.3009697541,-83.6979118047,272.311553955,8.1e-05,0.0,0.0,0.0,0.0001,0.0,0.0,0.0,0.002304,2
1671461851133547468,330012,1671461851164849332,gps,2,1,42.3009697544,-83.6979118049,272.311553955,8.1e-05,0.0,0.0,0.0,0.0001,0.0,0.0,0.0,0.002304,2
1671461851143391263,330013,1671461851174788289,gps,2,1,42.3009697539,-83.6979118032,272.311584473,8.1e-05,0.0,0.0,0.0,0.0001,0.0,0.0,0.0,0.002304,2
1671461851153560266,330014,1671461851184774954,gps,2,1,42.3009697542,-83.6979118035,272.311584473,8.1e-05,0.0,0.0,0.0,0.0001,0.0,0.0,0.0,0.002304,2
1671461851163413999,330015,1671461851194848902,gps,2,1,42.3009697544,-83.6979118038,272.31161499,8.1e-05,0.0,0.0,0.0,0.0001,0.0,0.0,0.0,0.002304,2
1671461851173903837,330016,1671461851204871819,gps,2,1,42.3009697539,-83.6979118021,272.311645508,8.1e-05,0.0,0.0,0.0,0.0001,0.0,0.0,0.0,0.002304,2
1671461851183324660,330017,1671461851214779822,gps,2,1,42.3009697542,-83.6979118024,272.311645508,8.1e-05,0.0,0.0,0.0,0.0001,0.0,0.0,0.0,0.002304,2
1671461851193787792,330018,1671461851224839671,gps,2,1,42.3009697544,-83.6979118026,272.311676025,8.1e-05,0.0,0.0,0.0,0.0001,0.0,0.0,0.0,0.002304,2
1671461851203983585,330019,1671461851234805933,gps,2,1,42.3009697539,-83.697911801,272.311706543,8.1e-05,0.0,0.0,0.0,0.0001,0.0,0.0,0.0,0.002304,2
1671461851213628200,330020,1671461851244797363,gps,2,1,42.3009697542,-83.6979118013,272.311706543,8.1e-05,0.0,0.0,0.0,0.0001,0.0,0.0,0.0,0.002304,2
1671461851223520086,330021,1671461851254847545,gps,2,1,42.3009697544,-83.6979118015,272.311706543,8.1e-05,0.0,0.0,0.0,0.0001,0.0,0.0,0.0,0.002304,2
1671461851233290444,330022,1671461851264777846,gps,2,1,42.300969754,-83.6979118,272.311737061,8.1e-05,0.0,0.0,0.0,0.0001,0.0,0.0,0.0,0.002304,2
1671461851243531658,330023,1671461851274877058,gps,2,1,42.3009697542,-83.6979118002,272.311767578,8.1e-05,0.0,0.0,0.0,0.0001,0.0,0.0,0.0,0.002304,2
1671461851253680986,330024,1671461851284842256,gps,2,1,42.3009697544,-83.6979118005,272.311767578,0.000121,0.0,0.0,0.0,0.000144,0.0,0.0,0.0,0.002401,2
1671461851263289752,330025,1671461851294790856,gps,2,1,42.300969754,-83.697911799,272.311828613,0.000121,0.0,0.0,0.0,0.000144,0.0,0.0,0.0,0.002401,2
1671461851273367278,330026,1671461851304782210,gps,2,1,42.3009697543,-83.6979117992,272.311828613,0.000121,0.0,0.0,0.0,0.000144,0.0,0.0,0.0,0.002401,2
1671461851283458970,330027,1671461851314848627,gps,2,1,42.3009697546,-83.6979117995,272.311828613,0.000121,0.0,0.0,0.0,0.000144,0.0,0.0,0.0,0.002401,2
1671461851293695830,330028,1671461851324771850,gps,2,1,42.3009697542,-83.697911798,272.311859131,0.000121,0.0,0.0,0.0,0.000144,0.0,0.0,0.0,0.002401,2
1671461851303459770,330029,1671461851334791442,gps,2,1,42.3009697545,-83.6979117982,272.311889648,0.000121,0.0,0.0,0.0,0.000144,0.0,0.0,0.0,0.002401,2
1671461851313307416,330030,1671461851344842501,gps,2,1,42.3009697548,-83.6979117985,272.311889648,0.000121,0.0,0.0,0.0,0.000144,0.0,0.0,0.0,0.002401,2
1671461851323136959,330031,1671461851354783634,gps,2,1,42.3009697544,-83.697911797,272.311920166,0.000121,0.0,0.0,0.0,0.000144,0.0,0.0,0.0,0.002401,2
1671461851333856231,330032,1671461851364794023,gps,2,1,42.3009697547,-83.6979117972,272.311950684,0.000121,0.0,0.0,0.0,0.000144,0.0,0.0,0.0,0.002401,2
1671461851343795363,330033,1671461851374852962,gps,2,1,42.300969755,-83.6979117975,272.311950684,0.000121,0.0,0.0,0.0,0.000144,0.0,0.0,0.0,0.002401,2
1671461851353833817,330034,1671461851384873233,gps,2,1,42.3009697548,-83.6979117961,272.311981201,0.000121,0.0,0.0,0.0,0.000144,0.0,0.0,0.0,0.002401,2
1671461851363667714,330035,1671461851394792591,gps,2,1,42.3009697551,-83.6979117963,272.312011719,0.000121,0.0,0.0,0.0,0.000144,0.0,0.0,0.0,0.002401,2
1671461851373555729,330036,1671461851404860405,gps,2,1,42.3009697554,-83.6979117965,272.312011719,0.000121,0.0,0.0,0.0,0.000144,0.0,0.0,0.0,0.002401,2
1671461851383482173,330037,1671461851414767330,gps,2,1,42.3009697552,-83.6979117953,272.312042236,0.000121,0.0,0.0,0.0,0.000144,0.0,0.0,0.0,0.002401,2
1671461851393539892,330038,1671461851424792043,gps,2,1,42.3009697555,-83.6979117955,272.312042236,0.000121,0.0,0.0,0.0,0.000144,0.0,0.0,0.0,0.002401,2
1671461851403693418,330039,1671461851434847902,gps,2,1,42.3009697558,-83.6979117957,272.312072754,0.000121,0.0,0.0,0.0,0.000144,0.0,0.0,0.0,0.002401,2
1671461851413532238,330040,1671461851444773861,gps,2,1,42.3009697556,-83.6979117945,272.312072754,0.000121,0.0,0.0,0.0,0.000144,0.0,0.0,0.0,0.002401,2
1671461851423500025,330041,1671461851454920493,gps,2,1,42.3009697559,-83.6979117947,272.312072754,0.000121,0.0,0.0,0.0,0.000144,0.0,0.0,0.0,0.002401,2
1671461851433362577,330042,1671461851464795245,gps,2,1,42.3009697562,-83.6979117949,272.312103271,0.000121,0.0,0.0,0.0,0.000144,0.0,0.0,0.0,0.002401,2
1671461851443327804,330043,1671461851474782064,gps,2,1,42.300969756,-83.6979117937,272.312103271,0.000121,0.0,0.0,0.0,0.000144,0.0,0.0,0.0,0.002401,2
1671461851453743598,330044,1671461851484840548,gps,2,1,42.3009697563,-83.6979117939,272.312133789,0.000121,0.0,0.0,0.0,0.000144,0.0,0.0,0.0,0.002401,2
1671461851463203204,330045,1671461851494792736,gps,2,1,42.3009697566,-83.6979117941,272.312133789,0.000121,0.0,0.0,0.0,0.000144,0.0,0.0,0.0,0.002401,2
1671461851473677154,330046,1671461851504773391,gps,2,1,42.3009697564,-83.6979117929,272.312133789,0.000121,0.0,0.0,0.0,0.000144,0.0,0.0,0.0,0.002401,2
1671461851483456766,330047,1671461851514785678,gps,2,1,42.3009697566,-83.6979117931,272.312164307,0.000121,0.0,0.0,0.0,0.000144,0.0,0.0,0.0,0.002401,2
1671461851493551079,330048,1671461851524931910,gps,2,1,42.3009697569,-83.6979117933,272.312164307,0.000121,0.0,0.0,0.0,0.000144,0.0,0.0,0.0,0.002401,2
1671461851503738727,330049,1671461851534850951,gps,2,1,42.3009697567,-83.6979117922,272.312194824,0.000121,0.0,0.0,0.0,0.000144,0.0,0.0,0.0,0.002401,2
1671461851513531602,330050,1671461851544918764,gps,2,1,42.300969757,-83.6979117924,272.312194824,0.000121,0.0,0.0,0.0,0.000144,0.0,0.0,0.0,0.002401,2
1671461851523487688,330051,1671461851554822397,gps,2,1,42.3009697572,-83.6979117926,272.312225342,0.000121,0.0,0.0,0.0,0.000144,0.0,0.0,0.0,0.002401,2
1671461851533415820,330052,1671461851564844019,gps,2,1,42.3009697566,-83.6979117929,272.312072754,0.000121,0.0,0.0,0.0,0.000144,0.0,0.0,0.0,0.002401,2
1671461851543519362,330053,1671461851574929918,gps,2,1,42.3009697568,-83.6979117931,272.312103271,0.000121,0.0,0.0,0.0,0.000144,0.0,0.0,0.0,0.002401,2
1671461851553298867,330054,1671461851584897066,gps,2,1,42.3009697571,-83.6979117933,272.312103271,0.000121,0.0,0.0,0.0,0.000144,0.0,0.0,0.0,0.002401,2
1671461851563404685,330055,1671461851594805157,gps,2,1,42.3009697565,-83.6979117936,272.311981201,0.000121,0.0,0.0,0.0,0.000144,0.0,0.0,0.0,0.002401,2
1671461851573561467,330056,1671461851604890337,gps,2,1,42.3009697567,-83.6979117938,272.312011719,0.000121,0.0,0.0,0.0,0.000144,0.0,0.0,0.0,0.002401,2
1671461851583235547,330057,1671461851614812304,gps,2,1,42.3009697569,-83.697911794,272.312011719,0.000121,0.0,0.0,0.0,0.000144,0.0,0.0,0.0,0.002401,2
1671461851593725032,330058,1671461851624779256,gps,2,1,42.3009697564,-83.6979117942,272.311889648,0.000121,0.0,0.0,0.0,0.000144,0.0,0.0,0.0,0.002401,2
1671461851603672765,330059,1671461851634793504,gps,2,1,42.3009697566,-83.6979117944,272.311920166,0.000121,0.0,0.0,0.0,0.000144,0.0,0.0,0.0,0.002401,2
1671461851613638180,330060,1671461851644845421,gps,2,1,42.3009697569,-83.6979117947,272.311920166,0.000121,0.0,0.0,0.0,0.000144,0.0,0.0,0.0,0.002401,2
1671461851623529937,330061,1671461851654790568,gps,2,1,42.3009697564,-83.6979117949,272.311828613,0.000121,0.0,0.0,0.0,0.000144,0.0,0.0,0.0,0.002401,2
1671461851633854069,330062,1671461851664861034,gps,2,1,42.3009697566,-83.6979117951,272.311828613,0.000121,0.0,0.0,0.0,0.000144,0.0,0.0,0.0,0.002401,2
1671461851643746990,330063,1671461851674847618,gps,2,1,42.3009697569,-83.6979117954,272.311828613,0.000121,0.0,0.0,0.0,0.000144,0.0,0.0,0.0,0.002401,2
1671461851653469493,330064,1671461851684848837,gps,2,1,42.3009697564,-83.6979117956,272.311737061,0.000121,0.0,0.0,0.0,0.000144,0.0,0.0,0.0,0.002401,2
1671461851663561900,330065,1671461851694851972,gps,2,1,42.3009697567,-83.6979117958,272.311767578,0.000121,0.0,0.0,0.0,0.000144,0.0,0.0,0.0,0.002401,2
1671461851673461783,330066,1671461851704865526,gps,2,1,42.300969757,-83.697911796,272.311767578,0.000121,0.0,0.0,0.0,0.000144,0.0,0.0,0.0,0.002401,2
1671461851683483234,330067,1671461851714790824,gps,2,1,42.3009697565,-83.6979117962,272.311676025,0.000121,0.0,0.0,0.0,0.000144,0.0,0.0,0.0,0.002401,2
1671461851693497699,330068,1671461851724841945,gps,2,1,42.3009697568,-83.6979117964,272.311706543,0.000121,0.0,0.0,0.0,0.000144,0.0,0.0,0.0,0.002401,2
1671461851703381689,330069,1671461851734793918,gps,2,1,42.3009697571,-83.6979117966,272.311706543,0.000121,0.0,0.0,0.0,0.000144,0.0,0.0,0.0,0.002401,2
1671461851713285202,330070,1671461851744800385,gps,2,1,42.3009697567,-83.6979117968,272.31161499,0.000121,0.0,0.0,0.0,0.000144,0.0,0.0,0.0,0.002401,2
1671461851723245708,330071,1671461851754797569,gps,2,1,42.300969757,-83.697911797,272.311645508,0.000121,0.0,0.0,0.0,0.000144,0.0,0.0,0.0,0.002401,2
1671461851733401257,330072,1671461851764856544,gps,2,1,42.3009697573,-83.6979117973,272.311645508,0.000121,0.0,0.0,0.0,0.000144,0.0,0.0,0.0,0.002401,2
1671461851743835678,330073,1671461851774925619,gps,2,1,42.3009697569,-83.6979117974,272.311553955,0.000121,0.0,0.0,0.0,0.000144,0.0,0.0,0.0,0.002401,2
1671461851753967139,330074,1671461851784815468,gps,2,1,42.3009697572,-83.6979117976,272.311584473,0.000121,0.0,0.0,0.0,0.000144,0.0,0.0,0.0,0.002401,2
1671461851763720963,330075,1671461851794872859,gps,2,1,42.3009697575,-83.6979117979,272.311584473,0.000121,0.0,0.0,0.0,0.000144,0.0,0.0,0.0,0.002401,2
