%time,field.header.seq,field.header.stamp,field.header.frame_id,field.status.status,field.status.service,field.latitude,field.longitude,field.altitude,field.position_covariance0,field.position_covariance1,field.position_covariance2,field.position_covariance3,field.position_covariance4,field.position_covariance5,field.position_covariance6,field.position_covariance7,field.position_covariance8,field.position_covariance_type
1671462093743200309,354273,1671462093778147660,gps,2,1,42.3013832792,-83.6987111471,272.295654297,0.0001,0.0,0.0,0.0,0.000144,0.0,0.0,0.0,0.002116,2
1671462093753614299,354274,1671462093788108111,gps,2,1,42.3013832777,-83.698711147,272.295684814,0.0001,0.0,0.0,0.0,0.000144,0.0,0.0,0.0,0.002116,2
1671462093763654103,354275,1671462093798137891,gps,2,1,42.3013832782,-83.6987111473,272.295684814,0.0001,0.0,0.0,0.0,0.000144,0.0,0.0,0.0,0.002116,2
1671462093773336506,354276,1671462093808152525,gps,2,1,42.3013832787,-83.6987111476,272.295684814,0.0001,0.0,0.0,0.0,0.000144,0.0,0.0,0.0,0.002116,2
1671462093783600337,354277,1671462093818102088,gps,2,1,42.3013832773,-83.6987111476,272.295715332,0.0001,0.0,0.0,0.0,0.000144,0.0,0.0,0.0,0.002116,2
1671462093793494031,354278,1671462093828103035,gps,2,1,42.3013832778,-83.6987111478,272.295715332,0.0001,0.0,0.0,0.0,0.000144,0.0,0.0,0.0,0.002116,2
1671462093803517601,354279,1671462093838186087,gps,2,1,42.3013832782,-83.6987111481,272.295715332,0.0001,0.0,0.0,0.0,0.000144,0.0,0.0,0.0,0.002116,2
1671462093813270579,354280,1671462093848104078,gps,2,1,42.3013832769,-83.6987111481,272.295776367,0.0001,0.0,0.0,0.0,0.000144,0.0,0.0,0.0,0.002116,2
1671462093823419614,354281,1671462093858104126,gps,2,1,42.3013832774,-83.6987111483,272.295776367,0.0001,0.0,0.0,0.0,0.000144,0.0,0.0,0.0,0.002116,2
1671462093833549207,354282,1671462093868229942,gps,2,1,42.3013832779,-83.6987111486,272.295776367,0.0001,0.0,0.0,0.0,0.000144,0.0,0.0,0.0,0.002116,2
1671462093843391980,354283,1671462093878110050,gps,2,1,42.3013832766,-83.6987111487,272.295806885,0.0001,0.0,0.0,0.0,0.000144,0.0,0.0,0.0,0.002116,2
1671462093853417142,354284,1671462093888093124,gps,2,1,42.3013832771,-83.698711149,272.295806885,0.0001,0.0,0.0,0.0,0.000144,0.0,0.0,0.0,0.002116,2
1671462093863369777,354285,1671462093898151478,gps,2,1,42.3013832776,-83.6987111493,272.295806885,0.0001,0.0,0.0,0.0,0.000144,0.0,0.0,0.0,0.002116,2
1671462093873287292,354286,1671462093908083503,gps,2,1,42.3013832764,-83.6987111493,272.295837402,0.0001,0.0,0.0,0.0,0.000144,0.0,0.0,0.0,0.002116,2
1671462093883129698,354287,1671462093918092087,gps,2,1,42.3013832769,-83.6987111497,272.295837402,0.0001,0.0,0.0,0.0,0.000144,0.0,0.0,0.0,0.002116,2
1671462093893519866,354288,1671462093928177045,gps,2,1,42.3013832774,-83.69871115,272.295837402,0.0001,0.0,0.0,0.0,0.000144,0.0,0.0,0.0,0.002116,2
1671462093903661825,354289,1671462093938232023,gps,2,1,42.3013832762,-83.6987111501,272.295898438,0.0001,0.0,0.0,0.0,0.000144,0.0,0.0,0.0,0.002116,2
1671462093913461893,354290,1671462093948110765,gps,2,1,42.3013832767,-83.6987111505,272.295898438,0.0001,0.0,0.0,0.0,0.000144,0.0,0.0,0.0,0.002116,2
1671462093923337529,354291,1671462093958149734,gps,2,1,42.3013832772,-83.6987111508,272.295898438,0.0001,0.0,0.0,0.0,0.000144,0.0,0.0,0.0,0.002116,2
1671462093933463685,354292,1671462093968102971,gps,2,1,42.301383276,-83.6987111509,272.295928955,0.0001,0.0,0.0,0.0,0.000144,0.0,0.0,0.0,0.002116,2
1671462093943327219,354293,1671462093978116918,gps,2,1,42.3013832764,-83.6987111513,272.295928955,0.0001,0.0,0.0,0.0,0.000144,0.0,0.0,0.0,0.002116,2
1671462093953377445,354294,1671462093988153800,gps,2,1,42.3013832769,-83.6987111517,272.295928955,0.0001,0.0,0.0,0.0,0.000144,0.0,0.0,0.0,0.002116,2
1671462093963384090,354295,1671462093998096125,gps,2,1,42.3013832758,-83.6987111518,272.29598999,0.0001,0.0,0.0,0.0,0.000144,0.0,0.0,0.0,0.002116,2
1671462093973409397,354296,1671462094008114418,gps,2,1,42.3013832762,-83.6987111522,272.29598999,0.0001,0.0,0.0,0.0,0.000144,0.0,0.0,0.0,0.002116,2
1671462093983361941,354297,1671462094018148493,gps,2,1,42.3013832767,-83.6987111527,272.29598999,0.0001,0.0,0.0,0.0,0.000144,0.0,0.0,0.0,0.002116,2
1671462093993436969,354298,1671462094028088889,gps,2,1,42.3013832756,-83.6987111528,272.296020508,0.0001,0.0,0.0,0.0,0.000144,0.0,0.0,0.0,0.002116,2
1671462094003353443,354299,1671462094038228586,gps,2,1,42.301383276,-83.6987111532,272.296020508,0.0001,0.0,0.0,0.0,0.000144,0.0,0.0,0.0,0.002116,2
1671462094013236842,354300,1671462094048240952,gps,2,1,42.3013832765,-83.6987111536,272.296020508,0.0001,0.0,0.0,0.0,0.000144,0.0,0.0,0.0,0.002116,2
1671462094023781737,354301,1671462094058220051,gps,2,1,42.3013832754,-83.6987111537,272.296081543,0.0001,0.0,0.0,0.0,0.000144,0.0,0.0,0.0,0.002116,2
1671462094033562918,354302,1671462094068179269,gps,2,1,42.3013832759,-83.6987111541,272.296081543,0.0001,0.0,0.0,0.0,0.000144,0.0,0.0,0.0,0.002116,2
1671462094043727746,354303,1671462094078165924,gps,2,1,42.3013832763,-83.6987111545,272.296081543,0.0001,0.0,0.0,0.0,0.000144,0.0,0.0,0.0,0.002116,2
1671462094053531670,354304,1671462094088167875,gps,2,1,42.3013832744,-83.6987111536,272.296173096,0.0001,0.0,0.0,0.0,0.000144,0.0,0.0,0.0,0.002116,2
1671462094063475229,354305,1671462094098112261,gps,2,1,42.3013832748,-83.698711154,272.296173096,0.0001,0.0,0.0,0.0,0.000144,0.0,0.0,0.0,0.002116,2
1671462094073594682,354306,1671462094108243457,gps,2,1,42.3013832753,-83.6987111544,272.296173096,0.0001,0.0,0.0,0.0,0.000144,0.0,0.0,0.0,0.002116,2
1671462094083472422,354307,1671462094118268124,gps,2,1,42.3013832734,-83.6987111535,272.296234131,0.0001,0.0,0.0,0.0,0.000144,0.0,0.0,0.0,0.002116,2
1671462094093419626,354308,1671462094128195910,gps,2,1,42.3013832738,-83.6987111538,272.296234131,0.0001,0.0,0.0,0.0,0.000144,0.0,0.0,0.0,0.002116,2
1671462094103441144,354309,1671462094138125501,gps,2,1,42.3013832743,-83.6987111542,272.296264648,0.0001,0.0,0.0,0.0,0.000144,0.0,0.0,0.0,0.002116,2
1671462094113603702,354310,1671462094148115903,gps,2,1,42.3013832725,-83.6987111533,272.296325684,0.0001,0.0,0.0,0.0,0.000144,0.0,0.0,0.0,0.002116,2
1671462094123452042,354311,1671462094158183263,gps,2,1,42.3013832729,-83.6987111537,272.296325684,0.0001,0.0,0.0,0.0,0.000144,0.0,0.0,0.0,0.002116,2
1671462094133311485,354312,1671462094168102692,gps,2,1,42.3013832734,-83.698711154,272.296325684,0.0001,0.0,0.0,0.0,0.000144,0.0,0.0,0.0,0.002116,2
1671462094143292333,354313,1671462094178107623,gps,2,1,42.3013832716,-83.6987111533,272.296386719,0.0001,0.0,0.0,0.0,0.000144,0.0,0.0,0.0,0.002116,2
1671462094153318361,354314,1671462094188199278,gps,2,1,42.3013832721,-83.6987111537,272.296386719,0.0001,0.0,0.0,0.0,0.000144,0.0,0.0,0.0,0.002116,2
1671462094163624185,354315,1671462094198173969,gps,2,1,42.3013832726,-83.698711154,272.296417236,0.0001,0.0,0.0,0.0,0.000144,0.0,0.0,0.0,0.002116,2
1671462094173358502,354316,1671462094208101680,gps,2,1,42.3013832709,-83.6987111534,272.296478271,0.0001,0.0,0.0,0.0,0.000144,0.0,0.0,0.0,0.002116,2
1671462094183675218,354317,1671462094218109631,gps,2,1,42.3013832714,-83.6987111537,272.296478271,0.0001,0.0,0.0,0.0,0.000144,0.0,0.0,0.0,0.002116,2
1671462094193601630,354318,1671462094228170717,gps,2,1,42.3013832719,-83.6987111541,272.296478271,0.0001,0.0,0.0,0.0,0.000144,0.0,0.0,0.0,0.002116,2
1671462094203153606,354319,1671462094238111943,gps,2,1,42.3013832702,-83.6987111535,272.296539307,0.0001,0.0,0.0,0.0,0.000144,0.0,0.0,0.0,0.002116,2
1671462094213588405,354320,1671462094248112249,gps,2,1,42.3013832707,-83.6987111539,272.296539307,0.0001,0.0,0.0,0.0,0.000144,0.0,0.0,0.0,0.002116,2
1671462094223276637,354321,1671462094258171098,gps,2,1,42.3013832711,-83.6987111543,272.296569824,0.0001,0.0,0.0,0.0,0.000144,0.0,0.0,0.0,0.002116,2
1671462094233423773,354322,1671462094268093562,gps,2,1,42.3013832695,-83.6987111538,272.296630859,0.0001,0.0,0.0,0.0,0.000144,0.0,0.0,0.0,0.002116,2
1671462094243332556,354323,1671462094278177142,gps,2,1,42.30138327,-83.6987111542,272.296630859,0.0001,0.0,0.0,0.0,0.000144,0.0,0.0,0.0,0.002116,2
1671462094253278143,354324,1671462094288101228,gps,2,1,42.3013832705,-83.6987111546,272.296630859,0.0001,0.0,0.0,0.0,0.000144,0.0,0.0,0.0,0.002116,2
1671462094263290868,354325,1671462094298131136,gps,2,1,42.3013832689,-83.6987111542,272.296691895,0.0001,0.0,0.0,0.0,0.000144,0.0,0.0,0.0,0.002116,2
1671462094273203412,354326,1671462094308111533,gps,2,1,42.3013832694,-83.6987111546,272.296691895,0.0001,0.0,0.0,0.0,0.000144,0.0,0.0,0.0,0.002116,2
1671462094283180390,354327,1671462094318160974,gps,2,1,42.3013832698,-83.698711155,272.296691895,0.0001,0.0,0.0,0.0,0.000144,0.0,0.0,0.0,0.002116,2
1671462094293192027,354328,1671462094328093498,gps,2,1,42.3013832683,-83.6987111547,272.29675293,0.0001,0.0,0.0,0.0,0.000144,0.0,0.0,0.0,0.002116,2
1671462094303181778,354329,1671462094338107671,gps,2,1,42.3013832688,-83.6987111551,272.29675293,0.0001,0.0,0.0,0.0,0.000144,0.0,0.0,0.0,0.002116,2
1671462094313519927,354330,1671462094348165199,gps,2,1,42.3013832692,-83.6987111556,272.29675293,0.0001,0.0,0.0,0.0,0.000144,0.0,0.0,0.0,0.002116,2
1671462094323017715,354331,1671462094358102344,gps,2,1,42.3013832678,-83.6987111552,272.296813965,0.0001,0.0,0.0,0.0,0.000144,0.0,0.0,0.0,0.002116,2
1671462094333489493,354332,1671462094368196909,gps,2,1,42.3013832682,-83.6987111556,272.296813965,0.0001,0.0,0.0,0.0,0.000144,0.0,0.0,0.0,0.002116,2
1671462094343515026,354333,1671462094378185213,gps,2,1,42.3013832686,-83.6987111561,272.296813965,0.0001,0.0,0.0,0.0,0.000144,0.0,0.0,0.0,0.002116,2
1671462094353439504,354334,1671462094388102495,gps,2,1,42.3013832672,-83.6987111557,272.296844482,0.0001,0.0,0.0,0.0,0.000144,0.0,0.0,0.0,0.002116,2
1671462094363284136,354335,1671462094398195830,gps,2,1,42.3013832676,-83.6987111561,272.296875,0.0001,0.0,0.0,0.0,0.000144,0.0,0.0,0.0,0.002116,2
1671462094373465521,354336,1671462094408124699,gps,2,1,42.3013832681,-83.6987111566,272.296875,0.0001,0.0,0.0,0.0,0.000144,0.0,0.0,0.0,0.002116,2
1671462094383327452,354337,1671462094418119797,gps,2,1,42.3013832667,-83.6987111561,272.296936035,0.0001,0.0,0.0,0.0,0.000144,0.0,0.0,0.0,0.002116,2
1671462094393543274,354338,1671462094428177909,gps,2,1,42.3013832672,-83.6987111565,272.296936035,0.0001,0.0,0.0,0.0,0.000144,0.0,0.0,0.0,0.002116,2
1671462094403468531,354339,1671462094438258047,gps,2,1,42.3013832676,-83.6987111569,272.296936035,0.0001,0.0,0.0,0.0,0.000144,0.0,0.0,0.0,0.002116,2
1671462094413390521,354340,1671462094448114365,gps,2,1,42.3013832663,-83.6987111564,272.29699707,0.0001,0.0,0.0,0.0,0.000144,0.0,0.0,0.0,0.002116,2
1671462094423399607,354341,1671462094458154182,gps,2,1,42.3013832667,-83.6987111568,272.297027588,0.0001,0.0,0.0,0.0,0.000144,0.0,0.0,0.0,0.002116,2
1671462094433349636,354342,1671462094468103160,gps,2,1,42.3013832672,-83.6987111572,272.297027588,0.0001,0.0,0.0,0.0,0.000144,0.0,0.0,0.0,0.002116,2
1671462094443253473,354343,1671462094478090802,gps,2,1,42.3013832659,-83.6987111567,272.297088623,0.0001,0.0,0.0,0.0,0.000144,0.0,0.0,0.0,0.002116,2
1671462094453528087,354344,1671462094488170480,gps,2,1,42.3013832664,-83.6987111571,272.297088623,0.0001,0.0,0.0,0.0,0.000144,0.0,0.0,0.0,0.002116,2
1671462094463653762,354345,1671462094498112145,gps,2,1,42.3013832668,-83.6987111575,272.297119141,0.0001,0.0,0.0,0.0,0.000144,0.0,0.0,0.0,0.002116,2
1671462094473259414,354346,1671462094508105162,gps,2,1,42.3013832656,-83.6987111571,272.297180176,0.0001,0.0,0.0,0.0,0.000144,0.0,0.0,0.0,0.002116,2
1671462094483742670,354347,1671462094518177318,gps,2,1,42.3013832661,-83.6987111575,272.297180176,0.0001,0.0,0.0,0.0,0.000144,0.0,0.0,0.0,0.002116,2
1671462094493652061,354348,1671462094528114449,gps,2,1,42.3013832665,-83.6987111579,272.297180176,0.0001,0.0,0.0,0.0,0.000144,0.0,0.0,0.0,0.002116,2
1671462094503421503,354349,1671462094538162208,gps,2,1,42.3013832654,-83.6987111575,272.297241211,0.0001,0.0,0.0,0.0,0.000144,0.0,0.0,0.0,0.002116,2
1671462094513511493,354350,1671462094548256389,gps,2,1,42.3013832659,-83.698711158,272.297241211,0.0001,0.0,0.0,0.0,0.000144,0.0,0.0,0.0,0.002116,2
1671462094523332856,354351,1671462094558143611,gps,2,1,42.3013832663,-83.6987111584,272.297241211,0.0001,0.0,0.0,0.0,0.000144,0.0,0.0,0.0,0.002116,2
1671462094533522511,354352,1671462094568166054,gps,2,1,42.3013832644,-83.6987111581,272.297393799,0.0001,0.0,0.0,0.0,0.000144,0.0,0.0,0.0,0.002116,2
1671462094543473736,354353,1671462094578271537,gps,2,1,42.3013832648,-83.6987111586,272.297393799,0.0001,0.0,0.0,0.0,0.000144,0.0,0.0,0.0,0.002116,2
1671462094553463782,354354,1671462094588180923,gps,2,1,42.3013832653,-83.698711159,272.297393799,0.0001,0.0,0.0,0.0,0.000144,0.0,0.0,0.0,0.002116,2
1671462094563354469,354355,1671462094598168203,gps,2,1,42.3013832635,-83.6987111587,272.297515869,0.0001,0.0,0.0,0.0,0.000144,0.0,0.0,0.0,0.002116,2
1671462094573443801,354356,1671462094608249080,gps,2,1,42.3013832639,-83.6987111592,272.297546387,0.0001,0.0,0.0,0.0,0.000144,0.0,0.0,0.0,0.002116,2
1671462094583441499,354357,1671462094618227501,gps,2,1,42.3013832644,-83.6987111597,272.297546387,0.0001,0.0,0.0,0.0,0.000144,0.0,0.0,0.0,0.002116,2
1671462094593519940,354358,1671462094628100874,gps,2,1,42.3013832626,-83.6987111594,272.297668457,0.0001,0.0,0.0,0.0,0.000144,0.0,0.0,0.0,0.002116,2
1671462094603567654,354359,1671462094638165693,gps,2,1,42.301383263,-83.6987111599,272.297668457,0.0001,0.0,0.0,0.0,0.000144,0.0,0.0,0.0,0.002116,2
1671462094613415351,354360,1671462094648185149,gps,2,1,42.3013832635,-83.6987111604,272.297668457,0.0001,0.0,0.0,0.0,0.000144,0.0,0.0,0.0,0.002116,2
1671462094623544578,354361,1671462094658098776,gps,2,1,42.3013832618,-83.6987111601,272.297790527,0.0001,0.0,0.0,0.0,0.000144,0.0,0.0,0.0,0.002116,2
1671462094633498066,354362,1671462094668192905,gps,2,1,42.3013832622,-83.6987111606,272.297821045,0.0001,0.0,0.0,0.0,0.000144,0.0,0.0,0.0,0.002116,2
1671462094643651429,354363,1671462094678111516,gps,2,1,42.3013832626,-83.698711161,272.297821045,0.0001,0.0,0.0,0.0,0.000144,0.0,0.0,0.0,0.002116,2
1671462094653489627,354364,1671462094688236181,gps,2,1,42.3013832611,-83.6987111608,272.297943115,0.0001,0.0,0.0,0.0,0.000144,0.0,0.0,0.0,0.002116,2
1671462094663455649,354365,1671462094698177693,gps,2,1,42.3013832615,-83.6987111612,272.297943115,0.0001,0.0,0.0,0.0,0.000144,0.0,0.0,0.0,0.002116,2
1671462094673393521,354366,1671462094708110322,gps,2,1,42.3013832619,-83.6987111616,272.297943115,0.0001,0.0,0.0,0.0,0.000144,0.0,0.0,0.0,0.002116,2
1671462094683417395,354367,1671462094718105971,gps,2,1,42.3013832604,-83.6987111613,272.298065186,0.0001,0.0,0.0,0.0,0.000144,0.0,0.0,0.0,0.002116,2
1671462094693535429,354368,1671462094728169731,gps,2,1,42.3013832608,-83.6987111617,272.298065186,0.0001,0.0,0.0,0.0,0.000144,0.0,0.0,0.0,0.002116,2
1671462094703340025,354369,1671462094738113583,gps,2,1,42.3013832613,-83.6987111621,272.298065186,0.0001,0.0,0.0,0.0,0.000144,0.0,0.0,0.0,0.002116,2
1671462094713531259,354370,1671462094748099512,gps,2,1,42.3013832598,-83.6987111619,272.298187256,0.0001,0.0,0.0,0.0,0.000144,0.0,0.0,0.0,0.002116,2
1671462094723276035,354371,1671462094758101083,gps,2,1,42.3013832602,-83.6987111623,272.298187256,0.0001,0.0,0.0,0.0,0.000144,0.0,0.0,0.0,0.002116,2
1671462094733696378,354372,1671462094768228893,gps,2,1,42.3013832606,-83.6987111627,272.298217773,0.0001,0.0,0.0,0.0,0.000144,0.0,0.0,0.0,0.002116,2
1671462094743149172,354373,1671462094778123037,gps,2,1,42.3013832592,-83.6987111624,272.298309326,0.0001,0.0,0.0,0.0,0.000144,0.0,0.0,0.0,0.002116,2
1671462094753676076,354374,1671462094788118455,gps,2,1,42.3013832596,-83.6987111628,272.298339844,0.0001,0.0,0.0,0.0,0.000144,0.0,0.0,0.0,0.002116,2
1671462094763893218,354375,1671462094798193666,gps,2,1,42.30138326,-83.6987111632,272.298339844,0.0001,0.0,0.0,0.0,0.000144,0.0,0.0,0.0,0.002116,2
1671462094773396131,354376,1671462094808115619,gps,2,1,42.3013832587,-83.698711163,272.298431396,0.0001,0.0,0.0,0.0,0.000144,0.0,0.0,0.0,0.002116,2
1671462094783410719,354377,1671462094818119003,gps,2,1,42.3013832591,-83.6987111634,272.298461914,0.0001,0.0,0.0,0.0,0.000144,0.0,0.0,0.0,0.002116,2
1671462094793747749,354378,1671462094828181813,gps,2,1,42.3013832595,-83.6987111638,272.298461914,0.0001,0.0,0.0,0.0,0.000144,0.0,0.0,0.0,0.002116,2
1671462094803404776,354379,1671462094838127741,gps,2,1,42.3013832582,-83.6987111637,272.298553467,0.0001,0.0,0.0,0.0,0.000144,0.0,0.0,0.0,0.002116,2
1671462094813597691,354380,1671462094848189044,gps,2,1,42.3013832586,-83.6987111642,272.298553467,0.0001,0.0,0.0,0.0,0.000144,0.0,0.0,0.0,0.002116,2
1671462094823425518,354381,1671462094858118868,gps,2,1,42.301383259,-83.6987111646,272.298583984,0.0001,0.0,0.0,0.0,0.000144,0.0,0.0,0.0,0.002116,2
1671462094833362404,354382,1671462094868209212,gps,2,1,42.3013832578,-83.6987111645,272.298675537,0.0001,0.0,0.0,0.0,0.000144,0.0,0.0,0.0,0.002116,2
1671462094843329769,354383,1671462094878115149,gps,2,1,42.3013832582,-83.698711165,272.298675537,0.0001,0.0,0.0,0.0,0.000144,0.0,0.0,0.0,0.002116,2
1671462094853363402,354384,1671462094888165478,gps,2,1,42.3013832586,-83.6987111655,272.298675537,0.0001,0.0,0.0,0.0,0.000144,0.0,0.0,0.0,0.002116,2
1671462094863287752,354385,1671462094898105778,gps,2,1,42.3013832574,-83.6987111654,272.29876709,0.0001,0.0,0.0,0.0,0.000144,0.0,0.0,0.0,0.002116,2
1671462094873364426,354386,1671462094908115476,gps,2,1,42.3013832578,-83.6987111659,272.29876709,0.0001,0.0,0.0,0.0,0.000144,0.0,0.0,0.0,0.002116,2
1671462094883835658,354387,1671462094918192355,gps,2,1,42.3013832583,-83.6987111663,272.298797607,0.0001,0.0,0.0,0.0,0.000144,0.0,0.0,0.0,0.002116,2
1671462094893783449,354388,1671462094928119821,gps,2,1,42.3013832572,-83.6987111662,272.298858643,0.0001,0.0,0.0,0.0,0.000144,0.0,0.0,0.0,0.002116,2
1671462094903795890,354389,1671462094938222857,gps,2,1,42.3013832576,-83.6987111667,272.29888916,0.0001,0.0,0.0,0.0,0.000144,0.0,0.0,0.0,0.002116,2
1671462094913217956,354390,1671462094948182504,gps,2,1,42.301383258,-83.6987111672,272.29888916,0.0001,0.0,0.0,0.0,0.000144,0.0,0.0,0.0,0.002116,2
1671462094923555172,354391,1671462094958117272,gps,2,1,42.3013832569,-83.6987111671,272.298980713,0.0001,0.0,0.0,0.0,0.000144,0.0,0.0,0.0,0.002116,2
1671462094933345937,354392,1671462094968122301,gps,2,1,42.3013832574,-83.6987111676,272.29901123,0.0001,0.0,0.0,0.0,0.000144,0.0,0.0,0.0,0.002116,2
1671462094943542597,354393,1671462094978186293,gps,2,1,42.3013832578,-83.698711168,272.29901123,0.0001,0.0,0.0,0.0,0.000144,0.0,0.0,0.0,0.002116,2
1671462094953394860,354394,1671462094988122582,gps,2,1,42.3013832567,-83.6987111679,272.299102783,0.0001,0.0,0.0,0.0,0.000144,0.0,0.0,0.0,0.002116,2
1671462094963314189,354395,1671462094998123607,gps,2,1,42.3013832571,-83.6987111684,272.299102783,0.0001,0.0,0.0,0.0,0.000144,0.0,0.0,0.0,0.002116,2
1671462094973270089,354396,1671462095008149439,gps,2,1,42.3013832575,-83.6987111688,272.299133301,0.0001,0.0,0.0,0.0,0.000144,0.0,0.0,0.0,0.002116,2
1671462094983350110,354397,1671462095018110696,gps,2,1,42.3013832565,-83.6987111688,272.299194336,0.0001,0.0,0.0,0.0,0.000144,0.0,0.0,0.0,0.002116,2
1671462094993587338,354398,1671462095028120830,gps,2,1,42.3013832569,-83.6987111692,272.299224854,0.0001,0.0,0.0,0.0,0.000144,0.0,0.0,0.0,0.002116,2
1671462095003370886,354399,1671462095038347289,gps,2,1,42.3013832573,-83.6987111697,272.299224854,0.0001,0.0,0.0,0.0,0.000144,0.0,0.0,0.0,0.002116,2
1671462095013284590,354400,1671462095048146861,gps,2,1,42.301383256,-83.6987111699,272.299316406,0.0001,0.0,0.0,0.0,0.000144,0.0,0.0,0.0,0.002116,2
1671462095023619662,354401,1671462095058205128,gps,2,1,42.3013832564,-83.6987111704,272.299316406,0.0001,0.0,0.0,0.0,0.000144,0.0,0.0,0.0,0.002116,2
1671462095033932111,354402,1671462095068250234,gps,2,1,42.3013832568,-83.6987111709,272.299346924,0.0001,0.0,0.0,0.0,0.000144,0.0,0.0,0.0,0.002116,2
1671462095043798017,354403,1671462095078196153,gps,2,1,42.3013832555,-83.6987111711,272.299407959,0.0001,0.0,0.0,0.0,0.000144,0.0,0.0,0.0,0.002116,2
1671462095053609070,354404,1671462095088135612,gps,2,1,42.3013832559,-83.6987111715,272.299438477,0.0001,0.0,0.0,0.0,0.000144,0.0,0.0,0.0,0.002116,2
1671462095063701152,354405,1671462095098236532,gps,2,1,42.3013832563,-83.698711172,272.299438477,0.0001,0.0,0.0,0.0,0.000144,0.0,0.0,0.0,0.002116,2
1671462095073499806,354406,1671462095108232172,gps,2,1,42.301383255,-83.6987111722,272.299530029,0.0001,0.0,0.0,0.0,0.000144,0.0,0.0,0.0,0.002116,2
1671462095083470524,354407,1671462095118290307,gps,2,1,42.3013832554,-83.6987111727,272.299530029,0.0001,0.0,0.0,0.0,0.000144,0.0,0.0,0.0,0.002116,2
1671462095093691127,354408,1671462095128201081,gps,2,1,42.3013832558,-83.6987111731,272.299530029,0.0001,0.0,0.0,0.0,0.000144,0.0,0.0,0.0,0.002116,2
1671462095103382945,354409,1671462095138121122,gps,2,1,42.3013832546,-83.6987111733,272.299621582,0.0001,0.0,0.0,0.0,0.000144,0.0,0.0,0.0,0.002116,2
1671462095113655749,354410,1671462095148124739,gps,2,1,42.301383255,-83.6987111738,272.299621582,0.0001,0.0,0.0,0.0,0.000144,0.0,0.0,0.0,0.002116,2
1671462095123413658,354411,1671462095158202258,gps,2,1,42.3013832554,-83.6987111743,272.2996521,0.0001,0.0,0.0,0.0,0.000144,0.0,0.0,0.0,0.002116,2
1671462095133422155,354412,1671462095168110254,gps,2,1,42.3013832542,-83.6987111744,272.299713135,0.0001,0.0,0.0,0.0,0.000144,0.0,0.0,0.0,0.002116,2
1671462095143304316,354413,1671462095178113085,gps,2,1,42.3013832545,-83.6987111749,272.299713135,0.0001,0.0,0.0,0.0,0.000144,0.0,0.0,0.0,0.002116,2
1671462095153721669,354414,1671462095188263794,gps,2,1,42.3013832549,-83.6987111754,272.299743652,0.0001,0.0,0.0,0.0,0.000144,0.0,0.0,0.0,0.002116,2
1671462095163298641,354415,1671462095198123522,gps,2,1,42.3013832537,-83.6987111755,272.299804688,0.0001,0.0,0.0,0.0,0.000144,0.0,0.0,0.0,0.002116,2
1671462095173143915,354416,1671462095208122790,gps,2,1,42.3013832541,-83.698711176,272.299804688,0.0001,0.0,0.0,0.0,0.000144,0.0,0.0,0.0,0.002116,2
1671462095183888715,354417,1671462095218186367,gps,2,1,42.3013832545,-83.6987111765,272.299835205,0.0001,0.0,0.0,0.0,0.000144,0.0,0.0,0.0,0.002116,2
1671462095193693802,354418,1671462095228112720,gps,2,1,42.3013832534,-83.6987111767,272.299865723,0.0001,0.0,0.0,0.0,0.000144,0.0,0.0,0.0,0.002116,2
1671462095203566867,354419,1671462095238116242,gps,2,1,42.3013832538,-83.6987111773,272.29989624,0.0001,0.0,0.0,0.0,0.000144,0.0,0.0,0.0,0.002116,2
1671462095213452423,354420,1671462095248191989,gps,2,1,42.3013832542,-83.6987111778,272.29989624,0.0001,0.0,0.0,0.0,0.000144,0.0,0.0,0.0,0.002116,2
1671462095223729020,354421,1671462095258125434,gps,2,1,42.3013832531,-83.698711178,272.299957275,0.0001,0.0,0.0,0.0,0.000144,0.0,0.0,0.0,0.002116,2
1671462095233632919,354422,1671462095268125446,gps,2,1,42.3013832535,-83.6987111785,272.299987793,0.0001,0.0,0.0,0.0,0.000144,0.0,0.0,0.0,0.002116,2
1671462095243607215,354423,1671462095278194695,gps,2,1,42.3013832539,-83.6987111791,272.299987793,0.0001,0.0,0.0,0.0,0.000144,0.0,0.0,0.0,0.002116,2
1671462095253373161,354424,1671462095288124862,gps,2,1,42.3013832528,-83.6987111793,272.300048828,6.4e-05,0.0,0.0,0.0,8.1e-05,0.0,0.0,0.0,0.002025,2
1671462095263372574,354425,1671462095298144471,gps,2,1,42.3013832532,-83.6987111798,272.300048828,6.4e-05,0.0,0.0,0.0,8.1e-05,0.0,0.0,0.0,0.002025,2
1671462095273313337,354426,1671462095308167661,gps,2,1,42.3013832536,-83.6987111803,272.300079346,6.4e-05,0.0,0.0,0.0,8.1e-05,0.0,0.0,0.0,0.002025,2
1671462095283263002,354427,1671462095318117133,gps,2,1,42.3013832526,-83.6987111804,272.300140381,6.4e-05,0.0,0.0,0.0,8.1e-05,0.0,0.0,0.0,0.002025,2
1671462095293522951,354428,1671462095328111119,gps,2,1,42.301383253,-83.6987111809,272.300140381,6.4e-05,0.0,0.0,0.0,8.1e-05,0.0,0.0,0.0,0.002025,2
1671462095303399151,354429,1671462095338197040,gps,2,1,42.3013832534,-83.6987111814,272.300140381,6.4e-05,0.0,0.0,0.0,8.1e-05,0.0,0.0,0.0,0.002025,2
1671462095313438509,354430,1671462095348123897,gps,2,1,42.3013832524,-83.6987111816,272.300201416,6.4e-05,0.0,0.0,0.0,8.1e-05,0.0,0.0,0.0,0.002025,2
1671462095323478864,354431,1671462095358140746,gps,2,1,42.3013832528,-83.6987111821,272.300231934,6.4e-05,0.0,0.0,0.0,8.1e-05,0.0,0.0,0.0,0.002025,2
1671462095333688971,354432,1671462095368268159,gps,2,1,42.3013832533,-83.6987111825,272.300231934,6.4e-05,0.0,0.0,0.0,8.1e-05,0.0,0.0,0.0,0.002025,2
1671462095343119590,354433,1671462095378134899,gps,2,1,42.3013832524,-83.6987111827,272.300292969,6.4e-05,0.0,0.0,0.0,8.1e-05,0.0,0.0,0.0,0.002025,2
1671462095353448835,354434,1671462095388134172,gps,2,1,42.3013832528,-83.6987111833,272.300292969,6.4e-05,0.0,0.0,0.0,8.1e-05,0.0,0.0,0.0,0.002025,2
1671462095363705239,354435,1671462095398191556,gps,2,1,42.3013832532,-83.6987111837,272.300323486,6.4e-05,0.0,0.0,0.0,8.1e-05,0.0,0.0,0.0,0.002025,2
1671462095373704188,354436,1671462095408127868,gps,2,1,42.3013832524,-83.6987111839,272.300354004,6.4e-05,0.0,0.0,0.0,8.1e-05,0.0,0.0,0.0,0.002025,2
1671462095383652268,354437,1671462095418132134,gps,2,1,42.3013832529,-83.6987111845,272.300384521,6.4e-05,0.0,0.0,0.0,8.1e-05,0.0,0.0,0.0,0.002025,2
1671462095393752818,354438,1671462095428250970,gps,2,1,42.3013832533,-83.698711185,272.300384521,6.4e-05,0.0,0.0,0.0,8.1e-05,0.0,0.0,0.0,0.002025,2
1671462095403417342,354439,1671462095438257133,gps,2,1,42.3013832525,-83.6987111853,272.300445557,6.4e-05,0.0,0.0,0.0,8.1e-05,0.0,0.0,0.0,0.002025,2
1671462095413555804,354440,1671462095448125346,gps,2,1,42.3013832529,-83.698711186,272.300445557,6.4e-05,0.0,0.0,0.0,8.1e-05,0.0,0.0,0.0,0.002025,2
1671462095423448857,354441,1671462095458181487,gps,2,1,42.3013832534,-83.6987111865,272.300445557,6.4e-05,0.0,0.0,0.0,8.1e-05,0.0,0.0,0.0,0.002025,2
1671462095433504273,354442,1671462095468114908,gps,2,1,42.3013832524,-83.6987111869,272.300506592,6.4e-05,0.0,0.0,0.0,8.1e-05,0.0,0.0,0.0,0.002025,2
1671462095443451931,354443,1671462095478127474,gps,2,1,42.3013832527,-83.6987111875,272.300506592,6.4e-05,0.0,0.0,0.0,8.1e-05,0.0,0.0,0.0,0.002025,2
1671462095453571027,354444,1671462095488179282,gps,2,1,42.3013832531,-83.6987111881,272.300537109,6.4e-05,0.0,0.0,0.0,8.1e-05,0.0,0.0,0.0,0.002025,2
1671462095463541151,354445,1671462095498134827,gps,2,1,42.3013832521,-83.6987111885,272.300567627,6.4e-05,0.0,0.0,0.0,8.1e-05,0.0,0.0,0.0,0.002025,2
1671462095473589513,354446,1671462095508126061,gps,2,1,42.3013832522,-83.6987111891,272.300567627,6.4e-05,0.0,0.0,0.0,8.1e-05,0.0,0.0,0.0,0.002025,2
1671462095483355813,354447,1671462095518202196,gps,2,1,42.3013832524,-83.6987111898,272.300598145,6.4e-05,0.0,0.0,0.0,8.1e-05,0.0,0.0,0.0,0.002025,2
1671462095493533666,354448,1671462095528174254,gps,2,1,42.3013832509,-83.6987111901,272.300628662,6.4e-05,0.0,0.0,0.0,8.1e-05,0.0,0.0,0.0,0.002025,2
1671462095503443488,354449,1671462095538232875,gps,2,1,42.3013832505,-83.6987111907,272.300628662,6.4e-05,0.0,0.0,0.0,8.1e-05,0.0,0.0,0.0,0.002025,2
1671462095513319841,354450,1671462095548224363,gps,2,1,42.3013832504,-83.6987111913,272.300628662,6.4e-05,0.0,0.0,0.0,8.1e-05,0.0,0.0,0.0,0.002025,2
1671462095523392094,354451,1671462095558203012,gps,2,1,42.3013832485,-83.6987111915,272.30065918,6.4e-05,0.0,0.0,0.0,8.1e-05,0.0,0.0,0.0,0.002025,2
1671462095533389571,354452,1671462095568212003,gps,2,1,42.3013832474,-83.698711192,272.30065918,6.4e-05,0.0,0.0,0.0,8.1e-05,0.0,0.0,0.0,0.002025,2
1671462095543543850,354453,1671462095578181043,gps,2,1,42.3013832469,-83.6987111924,272.30065918,6.4e-05,0.0,0.0,0.0,8.1e-05,0.0,0.0,0.0,0.002025,2
1671462095553416733,354454,1671462095588204153,gps,2,1,42.3013832431,-83.6987111916,272.300537109,6.4e-05,0.0,0.0,0.0,8.1e-05,0.0,0.0,0.0,0.002025,2
1671462095563268991,354455,1671462095598155942,gps,2,1,42.3013832413,-83.6987111918,272.300537109,6.4e-05,0.0,0.0,0.0,8.1e-05,0.0,0.0,0.0,0.002025,2
1671462095573348267,354456,1671462095608181494,gps,2,1,42.30138324,-83.6987111922,272.300537109,6.4e-05,0.0,0.0,0.0,8.1e-05,0.0,0.0,0.0,0.002025,2
1671462095583702850,354457,1671462095618215320,gps,2,1,42.3013832357,-83.6987111912,272.300415039,6.4e-05,0.0,0.0,0.0,8.1e-05,0.0,0.0,0.0,0.002025,2
1671462095593660680,354458,1671462095628174062,gps,2,1,42.3013832331,-83.6987111913,272.300415039,6.4e-05,0.0,0.0,0.0,8.1e-05,0.0,0.0,0.0,0.002025,2
1671462095603185888,354459,1671462095638125396,gps,2,1,42.3013832313,-83.6987111915,272.300415039,6.4e-05,0.0,0.0,0.0,8.1e-05,0.0,0.0,0.0,0.002025,2
1671462095613507418,354460,1671462095648130682,gps,2,1,42.3013832262,-83.6987111904,272.300292969,6.4e-05,0.0,0.0,0.0,8.1e-05,0.0,0.0,0.0,0.002025,2
1671462095623528727,354461,1671462095658168271,gps,2,1,42.3013832231,-83.6987111904,272.300292969,6.4e-05,0.0,0.0,0.0,8.1e-05,0.0,0.0,0.0,0.002025,2
1671462095633499661,354462,1671462095668176330,gps,2,1,42.3013832204,-83.6987111905,272.300292969,6.4e-05,0.0,0.0,0.0,8.1e-05,0.0,0.0,0.0,0.002025,2
1671462095643355142,354463,1671462095678149935,gps,2,1,42.3013832147,-83.6987111893,272.300170898,6.4e-05,0.0,0.0,0.0,8.1e-05,0.0,0.0,0.0,0.002025,2
1671462095653615706,354464,1671462095688227492,gps,2,1,42.3013832106,-83.6987111891,272.300170898,6.4e-05,0.0,0.0,0.0,8.1e-05,0.0,0.0,0.0,0.002025,2
1671462095663202552,354465,1671462095698196942,gps,2,1,42.3013832074,-83.698711189,272.300170898,6.4e-05,0.0,0.0,0.0,8.1e-05,0.0,0.0,0.0,0.002025,2
1671462095673299847,354466,1671462095708127096,gps,2,1,42.3013832009,-83.6987111878,272.300079346,6.4e-05,0.0,0.0,0.0,8.1e-05,0.0,0.0,0.0,0.002025,2
1671462095683478938,354467,1671462095718184516,gps,2,1,42.301383196,-83.6987111875,272.300079346,6.4e-05,0.0,0.0,0.0,8.1e-05,0.0,0.0,0.0,0.002025,2
1671462095693477482,354468,1671462095728125334,gps,2,1,42.3013831918,-83.6987111874,272.300079346,6.4e-05,0.0,0.0,0.0,8.1e-05,0.0,0.0,0.0,0.002025,2
1671462095703393761,354469,1671462095738114191,gps,2,1,42.3013831845,-83.698711186,272.299987793,6.4e-05,0.0,0.0,0.0,8.1e-05,0.0,0.0,0.0,0.002025,2
1671462095713285052,354470,1671462095748184796,gps,2,1,42.3013831786,-83.6987111856,272.299987793,6.4e-05,0.0,0.0,0.0,8.1e-05,0.0,0.0,0.0,0.002025,2
1671462095723195776,354471,1671462095758122992,gps,2,1,42.3013831736,-83.6987111854,272.299987793,6.4e-05,0.0,0.0,0.0,8.1e-05,0.0,0.0,0.0,0.002025,2
1671462095733292904,354472,1671462095768134796,gps,2,1,42.3013831654,-83.6987111839,272.299865723,6.4e-05,0.0,0.0,0.0,8.1e-05,0.0,0.0,0.0,0.002025,2
1671462095743752008,354473,1671462095778192638,gps,2,1,42.3013831585,-83.6987111834,272.299865723,6.4e-05,0.0,0.0,0.0,8.1e-05,0.0,0.0,0.0,0.002025,2
1671462095753573978,354474,1671462095788173403,gps,2,1,42.3013831525,-83.698711183,272.299865723,6.4e-05,0.0,0.0,0.0,8.1e-05,0.0,0.0,0.0,0.002025,2
1671462095763558293,354475,1671462095798159900,gps,2,1,42.3013831434,-83.6987111815,272.29977417,6.4e-05,0.0,0.0,0.0,8.1e-05,0.0,0.0,0.0,0.002025,2
1671462095773364251,354476,1671462095808192356,gps,2,1,42.3013831355,-83.6987111809,272.299743652,6.4e-05,0.0,0.0,0.0,8.1e-05,0.0,0.0,0.0,0.002025,2
1671462095783263602,354477,1671462095818139160,gps,2,1,42.3013831285,-83.6987111803,272.299743652,6.4e-05,0.0,0.0,0.0,8.1e-05,0.0,0.0,0.0,0.002025,2
1671462095793456759,354478,1671462095828117762,gps,2,1,42.3013831184,-83.6987111788,272.2996521,6.4e-05,0.0,0.0,0.0,8.1e-05,0.0,0.0,0.0,0.002025,2
1671462095803410231,354479,1671462095838197347,gps,2,1,42.3013831095,-83.6987111781,272.299621582,6.4e-05,0.0,0.0,0.0,8.1e-05,0.0,0.0,0.0,0.002025,2
1671462095813132947,354480,1671462095848143500,gps,2,1,42.3013831014,-83.6987111775,272.299621582,6.4e-05,0.0,0.0,0.0,8.1e-05,0.0,0.0,0.0,0.002025,2
1671462095823301446,354481,1671462095858117892,gps,2,1,42.3013830903,-83.6987111759,272.299530029,6.4e-05,0.0,0.0,0.0,8.1e-05,0.0,0.0,0.0,0.002025,2
1671462095833311031,354482,1671462095868264143,gps,2,1,42.3013830804,-83.6987111751,272.299499512,6.4e-05,0.0,0.0,0.0,8.1e-05,0.0,0.0,0.0,0.002025,2
1671462095843490306,354483,1671462095878122045,gps,2,1,42.3013830713,-83.6987111744,272.299468994,6.4e-05,0.0,0.0,0.0,8.1e-05,0.0,0.0,0.0,0.002025,2
1671462095853495677,354484,1671462095888111450,gps,2,1,42.3013830592,-83.6987111728,272.299407959,6.4e-05,0.0,0.0,0.0,8.1e-05,0.0,0.0,0.0,0.002025,2
1671462095863335776,354485,1671462095898209889,gps,2,1,42.3013830482,-83.698711172,272.299377441,6.4e-05,0.0,0.0,0.0,8.1e-05,0.0,0.0,0.0,0.002025,2
1671462095873245140,354486,1671462095908140866,gps,2,1,42.301383038,-83.6987111712,272.299346924,6.4e-05,0.0,0.0,0.0,8.1e-05,0.0,0.0,0.0,0.002025,2
1671462095883460973,354487,1671462095918132800,gps,2,1,42.3013830249,-83.6987111695,272.299255371,6.4e-05,0.0,0.0,0.0,8.1e-05,0.0,0.0,0.0,0.002025,2
1671462095893737925,354488,1671462095928190302,gps,2,1,42.3013830128,-83.6987111686,272.299224854,6.4e-05,0.0,0.0,0.0,8.1e-05,0.0,0.0,0.0,0.002025,2
1671462095903632793,354489,1671462095938228665,gps,2,1,42.3013830016,-83.6987111678,272.299224854,6.4e-05,0.0,0.0,0.0,8.1e-05,0.0,0.0,0.0,0.002025,2
1671462095913487345,354490,1671462095948143230,gps,2,1,42.3013829875,-83.698711166,272.299102783,6.4e-05,0.0,0.0,0.0,8.1e-05,0.0,0.0,0.0,0.002025,2
1671462095923334797,354491,1671462095958196242,gps,2,1,42.3013829741,-83.698711165,272.299072266,6.4e-05,0.0,0.0,0.0,8.1e-05,0.0,0.0,0.0,0.002025,2
1671462095933266439,354492,1671462095968134858,gps,2,1,42.3013829618,-83.698711164,272.299072266,6.4e-05,0.0,0.0,0.0,8.1e-05,0.0,0.0,0.0,0.002025,2
1671462095943390373,354493,1671462095978137466,gps,2,1,42.3013829466,-83.6987111622,272.298980713,6.4e-05,0.0,0.0,0.0,8.1e-05,0.0,0.0,0.0,0.002025,2
1671462095953461475,354494,1671462095988197206,gps,2,1,42.3013829322,-83.698711161,272.298950195,6.4e-05,0.0,0.0,0.0,8.1e-05,0.0,0.0,0.0,0.002025,2
1671462095963447578,354495,1671462095998127260,gps,2,1,42.3013829186,-83.69871116,272.298919678,6.4e-05,0.0,0.0,0.0,8.1e-05,0.0,0.0,0.0,0.002025,2
1671462095973307025,354496,1671462096008112339,gps,2,1,42.3013829022,-83.698711158,272.298828125,6.4e-05,0.0,0.0,0.0,8.1e-05,0.0,0.0,0.0,0.002025,2
1671462095983298631,354497,1671462096018171988,gps,2,1,42.3013828865,-83.6987111567,272.298797607,6.4e-05,0.0,0.0,0.0,8.1e-05,0.0,0.0,0.0,0.002025,2
1671462095993436163,354498,1671462096028130908,gps,2,1,42.3013828719,-83.6987111556,272.298797607,6.4e-05,0.0,0.0,0.0,8.1e-05,0.0,0.0,0.0,0.002025,2
1671462096003283439,354499,1671462096038181597,gps,2,1,42.3013828544,-83.6987111535,272.298706055,6.4e-05,0.0,0.0,0.0,8.1e-05,0.0,0.0,0.0,0.002025,2
1671462096013635200,354500,1671462096048224235,gps,2,1,42.3013828376,-83.698711152,272.298675537,6.4e-05,0.0,0.0,0.0,8.1e-05,0.0,0.0,0.0,0.002025,2
1671462096023579065,354501,1671462096058239800,gps,2,1,42.3013828216,-83.6987111508,272.29864502,6.4e-05,0.0,0.0,0.0,8.1e-05,0.0,0.0,0.0,0.002025,2
1671462096033617932,354502,1671462096068239076,gps,2,1,42.3013828033,-83.6987111479,272.298461914,6.4e-05,0.0,0.0,0.0,8.1e-05,0.0,0.0,0.0,0.002025,2
1671462096043719833,354503,1671462096078195331,gps,2,1,42.3013827853,-83.6987111463,272.298461914,6.4e-05,0.0,0.0,0.0,8.1e-05,0.0,0.0,0.0,0.002025,2
1671462096053639262,354504,1671462096088181992,gps,2,1,42.3013827683,-83.6987111448,272.298431396,6.4e-05,0.0,0.0,0.0,8.1e-05,0.0,0.0,0.0,0.002025,2
1671462096063515989,354505,1671462096098203156,gps,2,1,42.3013827489,-83.6987111417,272.298248291,6.4e-05,0.0,0.0,0.0,8.1e-05,0.0,0.0,0.0,0.002025,2
1671462096073361573,354506,1671462096108223031,gps,2,1,42.3013827295,-83.6987111399,272.298217773,6.4e-05,0.0,0.0,0.0,8.1e-05,0.0,0.0,0.0,0.002025,2
1671462096083465392,354507,1671462096118296896,gps,2,1,42.3013827115,-83.6987111382,272.298217773,6.4e-05,0.0,0.0,0.0,8.1e-05,0.0,0.0,0.0,0.002025,2
1671462096093478165,354508,1671462096128154579,gps,2,1,42.3013826909,-83.698711135,272.298034668,6.4e-05,0.0,0.0,0.0,8.1e-05,0.0,0.0,0.0,0.002025,2
1671462096103422238,354509,1671462096138193692,gps,2,1,42.3013826706,-83.698711133,272.29800415,6.4e-05,0.0,0.0,0.0,8.1e-05,0.0,0.0,0.0,0.002025,2
1671462096113460558,354510,1671462096148136275,gps,2,1,42.301382651,-83.6987111312,272.29800415,6.4e-05,0.0,0.0,0.0,8.1e-05,0.0,0.0,0.0,0.002025,2
1671462096123309203,354511,1671462096158131259,gps,2,1,42.3013826292,-83.6987111278,272.297821045,6.4e-05,0.0,0.0,0.0,8.1e-05,0.0,0.0,0.0,0.002025,2
1671462096133246463,354512,1671462096168198369,gps,2,1,42.3013826076,-83.6987111257,272.297790527,6.4e-05,0.0,0.0,0.0,8.1e-05,0.0,0.0,0.0,0.002025,2
1671462096143395850,354513,1671462096178134580,gps,2,1,42.301382587,-83.6987111237,272.297790527,6.4e-05,0.0,0.0,0.0,8.1e-05,0.0,0.0,0.0,0.002025,2
1671462096153673135,354514,1671462096188225016,gps,2,1,42.3013825641,-83.6987111201,272.297607422,6.4e-05,0.0,0.0,0.0,8.1e-05,0.0,0.0,0.0,0.002025,2
1671462096163372143,354515,1671462096198192817,gps,2,1,42.3013825411,-83.6987111178,272.297576904,6.4e-05,0.0,0.0,0.0,8.1e-05,0.0,0.0,0.0,0.002025,2
1671462096173682965,354516,1671462096208130339,gps,2,1,42.3013825193,-83.6987111156,272.297576904,6.4e-05,0.0,0.0,0.0,8.1e-05,0.0,0.0,0.0,0.002025,2
1671462096183717206,354517,1671462096218136551,gps,2,1,42.3013824951,-83.698711112,272.297393799,6.4e-05,0.0,0.0,0.0,8.1e-05,0.0,0.0,0.0,0.002025,2
1671462096193362886,354518,1671462096228197288,gps,2,1,42.3013824708,-83.6987111095,272.297363281,6.4e-05,0.0,0.0,0.0,8.1e-05,0.0,0.0,0.0,0.002025,2
1671462096203548963,354519,1671462096238142061,gps,2,1,42.3013824477,-83.6987111071,272.297332764,6.4e-05,0.0,0.0,0.0,8.1e-05,0.0,0.0,0.0,0.002025,2
1671462096213306191,354520,1671462096248136288,gps,2,1,42.3013824221,-83.6987111034,272.297180176,6.4e-05,0.0,0.0,0.0,8.1e-05,0.0,0.0,0.0,0.002025,2
1671462096223520580,354521,1671462096258212639,gps,2,1,42.3013823964,-83.6987111007,272.297119141,6.4e-05,0.0,0.0,0.0,8.1e-05,0.0,0.0,0.0,0.002025,2
1671462096233286654,354522,1671462096268146366,gps,2,1,42.3013823718,-83.6987110982,272.297088623,6.4e-05,0.0,0.0,0.0,8.1e-05,0.0,0.0,0.0,0.002025,2
1671462096243502333,354523,1671462096278141555,gps,2,1,42.3013823448,-83.6987110943,272.296936035,6.4e-05,0.0,0.0,0.0,8.1e-05,0.0,0.0,0.0,0.002025,2
1671462096253441152,354524,1671462096288206083,gps,2,1,42.3013823176,-83.6987110914,272.296875,0.0001,0.0,0.0,0.0,0.000144,0.0,0.0,0.0,0.002116,2
1671462096263324934,354525,1671462096298183467,gps,2,1,42.3013822916,-83.6987110888,272.296844482,0.0001,0.0,0.0,0.0,0.000144,0.0,0.0,0.0,0.002116,2
1671462096273286908,354526,1671462096308128518,gps,2,1,42.3013822631,-83.6987110847,272.296661377,0.0001,0.0,0.0,0.0,0.000144,0.0,0.0,0.0,0.002116,2
1671462096283429033,354527,1671462096318197662,gps,2,1,42.3013822344,-83.6987110817,272.296630859,0.0001,0.0,0.0,0.0,0.000144,0.0,0.0,0.0,0.002116,2
1671462096293257037,354528,1671462096328131691,gps,2,1,42.3013822069,-83.6987110788,272.296569824,0.0001,0.0,0.0,0.0,0.000144,0.0,0.0,0.0,0.002116,2
1671462096303236230,354529,1671462096338145369,gps,2,1,42.3013821769,-83.6987110746,272.296417236,0.0001,0.0,0.0,0.0,0.000144,0.0,0.0,0.0,0.002116,2
1671462096313520106,354530,1671462096348201245,gps,2,1,42.3013821467,-83.6987110714,272.296356201,0.0001,0.0,0.0,0.0,0.000144,0.0,0.0,0.0,0.002116,2
1671462096323464551,354531,1671462096358139136,gps,2,1,42.3013821177,-83.6987110683,272.296295166,0.0001,0.0,0.0,0.0,0.000144,0.0,0.0,0.0,0.002116,2
1671462096333408274,354532,1671462096368280314,gps,2,1,42.3013820861,-83.698711064,272.296142578,0.0001,0.0,0.0,0.0,0.000144,0.0,0.0,0.0,0.002116,2
1671462096343567079,354533,1671462096378216764,gps,2,1,42.3013820542,-83.6987110606,272.296081543,0.0001,0.0,0.0,0.0,0.000144,0.0,0.0,0.0,0.002116,2
1671462096353388293,354534,1671462096388148650,gps,2,1,42.3013820237,-83.6987110574,272.296051025,0.0001,0.0,0.0,0.0,0.000144,0.0,0.0,0.0,0.002116,2
1671462096363250173,354535,1671462096398141260,gps,2,1,42.3013819905,-83.6987110528,272.29586792,0.0001,0.0,0.0,0.0,0.000144,0.0,0.0,0.0,0.002116,2
1671462096373249858,354536,1671462096408219621,gps,2,1,42.301381957,-83.6987110493,272.295806885,0.0001,0.0,0.0,0.0,0.000144,0.0,0.0,0.0,0.002116,2
1671462096383286389,354537,1671462096418151695,gps,2,1,42.3013819248,-83.6987110459,272.295776367,0.0001,0.0,0.0,0.0,0.000144,0.0,0.0,0.0,0.002116,2
1671462096393450069,354538,1671462096428126259,gps,2,1,42.30138189,-83.6987110412,272.295593262,0.0001,0.0,0.0,0.0,0.000144,0.0,0.0,0.0,0.002116,2
1671462096403376464,354539,1671462096438229506,gps,2,1,42.3013818547,-83.6987110375,272.295532227,0.0001,0.0,0.0,0.0,0.000144,0.0,0.0,0.0,0.002116,2
1671462096413272691,354540,1671462096448188225,gps,2,1,42.3013818209,-83.698711034,272.295471191,0.0001,0.0,0.0,0.0,0.000144,0.0,0.0,0.0,0.002116,2
1671462096423377000,354541,1671462096458126252,gps,2,1,42.3013817843,-83.6987110292,272.295318604,0.0001,0.0,0.0,0.0,0.000144,0.0,0.0,0.0,0.002116,2
1671462096433169329,354542,1671462096468138061,gps,2,1,42.3013817471,-83.6987110253,272.295227051,0.0001,0.0,0.0,0.0,0.000144,0.0,0.0,0.0,0.002116,2
1671462096443629740,354543,1671462096478262490,gps,2,1,42.3013817116,-83.6987110216,272.295166016,0.0001,0.0,0.0,0.0,0.000144,0.0,0.0,0.0,0.002116,2
1671462096453593640,354544,1671462096488155081,gps,2,1,42.3013816732,-83.6987110167,272.295013428,0.0001,0.0,0.0,0.0,0.000144,0.0,0.0,0.0,0.002116,2
1671462096463854783,354545,1671462096498206209,gps,2,1,42.3013816341,-83.6987110126,272.294921875,0.0001,0.0,0.0,0.0,0.000144,0.0,0.0,0.0,0.002116,2
1671462096473557889,354546,1671462096508136400,gps,2,1,42.3013815966,-83.6987110087,272.29486084,0.0001,0.0,0.0,0.0,0.000144,0.0,0.0,0.0,0.002116,2
1671462096483774321,354547,1671462096518127374,gps,2,1,42.3013815561,-83.6987110037,272.294677734,0.0001,0.0,0.0,0.0,0.000144,0.0,0.0,0.0,0.002116,2
1671462096493654856,354548,1671462096528138195,gps,2,1,42.3013815148,-83.6987109995,272.294586182,0.0001,0.0,0.0,0.0,0.000144,0.0,0.0,0.0,0.002116,2
1671462096503587162,354549,1671462096538344474,gps,2,1,42.3013814754,-83.6987109954,272.294494629,0.0001,0.0,0.0,0.0,0.000144,0.0,0.0,0.0,0.002116,2
1671462096513520221,354550,1671462096548225648,gps,2,1,42.3013814324,-83.698710988,272.294311523,0.0001,0.0,0.0,0.0,0.000144,0.0,0.0,0.0,0.002116,2
1671462096523421047,354551,1671462096558160037,gps,2,1,42.3013813888,-83.6987109836,272.294189453,0.0001,0.0,0.0,0.0,0.000144,0.0,0.0,0.0,0.002116,2
1671462096533461131,354552,1671462096568251353,gps,2,1,42.3013813472,-83.6987109793,272.2940979,0.0001,0.0,0.0,0.0,0.000144,0.0,0.0,0.0,0.002116,2
1671462096543626018,354553,1671462096578200918,gps,2,1,42.3013813018,-83.6987109718,272.293914795,0.0001,0.0,0.0,0.0,0.000144,0.0,0.0,0.0,0.002116,2
1671462096553281409,354554,1671462096588238958,gps,2,1,42.3013812559,-83.6987109672,272.293792725,0.0001,0.0,0.0,0.0,0.000144,0.0,0.0,0.0,0.002116,2
1671462096563308046,354555,1671462096598267777,gps,2,1,42.301381212,-83.6987109628,272.293701172,0.0001,0.0,0.0,0.0,0.000144,0.0,0.0,0.0,0.002116,2
1671462096573444333,354556,1671462096608148401,gps,2,1,42.3013811641,-83.6987109551,272.293487549,0.0001,0.0,0.0,0.0,0.000144,0.0,0.0,0.0,0.002116,2
1671462096583541938,354557,1671462096618241386,gps,2,1,42.3013811155,-83.6987109502,272.293365479,0.0001,0.0,0.0,0.0,0.000144,0.0,0.0,0.0,0.002116,2
1671462096593728133,354558,1671462096628200633,gps,2,1,42.3013810691,-83.6987109455,272.293273926,0.0001,0.0,0.0,0.0,0.000144,0.0,0.0,0.0,0.002116,2
1671462096603185344,354559,1671462096638140355,gps,2,1,42.3013810186,-83.6987109376,272.293060303,0.0001,0.0,0.0,0.0,0.000144,0.0,0.0,0.0,0.002116,2
1671462096613606620,354560,1671462096648144080,gps,2,1,42.3013809674,-83.6987109324,272.292938232,0.0001,0.0,0.0,0.0,0.000144,0.0,0.0,0.0,0.002116,2
1671462096623637327,354561,1671462096658214405,gps,2,1,42.3013809183,-83.6987109274,272.292816162,0.0001,0.0,0.0,0.0,0.000144,0.0,0.0,0.0,0.002116,2
1671462096633534247,354562,1671462096668141999,gps,2,1,42.3013808651,-83.6987109194,272.292602539,0.0001,0.0,0.0,0.0,0.000144,0.0,0.0,0.0,0.002116,2
1671462096643498077,354563,1671462096678137059,gps,2,1,42.3013808111,-83.6987109139,272.292449951,0.0001,0.0,0.0,0.0,0.000144,0.0,0.0,0.0,0.002116,2
1671462096653634179,354564,1671462096688294982,gps,2,1,42.3013807592,-83.6987109087,272.292327881,0.0001,0.0,0.0,0.0,0.000144,0.0,0.0,0.0,0.002116,2
1671462096663428912,354565,1671462096698159176,gps,2,1,42.3013807031,-83.6987109005,272.29208374,0.0001,0.0,0.0,0.0,0.000144,0.0,0.0,0.0,0.002116,2
1671462096673404144,354566,1671462096708147913,gps,2,1,42.3013806459,-83.6987108948,272.29196167,0.0001,0.0,0.0,0.0,0.000144,0.0,0.0,0.0,0.002116,2
1671462096683318769,354567,1671462096718209914,gps,2,1,42.3013805914,-83.6987108892,272.291809082,0.0001,0.0,0.0,0.0,0.000144,0.0,0.0,0.0,0.002116,2
1671462096693477077,354568,1671462096728129058,gps,2,1,42.3013805322,-83.6987108808,272.291564941,0.0001,0.0,0.0,0.0,0.000144,0.0,0.0,0.0,0.002116,2
1671462096703346657,354569,1671462096738145999,gps,2,1,42.301380472,-83.6987108748,272.291442871,0.0001,0.0,0.0,0.0,0.000144,0.0,0.0,0.0,0.002116,2
1671462096713275668,354570,1671462096748213826,gps,2,1,42.3013804142,-83.698710869,272.291290283,0.0001,0.0,0.0,0.0,0.000144,0.0,0.0,0.0,0.002116,2
1671462096723075593,354571,1671462096758130271,gps,2,1,42.3013803518,-83.6987108605,272.291046143,0.0001,0.0,0.0,0.0,0.000144,0.0,0.0,0.0,0.002116,2
1671462096733120931,354572,1671462096768148400,gps,2,1,42.3013802881,-83.6987108541,272.290893555,0.0001,0.0,0.0,0.0,0.000144,0.0,0.0,0.0,0.002116,2
1671462096743612446,354573,1671462096778214761,gps,2,1,42.3013802274,-83.6987108481,272.290740967,0.0001,0.0,0.0,0.0,0.000144,0.0,0.0,0.0,0.002116,2
1671462096753583643,354574,1671462096788142317,gps,2,1,42.3013801618,-83.6987108392,272.290527344,0.0001,0.0,0.0,0.0,0.000144,0.0,0.0,0.0,0.002116,2
1671462096763842832,354575,1671462096798175082,gps,2,1,42.3013800947,-83.6987108324,272.290374756,0.0001,0.0,0.0,0.0,0.000144,0.0,0.0,0.0,0.002116,2
1671462096773332561,354576,1671462096808193360,gps,2,1,42.3013800305,-83.6987108261,272.290222168,0.0001,0.0,0.0,0.0,0.000144,0.0,0.0,0.0,0.002116,2
1671462096783766822,354577,1671462096818148940,gps,2,1,42.3013799615,-83.6987108168,272.289978027,0.0001,0.0,0.0,0.0,0.000144,0.0,0.0,0.0,0.002116,2
1671462096793459719,354578,1671462096828153338,gps,2,1,42.301379891,-83.6987108097,272.289825439,0.0001,0.0,0.0,0.0,0.000144,0.0,0.0,0.0,0.002116,2
1671462096803410138,354579,1671462096838212811,gps,2,1,42.3013798235,-83.698710803,272.289672852,0.0001,0.0,0.0,0.0,0.000144,0.0,0.0,0.0,0.002116,2
1671462096813685553,354580,1671462096848166033,gps,2,1,42.301379751,-83.6987107933,272.289459229,0.0001,0.0,0.0,0.0,0.000144,0.0,0.0,0.0,0.002116,2
1671462096823316250,354581,1671462096858157480,gps,2,1,42.3013796769,-83.6987107858,272.289276123,0.0001,0.0,0.0,0.0,0.000144,0.0,0.0,0.0,0.002116,2
1671462096833283412,354582,1671462096868301968,gps,2,1,42.3013796058,-83.6987107784,272.289123535,0.0001,0.0,0.0,0.0,0.000144,0.0,0.0,0.0,0.002116,2
1671462096843428706,354583,1671462096878136222,gps,2,1,42.3013795298,-83.6987107684,272.288909912,0.0001,0.0,0.0,0.0,0.000144,0.0,0.0,0.0,0.002116,2
1671462096853618544,354584,1671462096888160577,gps,2,1,42.3013794521,-83.6987107603,272.288726807,0.0001,0.0,0.0,0.0,0.000144,0.0,0.0,0.0,0.002116,2
1671462096863244417,354585,1671462096898200530,gps,2,1,42.3013793774,-83.6987107525,272.288574219,0.0001,0.0,0.0,0.0,0.000144,0.0,0.0,0.0,0.002116,2
1671462096873284271,354586,1671462096908163129,gps,2,1,42.3013792977,-83.6987107421,272.288330078,0.0001,0.0,0.0,0.0,0.000144,0.0,0.0,0.0,0.002116,2
1671462096883500423,354587,1671462096918146123,gps,2,1,42.3013792163,-83.6987107335,272.28817749,0.0001,0.0,0.0,0.0,0.000144,0.0,0.0,0.0,0.002116,2
1671462096893785556,354588,1671462096928222525,gps,2,1,42.3013791379,-83.6987107254,272.288024902,0.0001,0.0,0.0,0.0,0.000144,0.0,0.0,0.0,0.002116,2
1671462096903453806,354589,1671462096938239516,gps,2,1,42.3013790544,-83.6987107145,272.287780762,0.0001,0.0,0.0,0.0,0.000144,0.0,0.0,0.0,0.002116,2
1671462096913524588,354590,1671462096948158786,gps,2,1,42.301378969,-83.6987107055,272.287597656,0.0001,0.0,0.0,0.0,0.000144,0.0,0.0,0.0,0.002116,2
1671462096923604446,354591,1671462096958205849,gps,2,1,42.301378887,-83.6987106971,272.287445068,0.0001,0.0,0.0,0.0,0.000144,0.0,0.0,0.0,0.002116,2
1671462096933342331,354592,1671462096968157486,gps,2,1,42.3013787995,-83.6987106858,272.287231445,0.0001,0.0,0.0,0.0,0.000144,0.0,0.0,0.0,0.002116,2
1671462096943473456,354593,1671462096978159715,gps,2,1,42.3013787103,-83.6987106765,272.28704834,0.0001,0.0,0.0,0.0,0.000144,0.0,0.0,0.0,0.002116,2
1671462096953434123,354594,1671462096988207909,gps,2,1,42.3013786242,-83.6987106674,272.286865234,0.0001,0.0,0.0,0.0,0.000144,0.0,0.0,0.0,0.002116,2
1671462096963314163,354595,1671462096998158320,gps,2,1,42.3013785328,-83.6987106558,272.286651611,0.0001,0.0,0.0,0.0,0.000144,0.0,0.0,0.0,0.002116,2
1671462096973234102,354596,1671462097008146602,gps,2,1,42.3013784394,-83.6987106461,272.286437988,0.0001,0.0,0.0,0.0,0.000144,0.0,0.0,0.0,0.002116,2
1671462096983296978,354597,1671462097018205565,gps,2,1,42.3013783495,-83.6987106364,272.2862854,0.0001,0.0,0.0,0.0,0.000144,0.0,0.0,0.0,0.002116,2
1671462096993300598,354598,1671462097028131842,gps,2,1,42.3013782541,-83.6987106246,272.28604126,0.0001,0.0,0.0,0.0,0.000144,0.0,0.0,0.0,0.002116,2
1671462097003315819,354599,1671462097038213890,gps,2,1,42.3013781566,-83.6987106144,272.285827637,0.0001,0.0,0.0,0.0,0.000144,0.0,0.0,0.0,0.002116,2
1671462097013664736,354600,1671462097048298813,gps,2,1,42.3013780625,-83.6987106047,272.285644531,0.0001,0.0,0.0,0.0,0.000144,0.0,0.0,0.0,0.002116,2
1671462097023518032,354601,1671462097058181483,gps,2,1,42.301377963,-83.6987105926,272.285400391,0.0001,0.0,0.0,0.0,0.000144,0.0,0.0,0.0,0.002116,2
1671462097033879122,354602,1671462097068212257,gps,2,1,42.3013778614,-83.6987105823,272.28515625,0.0001,0.0,0.0,0.0,0.000144,0.0,0.0,0.0,0.002116,2
1671462097043646318,354603,1671462097078295037,gps,2,1,42.3013777633,-83.6987105723,272.284973145,0.0001,0.0,0.0,0.0,0.000144,0.0,0.0,0.0,0.002116,2
1671462097053594918,354604,1671462097088151243,gps,2,1,42.301377659,-83.6987105588,272.284698486,0.0001,0.0,0.0,0.0,0.000144,0.0,0.0,0.0,0.002116,2
1671462097063372502,354605,1671462097098196208,gps,2,1,42.3013775532,-83.6987105484,272.284454346,0.0001,0.0,0.0,0.0,0.000144,0.0,0.0,0.0,0.002116,2
1671462097073489799,354606,1671462097108275102,gps,2,1,42.3013774508,-83.6987105382,272.284210205,0.0001,0.0,0.0,0.0,0.000144,0.0,0.0,0.0,0.002116,2
1671462097083463224,354607,1671462097118259211,gps,2,1,42.3013773423,-83.6987105247,272.283905029,0.0001,0.0,0.0,0.0,0.000144,0.0,0.0,0.0,0.002116,2
1671462097093530080,354608,1671462097128198542,gps,2,1,42.3013772323,-83.6987105142,272.283599854,0.0001,0.0,0.0,0.0,0.000144,0.0,0.0,0.0,0.002116,2
1671462097103466193,354609,1671462097138270520,gps,2,1,42.3013771257,-83.6987105037,272.283355713,0.0001,0.0,0.0,0.0,0.000144,0.0,0.0,0.0,0.002116,2
1671462097113336614,354610,1671462097148151769,gps,2,1,42.3013770129,-83.6987104902,272.28302002,0.0001,0.0,0.0,0.0,0.000144,0.0,0.0,0.0,0.002116,2
1671462097123403804,354611,1671462097158184590,gps,2,1,42.3013768985,-83.6987104795,272.282653809,0.0001,0.0,0.0,0.0,0.000144,0.0,0.0,0.0,0.002116,2
1671462097133243101,354612,1671462097168280512,gps,2,1,42.3013767876,-83.6987104689,272.282348633,0.0001,0.0,0.0,0.0,0.000144,0.0,0.0,0.0,0.002116,2
1671462097143364926,354613,1671462097178209783,gps,2,1,42.3013766705,-83.6987104553,272.281951904,0.0001,0.0,0.0,0.0,0.000144,0.0,0.0,0.0,0.002116,2
1671462097153944047,354614,1671462097188372416,gps,2,1,42.3013765517,-83.6987104443,272.281585693,0.0001,0.0,0.0,0.0,0.000144,0.0,0.0,0.0,0.002116,2
1671462097163658220,354615,1671462097198290048,gps,2,1,42.3013764366,-83.6987104336,272.281219482,0.0001,0.0,0.0,0.0,0.000144,0.0,0.0,0.0,0.002116,2
1671462097173244605,354616,1671462097208159366,gps,2,1,42.3013763151,-83.6987104201,272.280792236,0.0001,0.0,0.0,0.0,0.000144,0.0,0.0,0.0,0.002116,2
1671462097183615515,354617,1671462097218223895,gps,2,1,42.3013761919,-83.698710409,272.280395508,0.0001,0.0,0.0,0.0,0.000144,0.0,0.0,0.0,0.002116,2
1671462097193658858,354618,1671462097228300337,gps,2,1,42.3013760723,-83.6987103981,272.280029297,0.0001,0.0,0.0,0.0,0.000144,0.0,0.0,0.0,0.002116,2
1671462097203383437,354619,1671462097238196195,gps,2,1,42.3013759465,-83.6987103845,272.279602051,0.0001,0.0,0.0,0.0,0.000144,0.0,0.0,0.0,0.002116,2
1671462097213406889,354620,1671462097248168439,gps,2,1,42.3013758189,-83.6987103733,272.279205322,0.0001,0.0,0.0,0.0,0.000144,0.0,0.0,0.0,0.002116,2
1671462097223385065,354621,1671462097258202827,gps,2,1,42.3013756949,-83.6987103623,272.278808594,0.0001,0.0,0.0,0.0,0.000144,0.0,0.0,0.0,0.002116,2
1671462097233302534,354622,1671462097268146584,gps,2,1,42.3013755648,-83.6987103486,272.278442383,0.0001,0.0,0.0,0.0,0.000144,0.0,0.0,0.0,0.002116,2
1671462097243417543,354623,1671462097278156193,gps,2,1,42.301375433,-83.6987103371,272.278106689,0.0001,0.0,0.0,0.0,0.000144,0.0,0.0,0.0,0.002116,2
1671462097253406993,354624,1671462097288210613,gps,2,1,42.3013753047,-83.6987103259,272.277709961,0.0001,0.0,0.0,0.0,0.000144,0.0,0.0,0.0,0.002116,2
1671462097263389744,354625,1671462097298162219,gps,2,1,42.3013751706,-83.6987103119,272.277374268,0.0001,0.0,0.0,0.0,0.000144,0.0,0.0,0.0,0.002116,2
1671462097273246867,354626,1671462097308137293,gps,2,1,42.3013750349,-83.6987102998,272.277130127,0.0001,0.0,0.0,0.0,0.000144,0.0,0.0,0.0,0.002116,2
1671462097283186528,354627,1671462097318208853,gps,2,1,42.3013749023,-83.6987102882,272.276794434,0.0001,0.0,0.0,0.0,0.000144,0.0,0.0,0.0,0.002116,2
1671462097293176845,354628,1671462097328146363,gps,2,1,42.3013747643,-83.6987102736,272.276550293,0.0001,0.0,0.0,0.0,0.000144,0.0,0.0,0.0,0.002116,2
1671462097303714502,354629,1671462097338163905,gps,2,1,42.3013746247,-83.6987102609,272.276367188,0.0001,0.0,0.0,0.0,0.000144,0.0,0.0,0.0,0.002116,2
1671462097313600333,354630,1671462097348205939,gps,2,1,42.3013744882,-83.6987102489,272.276153564,0.0001,0.0,0.0,0.0,0.000144,0.0,0.0,0.0,0.002116,2
1671462097323508189,354631,1671462097358148989,gps,2,1,42.3013743461,-83.6987102338,272.276000977,0.0001,0.0,0.0,0.0,0.000144,0.0,0.0,0.0,0.002116,2
1671462097333414082,354632,1671462097368251514,gps,2,1,42.3013742023,-83.6987102209,272.275939941,0.0001,0.0,0.0,0.0,0.000144,0.0,0.0,0.0,0.002116,2
1671462097343454958,354633,1671462097378209996,gps,2,1,42.301374062,-83.6987102081,272.275787354,0.0001,0.0,0.0,0.0,0.000144,0.0,0.0,0.0,0.002116,2
1671462097353516475,354634,1671462097388151743,gps,2,1,42.3013739159,-83.6987101928,272.275726318,0.0001,0.0,0.0,0.0,0.000144,0.0,0.0,0.0,0.002116,2
1671462097363356569,354635,1671462097398176640,gps,2,1,42.3013737678,-83.6987101793,272.275726318,0.0001,0.0,0.0,0.0,0.000144,0.0,0.0,0.0,0.002116,2
1671462097373270863,354636,1671462097408222256,gps,2,1,42.3013736233,-83.6987101661,272.275634766,0.0001,0.0,0.0,0.0,0.000144,0.0,0.0,0.0,0.002116,2
1671462097383377204,354637,1671462097418185722,gps,2,1,42.3013734727,-83.6987101501,272.27557373,0.0001,0.0,0.0,0.0,0.000144,0.0,0.0,0.0,0.002116,2
1671462097393497390,354638,1671462097428277534,gps,2,1,42.3013733205,-83.698710136,272.275512695,0.0001,0.0,0.0,0.0,0.000144,0.0,0.0,0.0,0.002116,2
1671462097403353469,354639,1671462097438182302,gps,2,1,42.3013731717,-83.6987101225,272.275512695,0.0001,0.0,0.0,0.0,0.000144,0.0,0.0,0.0,0.002116,2
1671462097413245417,354640,1671462097448154390,gps,2,1,42.301373017,-83.6987101061,272.275390625,0.0001,0.0,0.0,0.0,0.000144,0.0,0.0,0.0,0.002116,2
1671462097423242245,354641,1671462097458198905,gps,2,1,42.3013728605,-83.6987100915,272.275268555,0.0001,0.0,0.0,0.0,0.000144,0.0,0.0,0.0,0.002116,2
1671462097433155424,354642,1671462097468160083,gps,2,1,42.3013727077,-83.6987100775,272.27520752,0.0001,0.0,0.0,0.0,0.000144,0.0,0.0,0.0,0.002116,2
1671462097443267077,354643,1671462097478149715,gps,2,1,42.3013725488,-83.6987100608,272.275024414,0.0001,0.0,0.0,0.0,0.000144,0.0,0.0,0.0,0.002116,2
1671462097453170500,354644,1671462097488149391,gps,2,1,42.3013723881,-83.6987100461,272.274810791,0.0001,0.0,0.0,0.0,0.000144,0.0,0.0,0.0,0.002116,2
1671462097463549345,354645,1671462097498220071,gps,2,1,42.301372231,-83.6987100315,272.274688721,0.0001,0.0,0.0,0.0,0.000144,0.0,0.0,0.0,0.002116,2
1671462097473614567,354646,1671462097508157345,gps,2,1,42.3013720679,-83.6987100145,272.274414062,0.0001,0.0,0.0,0.0,0.000144,0.0,0.0,0.0,0.002116,2
1671462097483370092,354647,1671462097518221147,gps,2,1,42.3013719029,-83.6987099995,272.274139404,0.0001,0.0,0.0,0.0,0.000144,0.0,0.0,0.0,0.002116,2
1671462097493481185,354648,1671462097528222538,gps,2,1,42.3013717415,-83.6987099846,272.273895264,0.0001,0.0,0.0,0.0,0.000144,0.0,0.0,0.0,0.002116,2
1671462097503460760,354649,1671462097538223846,gps,2,1,42.3013715742,-83.6987099673,272.27355957,0.0001,0.0,0.0,0.0,0.000144,0.0,0.0,0.0,0.002116,2
1671462097513470946,354650,1671462097548286282,gps,2,1,42.3013714049,-83.6987099519,272.273193359,0.0001,0.0,0.0,0.0,0.000144,0.0,0.0,0.0,0.002116,2
1671462097523425461,354651,1671462097558178637,gps,2,1,42.3013712393,-83.6987099368,272.272888184,0.0001,0.0,0.0,0.0,0.000144,0.0,0.0,0.0,0.002116,2
1671462097533503650,354652,1671462097568190772,gps,2,1,42.3013710658,-83.6987099194,272.272613525,0.0001,0.0,0.0,0.0,0.000144,0.0,0.0,0.0,0.002116,2
1671462097543462367,354653,1671462097578273549,gps,2,1,42.3013708923,-83.6987099043,272.272155762,0.0001,0.0,0.0,0.0,0.000144,0.0,0.0,0.0,0.002116,2
1671462097553347334,354654,1671462097588202986,gps,2,1,42.3013707225,-83.6987098891,272.271759033,0.0001,0.0,0.0,0.0,0.000144,0.0,0.0,0.0,0.002116,2
1671462097563282631,354655,1671462097598226337,gps,2,1,42.3013705449,-83.698709872,272.271453857,0.0001,0.0,0.0,0.0,0.000144,0.0,0.0,0.0,0.002116,2
1671462097573497736,354656,1671462097608214825,gps,2,1,42.3013703672,-83.6987098573,272.270965576,0.0001,0.0,0.0,0.0,0.000144,0.0,0.0,0.0,0.002116,2
1671462097583619421,354657,1671462097618258465,gps,2,1,42.3013701932,-83.698709842,272.270507812,0.0001,0.0,0.0,0.0,0.000144,0.0,0.0,0.0,0.002116,2
1671462097593673204,354658,1671462097628147858,gps,2,1,42.3013700115,-83.6987098255,272.270172119,0.0001,0.0,0.0,0.0,0.000144,0.0,0.0,0.0,0.002116,2
1671462097603592347,354659,1671462097638164728,gps,2,1,42.3013698298,-83.6987098114,272.269714355,0.0001,0.0,0.0,0.0,0.000144,0.0,0.0,0.0,0.002116,2
1671462097613639211,354660,1671462097648214601,gps,2,1,42.3013696515,-83.6987097967,272.269226074,0.0001,0.0,0.0,0.0,0.000144,0.0,0.0,0.0,0.002116,2
1671462097623479562,354661,1671462097658153268,gps,2,1,42.3013694658,-83.6987097808,272.268859863,0.0001,0.0,0.0,0.0,0.000144,0.0,0.0,0.0,0.002116,2
1671462097633378887,354662,1671462097668229464,gps,2,1,42.3013692799,-83.698709767,272.2684021,0.0001,0.0,0.0,0.0,0.000144,0.0,0.0,0.0,0.002116,2
1671462097643450021,354663,1671462097678166196,gps,2,1,42.3013690975,-83.698709753,272.267913818,0.0001,0.0,0.0,0.0,0.000144,0.0,0.0,0.0,0.002116,2
1671462097653483561,354664,1671462097688153749,gps,2,1,42.3013689078,-83.6987097373,272.267578125,0.0001,0.0,0.0,0.0,0.000144,0.0,0.0,0.0,0.002116,2
1671462097663379242,354665,1671462097698200039,gps,2,1,42.301368718,-83.6987097239,272.267089844,0.0001,0.0,0.0,0.0,0.000144,0.0,0.0,0.0,0.002116,2
1671462097673421029,354666,1671462097708206173,gps,2,1,42.3013685314,-83.6987097102,272.266601562,0.0001,0.0,0.0,0.0,0.000144,0.0,0.0,0.0,0.002116,2
1671462097683328494,354667,1671462097718163140,gps,2,1,42.3013683378,-83.6987096946,272.266204834,0.0001,0.0,0.0,0.0,0.000144,0.0,0.0,0.0,0.002116,2
1671462097693600378,354668,1671462097728206018,gps,2,1,42.301368144,-83.698709681,272.265686035,0.0001,0.0,0.0,0.0,0.000144,0.0,0.0,0.0,0.002116,2
1671462097703429854,354669,1671462097738148527,gps,2,1,42.3013679534,-83.6987096676,272.265167236,0.0001,0.0,0.0,0.0,0.000144,0.0,0.0,0.0,0.002116,2
1671462097713273656,354670,1671462097748151906,gps,2,1,42.3013677561,-83.6987096518,272.26473999,0.0001,0.0,0.0,0.0,0.000144,0.0,0.0,0.0,0.002116,2
1671462097723241145,354671,1671462097758157302,gps,2,1,42.3013675586,-83.6987096377,272.264160156,0.0001,0.0,0.0,0.0,0.000144,0.0,0.0,0.0,0.002116,2
1671462097733254858,354672,1671462097768205870,gps,2,1,42.3013673641,-83.6987096239,272.26361084,0.0001,0.0,0.0,0.0,0.000144,0.0,0.0,0.0,0.002116,2
