%time,field.header.seq,field.header.stamp,field.header.frame_id,field.status.status,field.status.service,field.latitude,field.longitude,field.altitude,field.position_covariance0,field.position_covariance1,field.position_covariance2,field.position_covariance3,field.position_covariance4,field.position_covariance5,field.position_covariance6,field.position_covariance7,field.position_covariance8,field.position_covariance_type
1671462978263228688,442725,1671462978307101076,gps,2,1,42.3000247138,-83.698550806,270.335327148,0.0001,0.0,0.0,0.0,0.000144,0.0,0.0,0.0,0.001521,2
1671462978273700233,442726,1671462978317059323,gps,2,1,42.3000247133,-83.698550807,270.335235596,0.0001,0.0,0.0,0.0,0.000144,0.0,0.0,0.0,0.001521,2
1671462978283645221,442727,1671462978327039355,gps,2,1,42.3000247138,-83.698550807,270.335235596,0.0001,0.0,0.0,0.0,0.000144,0.0,0.0,0.0,0.001521,2
1671462978293862786,442728,1671462978337105302,gps,2,1,42.3000247144,-83.6985508058,270.335174561,0.0001,0.0,0.0,0.0,0.000144,0.0,0.0,0.0,0.001521,2
1671462978303649393,442729,1671462978347046731,gps,2,1,42.3000247139,-83.6985508069,270.335083008,0.0001,0.0,0.0,0.0,0.000144,0.0,0.0,0.0,0.001521,2
1671462978313775552,442730,1671462978357119388,gps,2,1,42.3000247144,-83.6985508064,270.33505249,0.0001,0.0,0.0,0.0,0.000144,0.0,0.0,0.0,0.001521,2
1671462978323468694,442731,1671462978367100075,gps,2,1,42.300024715,-83.6985508054,270.335021973,0.0001,0.0,0.0,0.0,0.000144,0.0,0.0,0.0,0.001521,2
1671462978333421517,442732,1671462978377038702,gps,2,1,42.3000247145,-83.6985508064,270.33493042,0.0001,0.0,0.0,0.0,0.000144,0.0,0.0,0.0,0.001521,2
1671462978343596232,442733,1671462978387039751,gps,2,1,42.3000247151,-83.6985508055,270.334899902,0.0001,0.0,0.0,0.0,0.000144,0.0,0.0,0.0,0.001521,2
1671462978353397243,442734,1671462978397093783,gps,2,1,42.3000247156,-83.6985508052,270.334899902,0.0001,0.0,0.0,0.0,0.000144,0.0,0.0,0.0,0.001521,2
1671462978363476753,442735,1671462978407051792,gps,2,1,42.3000247152,-83.6985508061,270.33480835,0.0001,0.0,0.0,0.0,0.000144,0.0,0.0,0.0,0.001521,2
1671462978373437400,442736,1671462978417045714,gps,2,1,42.3000247159,-83.6985508051,270.334777832,0.0001,0.0,0.0,0.0,0.000144,0.0,0.0,0.0,0.001521,2
1671462978383918787,442737,1671462978427118284,gps,2,1,42.3000247164,-83.6985508055,270.334777832,0.0001,0.0,0.0,0.0,0.000144,0.0,0.0,0.0,0.001521,2
1671462978393618934,442738,1671462978437038766,gps,2,1,42.300024716,-83.6985508063,270.334686279,0.0001,0.0,0.0,0.0,0.000144,0.0,0.0,0.0,0.001521,2
1671462978403830939,442739,1671462978447048388,gps,2,1,42.3000247166,-83.6985508059,270.334686279,0.0001,0.0,0.0,0.0,0.000144,0.0,0.0,0.0,0.001521,2
1671462978413780315,442740,1671462978457114032,gps,2,1,42.300024717,-83.698550806,270.334686279,0.0001,0.0,0.0,0.0,0.000144,0.0,0.0,0.0,0.001521,2
1671462978423583716,442741,1671462978467105391,gps,2,1,42.3000247167,-83.6985508067,270.334594727,0.0001,0.0,0.0,0.0,0.000144,0.0,0.0,0.0,0.001521,2
1671462978433827846,442742,1671462978477153748,gps,2,1,42.3000247173,-83.6985508067,270.334594727,0.0001,0.0,0.0,0.0,0.000144,0.0,0.0,0.0,0.001521,2
1671462978443583753,442743,1671462978487136004,gps,2,1,42.3000247178,-83.6985508062,270.334564209,0.0001,0.0,0.0,0.0,0.000144,0.0,0.0,0.0,0.001521,2
1671462978453510734,442744,1671462978497028409,gps,2,1,42.3000247175,-83.6985508069,270.334472656,0.0001,0.0,0.0,0.0,0.000144,0.0,0.0,0.0,0.001521,2
1671462978463679698,442745,1671462978507051024,gps,2,1,42.3000247181,-83.6985508069,270.334472656,0.0001,0.0,0.0,0.0,0.000144,0.0,0.0,0.0,0.001521,2
1671462978473518553,442746,1671462978517093041,gps,2,1,42.3000247187,-83.6985508057,270.334411621,0.0001,0.0,0.0,0.0,0.000144,0.0,0.0,0.0,0.001521,2
1671462978483219181,442747,1671462978527030570,gps,2,1,42.3000247184,-83.6985508066,270.334350586,0.0001,0.0,0.0,0.0,0.000144,0.0,0.0,0.0,0.001521,2
1671462978493447623,442748,1671462978537043126,gps,2,1,42.300024719,-83.6985508061,270.334320068,0.0001,0.0,0.0,0.0,0.000144,0.0,0.0,0.0,0.001521,2
1671462978503945865,442749,1671462978547339276,gps,2,1,42.3000247196,-83.6985508049,270.334289551,0.0001,0.0,0.0,0.0,0.000144,0.0,0.0,0.0,0.001521,2
1671462978513542692,442750,1671462978557118900,gps,2,1,42.3000247182,-83.6985508068,270.334350586,0.0001,0.0,0.0,0.0,0.000144,0.0,0.0,0.0,0.001521,2
1671462978523619369,442751,1671462978567063074,gps,2,1,42.3000247188,-83.6985508059,270.334289551,0.0001,0.0,0.0,0.0,0.000144,0.0,0.0,0.0,0.001521,2
1671462978533331256,442752,1671462978577146622,gps,2,1,42.3000247194,-83.6985508054,270.334289551,0.0001,0.0,0.0,0.0,0.000144,0.0,0.0,0.0,0.001521,2
1671462978543825532,442753,1671462978587147197,gps,2,1,42.3000247181,-83.6985508072,270.334350586,0.0001,0.0,0.0,0.0,0.000144,0.0,0.0,0.0,0.001521,2
1671462978553695311,442754,1671462978597100880,gps,2,1,42.3000247187,-83.6985508063,270.334289551,0.0001,0.0,0.0,0.0,0.000144,0.0,0.0,0.0,0.001521,2
1671462978563853750,442755,1671462978607158646,gps,2,1,42.3000247192,-83.6985508065,270.334320068,0.0001,0.0,0.0,0.0,0.000144,0.0,0.0,0.0,0.001521,2
1671462978573215638,442756,1671462978617056460,gps,2,1,42.300024718,-83.698550808,270.334350586,0.0001,0.0,0.0,0.0,0.000144,0.0,0.0,0.0,0.001521,2
1671462978583615009,442757,1671462978627037919,gps,2,1,42.3000247185,-83.6985508075,270.334350586,0.0001,0.0,0.0,0.0,0.000144,0.0,0.0,0.0,0.001521,2
1671462978593630933,442758,1671462978637088853,gps,2,1,42.300024719,-83.6985508077,270.334320068,0.0001,0.0,0.0,0.0,0.000144,0.0,0.0,0.0,0.001521,2
1671462978603508794,442759,1671462978647026036,gps,2,1,42.3000247178,-83.6985508091,270.334381104,0.0001,0.0,0.0,0.0,0.000144,0.0,0.0,0.0,0.001521,2
1671462978613663184,442760,1671462978657067104,gps,2,1,42.3000247184,-83.6985508091,270.334381104,0.0001,0.0,0.0,0.0,0.000144,0.0,0.0,0.0,0.001521,2
1671462978623448545,442761,1671462978667121079,gps,2,1,42.3000247188,-83.6985508088,270.334350586,0.0001,0.0,0.0,0.0,0.000144,0.0,0.0,0.0,0.001521,2
1671462978633405887,442762,1671462978677045492,gps,2,1,42.3000247176,-83.6985508101,270.334381104,0.0001,0.0,0.0,0.0,0.000144,0.0,0.0,0.0,0.001521,2
1671462978643304399,442763,1671462978687111252,gps,2,1,42.3000247181,-83.6985508101,270.334381104,0.0001,0.0,0.0,0.0,0.000144,0.0,0.0,0.0,0.001521,2
1671462978653791138,442764,1671462978697121105,gps,2,1,42.3000247187,-83.6985508091,270.334350586,0.0001,0.0,0.0,0.0,0.000144,0.0,0.0,0.0,0.001521,2
1671462978663290917,442765,1671462978707034009,gps,2,1,42.3000247175,-83.6985508105,270.334381104,0.0001,0.0,0.0,0.0,0.000144,0.0,0.0,0.0,0.001521,2
1671462978673305011,442766,1671462978717038718,gps,2,1,42.300024718,-83.6985508102,270.334350586,0.0001,0.0,0.0,0.0,0.000144,0.0,0.0,0.0,0.001521,2
1671462978683814276,442767,1671462978727197521,gps,2,1,42.3000247186,-83.698550809,270.334320068,0.0001,0.0,0.0,0.0,0.000144,0.0,0.0,0.0,0.001521,2
1671462978693702022,442768,1671462978737038719,gps,2,1,42.3000247175,-83.6985508104,270.334350586,0.0001,0.0,0.0,0.0,0.000144,0.0,0.0,0.0,0.001521,2
1671462978703726113,442769,1671462978747056683,gps,2,1,42.300024718,-83.6985508096,270.334320068,0.0001,0.0,0.0,0.0,0.000144,0.0,0.0,0.0,0.001521,2
1671462978713590921,442770,1671462978757109914,gps,2,1,42.3000247186,-83.698550809,270.334289551,0.0001,0.0,0.0,0.0,0.000144,0.0,0.0,0.0,0.001521,2
1671462978723568323,442771,1671462978767047515,gps,2,1,42.3000247175,-83.6985508103,270.334350586,0.0001,0.0,0.0,0.0,0.000144,0.0,0.0,0.0,0.001521,2
1671462978733607167,442772,1671462978777087445,gps,2,1,42.300024718,-83.6985508093,270.334289551,0.0001,0.0,0.0,0.0,0.000144,0.0,0.0,0.0,0.001521,2
1671462978743611137,442773,1671462978787036293,gps,2,1,42.3000247186,-83.6985508093,270.334320068,0.0001,0.0,0.0,0.0,0.000144,0.0,0.0,0.0,0.001521,2
1671462978753517331,442774,1671462978797034060,gps,2,1,42.3000247175,-83.6985508104,270.334350586,0.0001,0.0,0.0,0.0,0.000144,0.0,0.0,0.0,0.001521,2
1671462978763633015,442775,1671462978807087464,gps,2,1,42.3000247181,-83.6985508097,270.334320068,0.0001,0.0,0.0,0.0,0.000144,0.0,0.0,0.0,0.001521,2
1671462978773749860,442776,1671462978817113381,gps,2,1,42.3000247186,-83.6985508099,270.334320068,0.0001,0.0,0.0,0.0,0.000144,0.0,0.0,0.0,0.001521,2
1671462978783213136,442777,1671462978827037580,gps,2,1,42.3000247176,-83.6985508109,270.334350586,0.0001,0.0,0.0,0.0,0.000144,0.0,0.0,0.0,0.001521,2
1671462978793307928,442778,1671462978837053679,gps,2,1,42.3000247181,-83.6985508107,270.334350586,0.0001,0.0,0.0,0.0,0.000144,0.0,0.0,0.0,0.001521,2
1671462978803283926,442779,1671462978847130739,gps,2,1,42.3000247186,-83.6985508105,270.334320068,0.0001,0.0,0.0,0.0,0.000144,0.0,0.0,0.0,0.001521,2
1671462978813857525,442780,1671462978857039967,gps,2,1,42.3000247177,-83.6985508114,270.334350586,0.0001,0.0,0.0,0.0,0.000144,0.0,0.0,0.0,0.001521,2
1671462978823223521,442781,1671462978867035885,gps,2,1,42.3000247182,-83.6985508115,270.334350586,0.0001,0.0,0.0,0.0,0.000144,0.0,0.0,0.0,0.001521,2
1671462978833659365,442782,1671462978877103247,gps,2,1,42.3000247187,-83.6985508106,270.334289551,0.0001,0.0,0.0,0.0,0.000144,0.0,0.0,0.0,0.001521,2
1671462978843691977,442783,1671462978887045622,gps,2,1,42.3000247178,-83.6985508116,270.334320068,0.0001,0.0,0.0,0.0,0.000144,0.0,0.0,0.0,0.001521,2
1671462978853600924,442784,1671462978897131798,gps,2,1,42.3000247183,-83.6985508114,270.334320068,0.0001,0.0,0.0,0.0,0.000144,0.0,0.0,0.0,0.001521,2
1671462978863725543,442785,1671462978907100618,gps,2,1,42.3000247188,-83.6985508101,270.334259033,0.0001,0.0,0.0,0.0,0.000144,0.0,0.0,0.0,0.001521,2
1671462978873558765,442786,1671462978917030153,gps,2,1,42.300024718,-83.6985508113,270.334289551,0.0001,0.0,0.0,0.0,0.000144,0.0,0.0,0.0,0.001521,2
1671462978883792658,442787,1671462978927107103,gps,2,1,42.3000247185,-83.6985508106,270.334259033,0.0001,0.0,0.0,0.0,0.000144,0.0,0.0,0.0,0.001521,2
1671462978893510706,442788,1671462978937043446,gps,2,1,42.3000247191,-83.6985508098,270.334228516,0.0001,0.0,0.0,0.0,0.000144,0.0,0.0,0.0,0.001521,2
1671462978903461054,442789,1671462978947034672,gps,2,1,42.3000247181,-83.6985508109,270.334289551,0.0001,0.0,0.0,0.0,0.000144,0.0,0.0,0.0,0.001521,2
1671462978913459428,442790,1671462978957104140,gps,2,1,42.3000247186,-83.6985508098,270.334228516,0.0001,0.0,0.0,0.0,0.000144,0.0,0.0,0.0,0.001521,2
1671462978923353747,442791,1671462978967045926,gps,2,1,42.3000247192,-83.6985508097,270.334259033,0.0001,0.0,0.0,0.0,0.000144,0.0,0.0,0.0,0.001521,2
1671462978933344742,442792,1671462978977127855,gps,2,1,42.3000247183,-83.6985508106,270.334259033,0.0001,0.0,0.0,0.0,0.000144,0.0,0.0,0.0,0.001521,2
1671462978943644055,442793,1671462978987049769,gps,2,1,42.3000247188,-83.6985508097,270.334259033,0.0001,0.0,0.0,0.0,0.000144,0.0,0.0,0.0,0.001521,2
1671462978953997853,442794,1671462978997105423,gps,2,1,42.3000247193,-83.69855081,270.334259033,0.0001,0.0,0.0,0.0,0.000144,0.0,0.0,0.0,0.001521,2
1671462978963339072,442795,1671462979007046344,gps,2,1,42.3000247184,-83.6985508107,270.334289551,0.0001,0.0,0.0,0.0,0.000144,0.0,0.0,0.0,0.001521,2
1671462978973719558,442796,1671462979017052774,gps,2,1,42.300024719,-83.6985508103,270.334259033,0.0001,0.0,0.0,0.0,0.000144,0.0,0.0,0.0,0.001521,2
1671462978983932333,442797,1671462979027102452,gps,2,1,42.3000247194,-83.6985508103,270.334259033,0.0001,0.0,0.0,0.0,0.000144,0.0,0.0,0.0,0.001521,2
1671462978993623652,442798,1671462979037041906,gps,2,1,42.3000247186,-83.6985508109,270.334289551,0.0001,0.0,0.0,0.0,0.000144,0.0,0.0,0.0,0.001521,2
1671462979003633530,442799,1671462979047284487,gps,2,1,42.3000247191,-83.698550811,270.334289551,0.0001,0.0,0.0,0.0,0.000144,0.0,0.0,0.0,0.001521,2
1671462979013684001,442800,1671462979057142799,gps,2,1,42.3000247196,-83.6985508102,270.334259033,0.0001,0.0,0.0,0.0,0.000144,0.0,0.0,0.0,0.001521,2
1671462979023674617,442801,1671462979067126796,gps,2,1,42.3000247188,-83.6985508109,270.334289551,0.0001,0.0,0.0,0.0,0.000144,0.0,0.0,0.0,0.001521,2
1671462979033474294,442802,1671462979077180543,gps,2,1,42.3000247193,-83.6985508109,270.334289551,0.0001,0.0,0.0,0.0,0.000144,0.0,0.0,0.0,0.001521,2
1671462979043506567,442803,1671462979087053686,gps,2,1,42.3000247198,-83.6985508096,270.334228516,0.0001,0.0,0.0,0.0,0.000144,0.0,0.0,0.0,0.001521,2
1671462979053386445,442804,1671462979097093814,gps,2,1,42.3000247176,-83.6985508104,270.334411621,0.0001,0.0,0.0,0.0,0.000144,0.0,0.0,0.0,0.001521,2
1671462979063470312,442805,1671462979107188835,gps,2,1,42.3000247181,-83.6985508098,270.334381104,0.0001,0.0,0.0,0.0,0.000144,0.0,0.0,0.0,0.001521,2
1671462979073364029,442806,1671462979117115681,gps,2,1,42.3000247186,-83.6985508088,270.334350586,0.0001,0.0,0.0,0.0,0.000144,0.0,0.0,0.0,0.001521,2
1671462979083292076,442807,1671462979127081710,gps,2,1,42.3000247165,-83.6985508096,270.334503174,0.0001,0.0,0.0,0.0,0.000144,0.0,0.0,0.0,0.001521,2
1671462979093862634,442808,1671462979137102138,gps,2,1,42.300024717,-83.6985508087,270.334472656,0.0001,0.0,0.0,0.0,0.000144,0.0,0.0,0.0,0.001521,2
1671462979103378733,442809,1671462979147051053,gps,2,1,42.3000247175,-83.6985508082,270.334472656,0.0001,0.0,0.0,0.0,0.000144,0.0,0.0,0.0,0.001521,2
1671462979113633497,442810,1671462979157060764,gps,2,1,42.3000247155,-83.6985508089,270.334625244,0.0001,0.0,0.0,0.0,0.000144,0.0,0.0,0.0,0.001521,2
1671462979123767041,442811,1671462979167136956,gps,2,1,42.300024716,-83.6985508079,270.334594727,0.0001,0.0,0.0,0.0,0.000144,0.0,0.0,0.0,0.001521,2
1671462979133628429,442812,1671462979177061011,gps,2,1,42.3000247164,-83.6985508081,270.334594727,0.0001,0.0,0.0,0.0,0.000144,0.0,0.0,0.0,0.001521,2
1671462979143887977,442813,1671462979187038312,gps,2,1,42.3000247144,-83.6985508088,270.334716797,0.0001,0.0,0.0,0.0,0.000144,0.0,0.0,0.0,0.001521,2
1671462979153726701,442814,1671462979197065824,gps,2,1,42.3000247149,-83.6985508083,270.334716797,0.0001,0.0,0.0,0.0,0.000144,0.0,0.0,0.0,0.001521,2
1671462979163602519,442815,1671462979207091931,gps,2,1,42.3000247153,-83.6985508085,270.334716797,0.0001,0.0,0.0,0.0,0.000144,0.0,0.0,0.0,0.001521,2
1671462979173491186,442816,1671462979217039865,gps,2,1,42.3000247134,-83.6985508091,270.334838867,0.0001,0.0,0.0,0.0,0.000144,0.0,0.0,0.0,0.001521,2
1671462979183475256,442817,1671462979227135636,gps,2,1,42.3000247139,-83.6985508091,270.334838867,0.0001,0.0,0.0,0.0,0.000144,0.0,0.0,0.0,0.001521,2
1671462979193457030,442818,1671462979237105718,gps,2,1,42.3000247143,-83.6985508085,270.33480835,0.0001,0.0,0.0,0.0,0.000144,0.0,0.0,0.0,0.001521,2
1671462979203385636,442819,1671462979247048370,gps,2,1,42.3000247125,-83.6985508091,270.33493042,0.0001,0.0,0.0,0.0,0.000144,0.0,0.0,0.0,0.001521,2
1671462979213478053,442820,1671462979257053458,gps,2,1,42.3000247129,-83.6985508091,270.33493042,0.0001,0.0,0.0,0.0,0.000144,0.0,0.0,0.0,0.001521,2
1671462979223254254,442821,1671462979267122061,gps,2,1,42.3000247135,-83.6985508079,270.334899902,0.0001,0.0,0.0,0.0,0.000144,0.0,0.0,0.0,0.001521,2
1671462979233284929,442822,1671462979277037863,gps,2,1,42.3000247117,-83.6985508086,270.334991455,0.0001,0.0,0.0,0.0,0.000144,0.0,0.0,0.0,0.001521,2
1671462979243891038,442823,1671462979287103621,gps,2,1,42.3000247122,-83.6985508082,270.334991455,0.0001,0.0,0.0,0.0,0.000144,0.0,0.0,0.0,0.001521,2
1671462979253532717,442824,1671462979297046373,gps,2,1,42.3000247127,-83.698550807,270.334960938,0.0001,0.0,0.0,0.0,0.000121,0.0,0.0,0.0,0.001521,2
1671462979263573825,442825,1671462979307064490,gps,2,1,42.300024711,-83.6985508078,270.335083008,0.0001,0.0,0.0,0.0,0.000121,0.0,0.0,0.0,0.001521,2
1671462979273839867,442826,1671462979317110259,gps,2,1,42.3000247115,-83.6985508068,270.335021973,0.0001,0.0,0.0,0.0,0.000121,0.0,0.0,0.0,0.001521,2
1671462979283869317,442827,1671462979327045401,gps,2,1,42.300024712,-83.6985508061,270.335021973,0.0001,0.0,0.0,0.0,0.000121,0.0,0.0,0.0,0.001521,2
1671462979293533006,442828,1671462979337046727,gps,2,1,42.3000247103,-83.6985508068,270.335144043,0.0001,0.0,0.0,0.0,0.000121,0.0,0.0,0.0,0.001521,2
1671462979303393883,442829,1671462979347045712,gps,2,1,42.3000247108,-83.6985508057,270.335113525,0.0001,0.0,0.0,0.0,0.000121,0.0,0.0,0.0,0.001521,2
1671462979313516260,442830,1671462979357111896,gps,2,1,42.3000247112,-83.6985508058,270.335113525,0.0001,0.0,0.0,0.0,0.000121,0.0,0.0,0.0,0.001521,2
1671462979323328035,442831,1671462979367029585,gps,2,1,42.3000247096,-83.6985508063,270.335205078,0.0001,0.0,0.0,0.0,0.000121,0.0,0.0,0.0,0.001521,2
1671462979333473669,442832,1671462979377033590,gps,2,1,42.3000247101,-83.6985508055,270.335205078,0.0001,0.0,0.0,0.0,0.000121,0.0,0.0,0.0,0.001521,2
1671462979343399005,442833,1671462979387115296,gps,2,1,42.3000247104,-83.6985508058,270.335205078,0.0001,0.0,0.0,0.0,0.000121,0.0,0.0,0.0,0.001521,2
1671462979353314490,442834,1671462979397057700,gps,2,1,42.3000247088,-83.6985508062,270.335296631,0.0001,0.0,0.0,0.0,0.000121,0.0,0.0,0.0,0.001521,2
1671462979363711513,442835,1671462979407059228,gps,2,1,42.3000247092,-83.698550806,270.335296631,0.0001,0.0,0.0,0.0,0.000121,0.0,0.0,0.0,0.001521,2
1671462979373486893,442836,1671462979417142418,gps,2,1,42.3000247096,-83.6985508057,270.335296631,0.0001,0.0,0.0,0.0,0.000121,0.0,0.0,0.0,0.001521,2
1671462979383437846,442837,1671462979427042278,gps,2,1,42.3000247082,-83.698550806,270.335388184,0.0001,0.0,0.0,0.0,0.000121,0.0,0.0,0.0,0.001521,2
1671462979393696154,442838,1671462979437056615,gps,2,1,42.3000247085,-83.6985508061,270.335388184,0.0001,0.0,0.0,0.0,0.000121,0.0,0.0,0.0,0.001521,2
1671462979403916144,442839,1671462979447118454,gps,2,1,42.300024709,-83.698550805,270.335357666,0.0001,0.0,0.0,0.0,0.000121,0.0,0.0,0.0,0.001521,2
1671462979413788010,442840,1671462979457050187,gps,2,1,42.3000247075,-83.6985508054,270.335449219,0.0001,0.0,0.0,0.0,0.000121,0.0,0.0,0.0,0.001521,2
1671462979423582908,442841,1671462979467107868,gps,2,1,42.3000247079,-83.6985508052,270.335449219,0.0001,0.0,0.0,0.0,0.000121,0.0,0.0,0.0,0.001521,2
1671462979433643829,442842,1671462979477181059,gps,2,1,42.3000247083,-83.6985508039,270.335388184,0.0001,0.0,0.0,0.0,0.000121,0.0,0.0,0.0,0.001521,2
1671462979443517944,442843,1671462979487040240,gps,2,1,42.3000247069,-83.6985508045,270.335510254,0.0001,0.0,0.0,0.0,0.000121,0.0,0.0,0.0,0.001521,2
1671462979453576173,442844,1671462979497064143,gps,2,1,42.3000247073,-83.6985508037,270.335479736,0.0001,0.0,0.0,0.0,0.000121,0.0,0.0,0.0,0.001521,2
1671462979463322705,442845,1671462979507095373,gps,2,1,42.3000247077,-83.6985508028,270.335449219,0.0001,0.0,0.0,0.0,0.000121,0.0,0.0,0.0,0.001521,2
1671462979473476941,442846,1671462979517052955,gps,2,1,42.3000247064,-83.6985508034,270.335540771,0.0001,0.0,0.0,0.0,0.000121,0.0,0.0,0.0,0.001521,2
1671462979483541212,442847,1671462979527044458,gps,2,1,42.3000247068,-83.6985508023,270.335510254,0.0001,0.0,0.0,0.0,0.000121,0.0,0.0,0.0,0.001521,2
1671462979493388530,442848,1671462979537143220,gps,2,1,42.3000247072,-83.6985508023,270.335510254,0.0001,0.0,0.0,0.0,0.000121,0.0,0.0,0.0,0.001521,2
1671462979503940341,442849,1671462979547266077,gps,2,1,42.3000247059,-83.6985508026,270.335601807,0.0001,0.0,0.0,0.0,0.000121,0.0,0.0,0.0,0.001521,2
1671462979513289840,442850,1671462979557080398,gps,2,1,42.3000247063,-83.6985508018,270.335601807,0.0001,0.0,0.0,0.0,0.000121,0.0,0.0,0.0,0.001521,2
1671462979523647723,442851,1671462979567149333,gps,2,1,42.3000247067,-83.6985508022,270.335601807,0.0001,0.0,0.0,0.0,0.000121,0.0,0.0,0.0,0.001521,2
1671462979533733835,442852,1671462979577117006,gps,2,1,42.3000247055,-83.6985508023,270.335662842,0.0001,0.0,0.0,0.0,0.000121,0.0,0.0,0.0,0.001521,2
1671462979543806034,442853,1671462979587109380,gps,2,1,42.3000247059,-83.698550802,270.335693359,0.0001,0.0,0.0,0.0,0.000121,0.0,0.0,0.0,0.001521,2
1671462979553634393,442854,1671462979597178495,gps,2,1,42.3000247062,-83.6985508019,270.335662842,0.0001,0.0,0.0,0.0,0.000121,0.0,0.0,0.0,0.001521,2
1671462979563518540,442855,1671462979607081275,gps,2,1,42.3000247045,-83.6985508024,270.335784912,0.0001,0.0,0.0,0.0,0.000121,0.0,0.0,0.0,0.001521,2
1671462979573629867,442856,1671462979617063753,gps,2,1,42.3000247049,-83.6985508024,270.335784912,0.0001,0.0,0.0,0.0,0.000121,0.0,0.0,0.0,0.001521,2
1671462979583626124,442857,1671462979627104239,gps,2,1,42.3000247053,-83.6985508015,270.335754395,0.0001,0.0,0.0,0.0,0.000121,0.0,0.0,0.0,0.001521,2
1671462979593602901,442858,1671462979637092007,gps,2,1,42.3000247037,-83.6985508022,270.335876465,0.0001,0.0,0.0,0.0,0.000121,0.0,0.0,0.0,0.001521,2
1671462979603805993,442859,1671462979647077391,gps,2,1,42.300024704,-83.6985508019,270.335876465,0.0001,0.0,0.0,0.0,0.000121,0.0,0.0,0.0,0.001521,2
1671462979613388729,442860,1671462979657119958,gps,2,1,42.3000247044,-83.6985508006,270.33581543,0.0001,0.0,0.0,0.0,0.000121,0.0,0.0,0.0,0.001521,2
1671462979623401828,442861,1671462979667033732,gps,2,1,42.3000247028,-83.6985508013,270.3359375,0.0001,0.0,0.0,0.0,0.000121,0.0,0.0,0.0,0.001521,2
1671462979633378042,442862,1671462979677054463,gps,2,1,42.3000247032,-83.6985508006,270.335906982,0.0001,0.0,0.0,0.0,0.000121,0.0,0.0,0.0,0.001521,2
1671462979643319056,442863,1671462979687135233,gps,2,1,42.3000247036,-83.6985507994,270.335906982,0.0001,0.0,0.0,0.0,0.000121,0.0,0.0,0.0,0.001521,2
1671462979653310033,442864,1671462979697050512,gps,2,1,42.3000247019,-83.6985508002,270.335998535,0.0001,0.0,0.0,0.0,0.000121,0.0,0.0,0.0,0.001521,2
1671462979663238625,442865,1671462979707054406,gps,2,1,42.3000247022,-83.6985507991,270.335968018,0.0001,0.0,0.0,0.0,0.000121,0.0,0.0,0.0,0.001521,2
1671462979673781397,442866,1671462979717120336,gps,2,1,42.3000247027,-83.6985507988,270.335968018,0.0001,0.0,0.0,0.0,0.000121,0.0,0.0,0.0,0.001521,2
1671462979683961832,442867,1671462979727136375,gps,2,1,42.300024701,-83.6985507994,270.33605957,0.0001,0.0,0.0,0.0,0.000121,0.0,0.0,0.0,0.001521,2
1671462979693647758,442868,1671462979737068439,gps,2,1,42.3000247014,-83.6985507984,270.33605957,0.0001,0.0,0.0,0.0,0.000121,0.0,0.0,0.0,0.001521,2
1671462979703660399,442869,1671462979747167370,gps,2,1,42.3000247017,-83.6985507986,270.33605957,0.0001,0.0,0.0,0.0,0.000121,0.0,0.0,0.0,0.001521,2
1671462979713713370,442870,1671462979757086954,gps,2,1,42.3000247001,-83.6985507991,270.336151123,0.0001,0.0,0.0,0.0,0.000121,0.0,0.0,0.0,0.001521,2
1671462979723542902,442871,1671462979767041309,gps,2,1,42.3000247004,-83.6985507986,270.336151123,0.0001,0.0,0.0,0.0,0.000121,0.0,0.0,0.0,0.001521,2
1671462979733576535,442872,1671462979777112462,gps,2,1,42.3000247007,-83.6985507986,270.336151123,0.0001,0.0,0.0,0.0,0.000121,0.0,0.0,0.0,0.001521,2
1671462979743557592,442873,1671462979787041988,gps,2,1,42.3000246991,-83.6985507989,270.336242676,0.0001,0.0,0.0,0.0,0.000121,0.0,0.0,0.0,0.001521,2
1671462979753493547,442874,1671462979797087382,gps,2,1,42.3000246994,-83.6985507989,270.336242676,0.0001,0.0,0.0,0.0,0.000121,0.0,0.0,0.0,0.001521,2
1671462979763429648,442875,1671462979807127587,gps,2,1,42.3000246997,-83.6985507983,270.336212158,0.0001,0.0,0.0,0.0,0.000121,0.0,0.0,0.0,0.001521,2
1671462979773835538,442876,1671462979817045091,gps,2,1,42.3000246982,-83.6985507987,270.336303711,0.0001,0.0,0.0,0.0,0.000121,0.0,0.0,0.0,0.001521,2
1671462979783813893,442877,1671462979827075109,gps,2,1,42.3000246985,-83.6985507987,270.336303711,0.0001,0.0,0.0,0.0,0.000121,0.0,0.0,0.0,0.001521,2
1671462979793290796,442878,1671462979837116589,gps,2,1,42.3000246988,-83.6985507975,270.336273193,0.0001,0.0,0.0,0.0,0.000121,0.0,0.0,0.0,0.001521,2
1671462979803641916,442879,1671462979847060486,gps,2,1,42.3000246973,-83.6985507981,270.336364746,0.0001,0.0,0.0,0.0,0.000121,0.0,0.0,0.0,0.001521,2
1671462979813668065,442880,1671462979857062943,gps,2,1,42.3000246976,-83.6985507976,270.336334229,0.0001,0.0,0.0,0.0,0.000121,0.0,0.0,0.0,0.001521,2
1671462979823760480,442881,1671462979867114563,gps,2,1,42.300024698,-83.6985507964,270.336303711,0.0001,0.0,0.0,0.0,0.000121,0.0,0.0,0.0,0.001521,2
1671462979833815163,442882,1671462979877053023,gps,2,1,42.3000246965,-83.698550797,270.336395264,0.0001,0.0,0.0,0.0,0.000121,0.0,0.0,0.0,0.001521,2
1671462979843578679,442883,1671462979887071437,gps,2,1,42.3000246968,-83.698550796,270.336364746,0.0001,0.0,0.0,0.0,0.000121,0.0,0.0,0.0,0.001521,2
1671462979853637000,442884,1671462979897210575,gps,2,1,42.3000246972,-83.6985507955,270.336364746,0.0001,0.0,0.0,0.0,0.000121,0.0,0.0,0.0,0.001521,2
1671462979863531633,442885,1671462979907073087,gps,2,1,42.3000246957,-83.698550796,270.336425781,0.0001,0.0,0.0,0.0,0.000121,0.0,0.0,0.0,0.001521,2
1671462979873588819,442886,1671462979917052118,gps,2,1,42.3000246961,-83.6985507949,270.336395264,0.0001,0.0,0.0,0.0,0.000121,0.0,0.0,0.0,0.001521,2
1671462979883383431,442887,1671462979927119987,gps,2,1,42.3000246964,-83.698550795,270.336425781,0.0001,0.0,0.0,0.0,0.000121,0.0,0.0,0.0,0.001521,2
1671462979893500079,442888,1671462979937033286,gps,2,1,42.3000246951,-83.6985507954,270.336486816,0.0001,0.0,0.0,0.0,0.000121,0.0,0.0,0.0,0.001521,2
1671462979903451679,442889,1671462979947037466,gps,2,1,42.3000246955,-83.6985507947,270.336456299,0.0001,0.0,0.0,0.0,0.000121,0.0,0.0,0.0,0.001521,2
1671462979913402134,442890,1671462979957104882,gps,2,1,42.3000246957,-83.6985507947,270.336486816,0.0001,0.0,0.0,0.0,0.000121,0.0,0.0,0.0,0.001521,2
1671462979923701069,442891,1671462979967097322,gps,2,1,42.3000246945,-83.698550795,270.336517334,0.0001,0.0,0.0,0.0,0.000121,0.0,0.0,0.0,0.001521,2
1671462979933538126,442892,1671462979977174032,gps,2,1,42.3000246948,-83.6985507948,270.336547852,0.0001,0.0,0.0,0.0,0.000121,0.0,0.0,0.0,0.001521,2
1671462979943419948,442893,1671462979987107130,gps,2,1,42.3000246951,-83.6985507944,270.336517334,0.0001,0.0,0.0,0.0,0.000121,0.0,0.0,0.0,0.001521,2
1671462979953255713,442894,1671462979997043796,gps,2,1,42.3000246939,-83.6985507946,270.336578369,0.0001,0.0,0.0,0.0,0.000121,0.0,0.0,0.0,0.001521,2
1671462979963820267,442895,1671462980007052211,gps,2,1,42.3000246941,-83.6985507945,270.336578369,0.0001,0.0,0.0,0.0,0.000121,0.0,0.0,0.0,0.001521,2
1671462979973790620,442896,1671462980017119447,gps,2,1,42.3000246944,-83.6985507934,270.336547852,0.0001,0.0,0.0,0.0,0.000121,0.0,0.0,0.0,0.001521,2
1671462979983588638,442897,1671462980027049911,gps,2,1,42.3000246932,-83.6985507937,270.336608887,0.0001,0.0,0.0,0.0,0.000121,0.0,0.0,0.0,0.001521,2
1671462979993246247,442898,1671462980037051285,gps,2,1,42.3000246935,-83.6985507933,270.336608887,0.0001,0.0,0.0,0.0,0.000121,0.0,0.0,0.0,0.001521,2
1671462980003481605,442899,1671462980047177470,gps,2,1,42.3000246938,-83.698550792,270.336547852,0.0001,0.0,0.0,0.0,0.000121,0.0,0.0,0.0,0.001521,2
1671462980013640459,442900,1671462980057132720,gps,2,1,42.3000246918,-83.6985507933,270.336547852,0.0001,0.0,0.0,0.0,0.000121,0.0,0.0,0.0,0.001521,2
1671462980023677060,442901,1671462980067083505,gps,2,1,42.3000246921,-83.6985507923,270.336517334,0.0001,0.0,0.0,0.0,0.000121,0.0,0.0,0.0,0.001521,2
1671462980033501562,442902,1671462980077234123,gps,2,1,42.3000246925,-83.6985507916,270.336517334,0.0001,0.0,0.0,0.0,0.000121,0.0,0.0,0.0,0.001521,2
1671462980043404233,442903,1671462980087106287,gps,2,1,42.3000246905,-83.6985507929,270.336517334,0.0001,0.0,0.0,0.0,0.000121,0.0,0.0,0.0,0.001521,2
1671462980053422934,442904,1671462980097081666,gps,2,1,42.3000246908,-83.6985507917,270.336486816,0.0001,0.0,0.0,0.0,0.000121,0.0,0.0,0.0,0.001521,2
1671462980063361755,442905,1671462980107152762,gps,2,1,42.3000246911,-83.6985507916,270.336517334,0.0001,0.0,0.0,0.0,0.000121,0.0,0.0,0.0,0.001521,2
1671462980073805908,442906,1671462980117144116,gps,2,1,42.3000246892,-83.6985507927,270.336486816,0.0001,0.0,0.0,0.0,0.000121,0.0,0.0,0.0,0.001521,2
1671462980083589859,442907,1671462980127118958,gps,2,1,42.3000246895,-83.6985507919,270.336486816,0.0001,0.0,0.0,0.0,0.000121,0.0,0.0,0.0,0.001521,2
1671462980093796855,442908,1671462980137129994,gps,2,1,42.3000246897,-83.698550792,270.336486816,0.0001,0.0,0.0,0.0,0.000121,0.0,0.0,0.0,0.001521,2
1671462980103554064,442909,1671462980147053200,gps,2,1,42.3000246879,-83.6985507929,270.336486816,0.0001,0.0,0.0,0.0,0.000121,0.0,0.0,0.0,0.001521,2
1671462980113676633,442910,1671462980157095798,gps,2,1,42.3000246882,-83.6985507927,270.336486816,0.0001,0.0,0.0,0.0,0.000121,0.0,0.0,0.0,0.001521,2
1671462980123657609,442911,1671462980167145983,gps,2,1,42.3000246884,-83.6985507923,270.336486816,0.0001,0.0,0.0,0.0,0.000121,0.0,0.0,0.0,0.001521,2
1671462980133648019,442912,1671462980177066804,gps,2,1,42.3000246866,-83.6985507932,270.336456299,0.0001,0.0,0.0,0.0,0.000121,0.0,0.0,0.0,0.001521,2
1671462980143756883,442913,1671462980187073629,gps,2,1,42.3000246868,-83.6985507931,270.336486816,0.0001,0.0,0.0,0.0,0.000121,0.0,0.0,0.0,0.001521,2
1671462980153610883,442914,1671462980197126053,gps,2,1,42.3000246871,-83.698550792,270.336425781,0.0001,0.0,0.0,0.0,0.000121,0.0,0.0,0.0,0.001521,2
1671462980163402870,442915,1671462980207042509,gps,2,1,42.3000246854,-83.6985507929,270.336425781,0.0001,0.0,0.0,0.0,0.000121,0.0,0.0,0.0,0.001521,2
1671462980173514857,442916,1671462980217109938,gps,2,1,42.3000246856,-83.6985507926,270.336425781,0.0001,0.0,0.0,0.0,0.000121,0.0,0.0,0.0,0.001521,2
1671462980183462639,442917,1671462980227142416,gps,2,1,42.3000246859,-83.6985507912,270.336364746,0.0001,0.0,0.0,0.0,0.000121,0.0,0.0,0.0,0.001521,2
1671462980193280009,442918,1671462980237050466,gps,2,1,42.3000246842,-83.6985507922,270.336364746,0.0001,0.0,0.0,0.0,0.000121,0.0,0.0,0.0,0.001521,2
1671462980203436876,442919,1671462980247115844,gps,2,1,42.3000246844,-83.6985507914,270.336334229,0.0001,0.0,0.0,0.0,0.000121,0.0,0.0,0.0,0.001521,2
1671462980213472711,442920,1671462980257067415,gps,2,1,42.3000246847,-83.6985507905,270.336334229,0.0001,0.0,0.0,0.0,0.000121,0.0,0.0,0.0,0.001521,2
1671462980223651273,442921,1671462980267050615,gps,2,1,42.300024683,-83.6985507915,270.336334229,0.0001,0.0,0.0,0.0,0.000121,0.0,0.0,0.0,0.001521,2
1671462980233674261,442922,1671462980277054784,gps,2,1,42.3000246833,-83.6985507903,270.336303711,0.0001,0.0,0.0,0.0,0.000121,0.0,0.0,0.0,0.001521,2
1671462980243837221,442923,1671462980287110203,gps,2,1,42.3000246835,-83.6985507902,270.336303711,0.0001,0.0,0.0,0.0,0.000121,0.0,0.0,0.0,0.001521,2
1671462980253742473,442924,1671462980297052881,gps,2,1,42.3000246819,-83.698550791,270.336303711,6.4e-05,0.0,0.0,0.0,8.1e-05,0.0,0.0,0.0,0.001444,2
1671462980263313568,442925,1671462980307092444,gps,2,1,42.3000246822,-83.6985507901,270.336273193,6.4e-05,0.0,0.0,0.0,8.1e-05,0.0,0.0,0.0,0.001444,2
1671462980273619403,442926,1671462980317118296,gps,2,1,42.3000246823,-83.6985507903,270.336303711,6.4e-05,0.0,0.0,0.0,8.1e-05,0.0,0.0,0.0,0.001444,2
1671462980283500329,442927,1671462980327047271,gps,2,1,42.3000246807,-83.6985507909,270.336273193,6.4e-05,0.0,0.0,0.0,8.1e-05,0.0,0.0,0.0,0.001444,2
1671462980293576270,442928,1671462980337058346,gps,2,1,42.3000246809,-83.6985507905,270.336273193,6.4e-05,0.0,0.0,0.0,8.1e-05,0.0,0.0,0.0,0.001444,2
1671462980303559211,442929,1671462980347113449,gps,2,1,42.300024681,-83.6985507904,270.336273193,6.4e-05,0.0,0.0,0.0,8.1e-05,0.0,0.0,0.0,0.001444,2
1671462980313620857,442930,1671462980357055598,gps,2,1,42.3000246795,-83.6985507909,270.336242676,6.4e-05,0.0,0.0,0.0,8.1e-05,0.0,0.0,0.0,0.001444,2
1671462980323493968,442931,1671462980367109779,gps,2,1,42.3000246796,-83.6985507909,270.336242676,6.4e-05,0.0,0.0,0.0,8.1e-05,0.0,0.0,0.0,0.001444,2
1671462980333807344,442932,1671462980377059028,gps,2,1,42.3000246798,-83.6985507899,270.336212158,6.4e-05,0.0,0.0,0.0,8.1e-05,0.0,0.0,0.0,0.001444,2
1671462980343386861,442933,1671462980387056652,gps,2,1,42.3000246783,-83.6985507905,270.336212158,6.4e-05,0.0,0.0,0.0,8.1e-05,0.0,0.0,0.0,0.001444,2
1671462980353338807,442934,1671462980397186984,gps,2,1,42.3000246785,-83.6985507903,270.336212158,6.4e-05,0.0,0.0,0.0,8.1e-05,0.0,0.0,0.0,0.001444,2
1671462980363281510,442935,1671462980407114199,gps,2,1,42.3000246787,-83.6985507888,270.336151123,6.4e-05,0.0,0.0,0.0,8.1e-05,0.0,0.0,0.0,0.001444,2
1671462980373270711,442936,1671462980417056028,gps,2,1,42.3000246772,-83.6985507896,270.336151123,6.4e-05,0.0,0.0,0.0,8.1e-05,0.0,0.0,0.0,0.001444,2
1671462980383816731,442937,1671462980427141081,gps,2,1,42.3000246774,-83.6985507889,270.336120605,6.4e-05,0.0,0.0,0.0,8.1e-05,0.0,0.0,0.0,0.001444,2
1671462980393776161,442938,1671462980437067844,gps,2,1,42.3000246776,-83.6985507878,270.336120605,6.4e-05,0.0,0.0,0.0,8.1e-05,0.0,0.0,0.0,0.001444,2
1671462980403578141,442939,1671462980447060364,gps,2,1,42.3000246762,-83.6985507885,270.336120605,6.4e-05,0.0,0.0,0.0,8.1e-05,0.0,0.0,0.0,0.001444,2
1671462980413503087,442940,1671462980457057354,gps,2,1,42.3000246764,-83.6985507874,270.336090088,6.4e-05,0.0,0.0,0.0,8.1e-05,0.0,0.0,0.0,0.001444,2
1671462980423631150,442941,1671462980467117566,gps,2,1,42.3000246766,-83.6985507871,270.336090088,6.4e-05,0.0,0.0,0.0,8.1e-05,0.0,0.0,0.0,0.001444,2
1671462980433848949,442942,1671462980477153890,gps,2,1,42.3000246752,-83.6985507876,270.336090088,6.4e-05,0.0,0.0,0.0,8.1e-05,0.0,0.0,0.0,0.001444,2
1671462980443564296,442943,1671462980487049045,gps,2,1,42.3000246754,-83.6985507866,270.336090088,6.4e-05,0.0,0.0,0.0,8.1e-05,0.0,0.0,0.0,0.001444,2
1671462980453588699,442944,1671462980497113247,gps,2,1,42.3000246756,-83.6985507868,270.336090088,6.4e-05,0.0,0.0,0.0,8.1e-05,0.0,0.0,0.0,0.001444,2
1671462980463438996,442945,1671462980507039161,gps,2,1,42.3000246742,-83.6985507871,270.336090088,6.4e-05,0.0,0.0,0.0,8.1e-05,0.0,0.0,0.0,0.001444,2
1671462980473465881,442946,1671462980517144592,gps,2,1,42.3000246744,-83.6985507866,270.336090088,6.4e-05,0.0,0.0,0.0,8.1e-05,0.0,0.0,0.0,0.001444,2
1671462980483232883,442947,1671462980527063627,gps,2,1,42.3000246745,-83.6985507866,270.336120605,6.4e-05,0.0,0.0,0.0,8.1e-05,0.0,0.0,0.0,0.001444,2
1671462980493347472,442948,1671462980537054853,gps,2,1,42.3000246732,-83.6985507868,270.336120605,6.4e-05,0.0,0.0,0.0,8.1e-05,0.0,0.0,0.0,0.001444,2
1671462980503723696,442949,1671462980547353790,gps,2,1,42.3000246734,-83.6985507867,270.336120605,6.4e-05,0.0,0.0,0.0,8.1e-05,0.0,0.0,0.0,0.001444,2
1671462980513928869,442950,1671462980557137858,gps,2,1,42.3000246735,-83.6985507859,270.336090088,6.4e-05,0.0,0.0,0.0,8.1e-05,0.0,0.0,0.0,0.001444,2
1671462980523822129,442951,1671462980567119234,gps,2,1,42.3000246716,-83.6985507869,270.336151123,6.4e-05,0.0,0.0,0.0,8.1e-05,0.0,0.0,0.0,0.001444,2
1671462980533879649,442952,1671462980577165335,gps,2,1,42.3000246717,-83.6985507866,270.336151123,6.4e-05,0.0,0.0,0.0,8.1e-05,0.0,0.0,0.0,0.001444,2
1671462980543895313,442953,1671462980587145707,gps,2,1,42.3000246719,-83.6985507852,270.336120605,6.4e-05,0.0,0.0,0.0,8.1e-05,0.0,0.0,0.0,0.001444,2
1671462980553471039,442954,1671462980597155539,gps,2,1,42.30002467,-83.6985507863,270.336151123,6.4e-05,0.0,0.0,0.0,8.1e-05,0.0,0.0,0.0,0.001444,2
1671462980563470412,442955,1671462980607172581,gps,2,1,42.3000246702,-83.6985507856,270.336151123,6.4e-05,0.0,0.0,0.0,8.1e-05,0.0,0.0,0.0,0.001444,2
1671462980573630369,442956,1671462980617101504,gps,2,1,42.3000246703,-83.6985507843,270.336120605,6.4e-05,0.0,0.0,0.0,8.1e-05,0.0,0.0,0.0,0.001444,2
1671462980583543745,442957,1671462980627056478,gps,2,1,42.3000246684,-83.6985507855,270.336181641,6.4e-05,0.0,0.0,0.0,8.1e-05,0.0,0.0,0.0,0.001444,2
1671462980593546489,442958,1671462980637070950,gps,2,1,42.3000246686,-83.6985507843,270.336120605,6.4e-05,0.0,0.0,0.0,8.1e-05,0.0,0.0,0.0,0.001444,2
1671462980603641952,442959,1671462980647112066,gps,2,1,42.3000246687,-83.6985507838,270.336151123,6.4e-05,0.0,0.0,0.0,8.1e-05,0.0,0.0,0.0,0.001444,2
1671462980613453847,442960,1671462980657129083,gps,2,1,42.3000246669,-83.6985507848,270.336181641,6.4e-05,0.0,0.0,0.0,8.1e-05,0.0,0.0,0.0,0.001444,2
1671462980623383463,442961,1671462980667133601,gps,2,1,42.300024667,-83.6985507837,270.336151123,6.4e-05,0.0,0.0,0.0,8.1e-05,0.0,0.0,0.0,0.001444,2
1671462980633336825,442962,1671462980677066118,gps,2,1,42.3000246671,-83.6985507838,270.336181641,6.4e-05,0.0,0.0,0.0,8.1e-05,0.0,0.0,0.0,0.001444,2
1671462980643324539,442963,1671462980687059132,gps,2,1,42.3000246653,-83.6985507847,270.336212158,6.4e-05,0.0,0.0,0.0,8.1e-05,0.0,0.0,0.0,0.001444,2
1671462980653538334,442964,1671462980697116231,gps,2,1,42.3000246655,-83.6985507841,270.336212158,6.4e-05,0.0,0.0,0.0,8.1e-05,0.0,0.0,0.0,0.001444,2
1671462980663900666,442965,1671462980707085952,gps,2,1,42.3000246655,-83.6985507842,270.336212158,6.4e-05,0.0,0.0,0.0,8.1e-05,0.0,0.0,0.0,0.001444,2
1671462980673813183,442966,1671462980717075869,gps,2,1,42.3000246638,-83.698550785,270.336242676,6.4e-05,0.0,0.0,0.0,8.1e-05,0.0,0.0,0.0,0.001444,2
1671462980683720609,442967,1671462980727225285,gps,2,1,42.3000246638,-83.6985507848,270.336273193,6.4e-05,0.0,0.0,0.0,8.1e-05,0.0,0.0,0.0,0.001444,2
1671462980693733285,442968,1671462980737066328,gps,2,1,42.3000246639,-83.6985507842,270.336242676,6.4e-05,0.0,0.0,0.0,8.1e-05,0.0,0.0,0.0,0.001444,2
1671462980703752789,442969,1671462980747055608,gps,2,1,42.3000246622,-83.698550785,270.336273193,6.4e-05,0.0,0.0,0.0,8.1e-05,0.0,0.0,0.0,0.001444,2
1671462980713739109,442970,1671462980757106358,gps,2,1,42.3000246623,-83.6985507848,270.336273193,6.4e-05,0.0,0.0,0.0,8.1e-05,0.0,0.0,0.0,0.001444,2
1671462980723398128,442971,1671462980767047620,gps,2,1,42.3000246624,-83.6985507836,270.336242676,6.4e-05,0.0,0.0,0.0,8.1e-05,0.0,0.0,0.0,0.001444,2
1671462980733500982,442972,1671462980777043164,gps,2,1,42.3000246607,-83.6985507845,270.336303711,6.4e-05,0.0,0.0,0.0,8.1e-05,0.0,0.0,0.0,0.001444,2
1671462980743352051,442973,1671462980787044514,gps,2,1,42.3000246608,-83.6985507839,270.336273193,6.4e-05,0.0,0.0,0.0,8.1e-05,0.0,0.0,0.0,0.001444,2
1671462980753359847,442974,1671462980797136941,gps,2,1,42.3000246609,-83.6985507827,270.336242676,6.4e-05,0.0,0.0,0.0,8.1e-05,0.0,0.0,0.0,0.001444,2
1671462980763264615,442975,1671462980807089200,gps,2,1,42.3000246593,-83.6985507837,270.336303711,6.4e-05,0.0,0.0,0.0,8.1e-05,0.0,0.0,0.0,0.001444,2
1671462980773373491,442976,1671462980817129592,gps,2,1,42.3000246594,-83.6985507826,270.336273193,6.4e-05,0.0,0.0,0.0,8.1e-05,0.0,0.0,0.0,0.001444,2
1671462980783330670,442977,1671462980827058090,gps,2,1,42.3000246595,-83.6985507819,270.336273193,6.4e-05,0.0,0.0,0.0,8.1e-05,0.0,0.0,0.0,0.001444,2
1671462980793293122,442978,1671462980837063657,gps,2,1,42.3000246579,-83.6985507828,270.336303711,6.4e-05,0.0,0.0,0.0,8.1e-05,0.0,0.0,0.0,0.001444,2
1671462980803648926,442979,1671462980847118275,gps,2,1,42.300024658,-83.6985507816,270.336273193,6.4e-05,0.0,0.0,0.0,8.1e-05,0.0,0.0,0.0,0.001444,2
1671462980813292728,442980,1671462980857058817,gps,2,1,42.3000246581,-83.6985507816,270.336303711,6.4e-05,0.0,0.0,0.0,8.1e-05,0.0,0.0,0.0,0.001444,2
1671462980823725862,442981,1671462980867056167,gps,2,1,42.3000246566,-83.6985507822,270.336334229,6.4e-05,0.0,0.0,0.0,8.1e-05,0.0,0.0,0.0,0.001444,2
1671462980833278739,442982,1671462980877118534,gps,2,1,42.3000246567,-83.6985507815,270.336334229,6.4e-05,0.0,0.0,0.0,8.1e-05,0.0,0.0,0.0,0.001444,2
1671462980843669123,442983,1671462980887062644,gps,2,1,42.3000246567,-83.6985507815,270.336334229,6.4e-05,0.0,0.0,0.0,8.1e-05,0.0,0.0,0.0,0.001444,2
1671462980853439508,442984,1671462980897068068,gps,2,1,42.3000246552,-83.698550782,270.336364746,6.4e-05,0.0,0.0,0.0,8.1e-05,0.0,0.0,0.0,0.001444,2
1671462980863613461,442985,1671462980907212109,gps,2,1,42.3000246552,-83.6985507818,270.336364746,6.4e-05,0.0,0.0,0.0,8.1e-05,0.0,0.0,0.0,0.001444,2
1671462980873560945,442986,1671462980917052960,gps,2,1,42.3000246552,-83.6985507812,270.336364746,6.4e-05,0.0,0.0,0.0,8.1e-05,0.0,0.0,0.0,0.001444,2
1671462980883476229,442987,1671462980927051343,gps,2,1,42.3000246538,-83.6985507816,270.336364746,6.4e-05,0.0,0.0,0.0,8.1e-05,0.0,0.0,0.0,0.001444,2
1671462980893462795,442988,1671462980937070897,gps,2,1,42.3000246537,-83.6985507815,270.336395264,6.4e-05,0.0,0.0,0.0,8.1e-05,0.0,0.0,0.0,0.001444,2
1671462980903212934,442989,1671462980947126615,gps,2,1,42.3000246538,-83.6985507803,270.336364746,6.4e-05,0.0,0.0,0.0,8.1e-05,0.0,0.0,0.0,0.001444,2
1671462980913374555,442990,1671462980957059191,gps,2,1,42.3000246523,-83.6985507809,270.336395264,6.4e-05,0.0,0.0,0.0,8.1e-05,0.0,0.0,0.0,0.001444,2
1671462980923335507,442991,1671462980967070590,gps,2,1,42.3000246524,-83.6985507804,270.336364746,6.4e-05,0.0,0.0,0.0,8.1e-05,0.0,0.0,0.0,0.001444,2
1671462980933863857,442992,1671462980977218442,gps,2,1,42.3000246525,-83.698550779,270.336334229,6.4e-05,0.0,0.0,0.0,8.1e-05,0.0,0.0,0.0,0.001444,2
1671462980943590524,442993,1671462980987071919,gps,2,1,42.3000246511,-83.6985507797,270.336364746,6.4e-05,0.0,0.0,0.0,8.1e-05,0.0,0.0,0.0,0.001444,2
1671462980953637006,442994,1671462980997117556,gps,2,1,42.3000246511,-83.6985507787,270.336334229,6.4e-05,0.0,0.0,0.0,8.1e-05,0.0,0.0,0.0,0.001444,2
1671462980963817558,442995,1671462981007059433,gps,2,1,42.3000246512,-83.6985507779,270.336334229,6.4e-05,0.0,0.0,0.0,8.1e-05,0.0,0.0,0.0,0.001444,2
1671462980973647828,442996,1671462981017059360,gps,2,1,42.3000246498,-83.6985507785,270.336364746,6.4e-05,0.0,0.0,0.0,8.1e-05,0.0,0.0,0.0,0.001444,2
1671462980983584355,442997,1671462981027118743,gps,2,1,42.3000246498,-83.6985507773,270.336334229,6.4e-05,0.0,0.0,0.0,8.1e-05,0.0,0.0,0.0,0.001444,2
1671462980993223935,442998,1671462981037049531,gps,2,1,42.3000246498,-83.6985507772,270.336364746,6.4e-05,0.0,0.0,0.0,8.1e-05,0.0,0.0,0.0,0.001444,2
1671462981003593204,442999,1671462981047102175,gps,2,1,42.3000246485,-83.6985507777,270.336364746,6.4e-05,0.0,0.0,0.0,8.1e-05,0.0,0.0,0.0,0.001444,2
1671462981013661715,443000,1671462981057207679,gps,2,1,42.3000246485,-83.6985507768,270.336364746,6.4e-05,0.0,0.0,0.0,8.1e-05,0.0,0.0,0.0,0.001444,2
1671462981023465297,443001,1671462981067113435,gps,2,1,42.3000246485,-83.698550777,270.336364746,6.4e-05,0.0,0.0,0.0,8.1e-05,0.0,0.0,0.0,0.001444,2
1671462981033472098,443002,1671462981077124409,gps,2,1,42.3000246467,-83.6985507782,270.336425781,6.4e-05,0.0,0.0,0.0,8.1e-05,0.0,0.0,0.0,0.001444,2
1671462981043739099,443003,1671462981087132812,gps,2,1,42.3000246468,-83.6985507779,270.336425781,6.4e-05,0.0,0.0,0.0,8.1e-05,0.0,0.0,0.0,0.001444,2
1671462981053378061,443004,1671462981097123210,gps,2,1,42.3000246467,-83.6985507774,270.336425781,6.4e-05,0.0,0.0,0.0,8.1e-05,0.0,0.0,0.0,0.001444,2
1671462981063554116,443005,1671462981107110566,gps,2,1,42.3000246451,-83.6985507785,270.336456299,6.4e-05,0.0,0.0,0.0,8.1e-05,0.0,0.0,0.0,0.001444,2
1671462981073869155,443006,1671462981117181969,gps,2,1,42.300024645,-83.6985507784,270.336486816,6.4e-05,0.0,0.0,0.0,8.1e-05,0.0,0.0,0.0,0.001444,2
1671462981083594076,443007,1671462981127135787,gps,2,1,42.3000246451,-83.6985507773,270.336456299,6.4e-05,0.0,0.0,0.0,8.1e-05,0.0,0.0,0.0,0.001444,2
1671462981093777723,443008,1671462981137076337,gps,2,1,42.3000246434,-83.6985507785,270.336486816,6.4e-05,0.0,0.0,0.0,8.1e-05,0.0,0.0,0.0,0.001444,2
1671462981103496273,443009,1671462981147069027,gps,2,1,42.3000246434,-83.6985507781,270.336486816,6.4e-05,0.0,0.0,0.0,8.1e-05,0.0,0.0,0.0,0.001444,2
1671462981113908374,443010,1671462981157223728,gps,2,1,42.3000246435,-83.6985507767,270.336456299,6.4e-05,0.0,0.0,0.0,8.1e-05,0.0,0.0,0.0,0.001444,2
1671462981123585947,443011,1671462981167063728,gps,2,1,42.3000246419,-83.698550778,270.336517334,6.4e-05,0.0,0.0,0.0,8.1e-05,0.0,0.0,0.0,0.001444,2
1671462981133642122,443012,1671462981177069722,gps,2,1,42.3000246419,-83.6985507771,270.336486816,6.4e-05,0.0,0.0,0.0,8.1e-05,0.0,0.0,0.0,0.001444,2
1671462981143591658,443013,1671462981187125595,gps,2,1,42.3000246419,-83.6985507761,270.336486816,6.4e-05,0.0,0.0,0.0,8.1e-05,0.0,0.0,0.0,0.001444,2
1671462981153513263,443014,1671462981197054238,gps,2,1,42.3000246403,-83.6985507774,270.336517334,6.4e-05,0.0,0.0,0.0,8.1e-05,0.0,0.0,0.0,0.001444,2
1671462981163466056,443015,1671462981207068502,gps,2,1,42.3000246403,-83.6985507761,270.336486816,6.4e-05,0.0,0.0,0.0,8.1e-05,0.0,0.0,0.0,0.001444,2
1671462981173479817,443016,1671462981217105213,gps,2,1,42.3000246402,-83.698550776,270.336486816,6.4e-05,0.0,0.0,0.0,8.1e-05,0.0,0.0,0.0,0.001444,2
1671462981183289186,443017,1671462981227151679,gps,2,1,42.3000246387,-83.6985507771,270.336517334,6.4e-05,0.0,0.0,0.0,8.1e-05,0.0,0.0,0.0,0.001444,2
1671462981193470875,443018,1671462981237060006,gps,2,1,42.3000246387,-83.6985507761,270.336517334,6.4e-05,0.0,0.0,0.0,8.1e-05,0.0,0.0,0.0,0.001444,2
1671462981203708055,443019,1671462981247153425,gps,2,1,42.3000246385,-83.6985507762,270.336547852,6.4e-05,0.0,0.0,0.0,8.1e-05,0.0,0.0,0.0,0.001444,2
1671462981213572875,443020,1671462981257064571,gps,2,1,42.300024637,-83.6985507771,270.336547852,6.4e-05,0.0,0.0,0.0,8.1e-05,0.0,0.0,0.0,0.001444,2
1671462981223249913,443021,1671462981267060727,gps,2,1,42.3000246369,-83.6985507767,270.336547852,6.4e-05,0.0,0.0,0.0,8.1e-05,0.0,0.0,0.0,0.001444,2
1671462981233777964,443022,1671462981277130011,gps,2,1,42.3000246369,-83.6985507763,270.336547852,6.4e-05,0.0,0.0,0.0,8.1e-05,0.0,0.0,0.0,0.001444,2
1671462981243704187,443023,1671462981287061336,gps,2,1,42.3000246354,-83.6985507771,270.336578369,6.4e-05,0.0,0.0,0.0,8.1e-05,0.0,0.0,0.0,0.001444,2
1671462981253707478,443024,1671462981297067914,gps,2,1,42.3000246353,-83.6985507771,270.336578369,0.000121,0.0,0.0,0.0,0.000144,0.0,0.0,0.0,0.001521,2
1671462981263642074,443025,1671462981307140683,gps,2,1,42.3000246353,-83.698550776,270.336547852,0.000121,0.0,0.0,0.0,0.000144,0.0,0.0,0.0,0.001521,2
1671462981273583523,443026,1671462981317071213,gps,2,1,42.3000246338,-83.6985507769,270.336578369,0.000121,0.0,0.0,0.0,0.000144,0.0,0.0,0.0,0.001521,2
1671462981283599237,443027,1671462981327072509,gps,2,1,42.3000246337,-83.6985507766,270.336578369,0.000121,0.0,0.0,0.0,0.000144,0.0,0.0,0.0,0.001521,2
1671462981293600631,443028,1671462981337111581,gps,2,1,42.3000246337,-83.6985507752,270.336547852,0.000121,0.0,0.0,0.0,0.000144,0.0,0.0,0.0,0.001521,2
1671462981303508437,443029,1671462981347070964,gps,2,1,42.3000246323,-83.6985507762,270.336547852,0.000121,0.0,0.0,0.0,0.000144,0.0,0.0,0.0,0.001521,2
1671462981313501809,443030,1671462981357072933,gps,2,1,42.3000246322,-83.6985507754,270.336547852,0.000121,0.0,0.0,0.0,0.000144,0.0,0.0,0.0,0.001521,2
1671462981323430504,443031,1671462981367123091,gps,2,1,42.3000246322,-83.6985507742,270.336517334,0.000121,0.0,0.0,0.0,0.000144,0.0,0.0,0.0,0.001521,2
1671462981333397511,443032,1671462981377058391,gps,2,1,42.3000246308,-83.6985507753,270.336547852,0.000121,0.0,0.0,0.0,0.000144,0.0,0.0,0.0,0.001521,2
1671462981343309218,443033,1671462981387161549,gps,2,1,42.3000246308,-83.6985507741,270.336517334,0.000121,0.0,0.0,0.0,0.000144,0.0,0.0,0.0,0.001521,2
1671462981353399939,443034,1671462981397128209,gps,2,1,42.3000246307,-83.6985507739,270.336547852,0.000121,0.0,0.0,0.0,0.000144,0.0,0.0,0.0,0.001521,2
1671462981363893628,443035,1671462981407151627,gps,2,1,42.3000246294,-83.6985507747,270.336547852,0.000121,0.0,0.0,0.0,0.000144,0.0,0.0,0.0,0.001521,2
1671462981373794262,443036,1671462981417070112,gps,2,1,42.3000246293,-83.6985507737,270.336547852,0.000121,0.0,0.0,0.0,0.000144,0.0,0.0,0.0,0.001521,2
1671462981383649797,443037,1671462981427151184,gps,2,1,42.3000246292,-83.698550774,270.336547852,0.000121,0.0,0.0,0.0,0.000144,0.0,0.0,0.0,0.001521,2
1671462981393770976,443038,1671462981437068631,gps,2,1,42.3000246278,-83.6985507748,270.336578369,0.000121,0.0,0.0,0.0,0.000144,0.0,0.0,0.0,0.001521,2
1671462981403539238,443039,1671462981447077191,gps,2,1,42.3000246277,-83.6985507743,270.336578369,0.000121,0.0,0.0,0.0,0.000144,0.0,0.0,0.0,0.001521,2
1671462981413735220,443040,1671462981457123471,gps,2,1,42.3000246275,-83.6985507742,270.336578369,0.000121,0.0,0.0,0.0,0.000144,0.0,0.0,0.0,0.001521,2
1671462981423545492,443041,1671462981467057294,gps,2,1,42.3000246261,-83.6985507748,270.336608887,0.000121,0.0,0.0,0.0,0.000144,0.0,0.0,0.0,0.001521,2
1671462981433819546,443042,1671462981477155774,gps,2,1,42.300024626,-83.6985507747,270.336608887,0.000121,0.0,0.0,0.0,0.000144,0.0,0.0,0.0,0.001521,2
1671462981443583240,443043,1671462981487110427,gps,2,1,42.3000246259,-83.6985507739,270.336608887,0.000121,0.0,0.0,0.0,0.000144,0.0,0.0,0.0,0.001521,2
1671462981453485515,443044,1671462981497049286,gps,2,1,42.3000246245,-83.6985507747,270.336639404,0.000121,0.0,0.0,0.0,0.000144,0.0,0.0,0.0,0.001521,2
1671462981463534354,443045,1671462981507054082,gps,2,1,42.3000246243,-83.6985507744,270.336639404,0.000121,0.0,0.0,0.0,0.000144,0.0,0.0,0.0,0.001521,2
1671462981473424790,443046,1671462981517126052,gps,2,1,42.3000246243,-83.698550773,270.336578369,0.000121,0.0,0.0,0.0,0.000144,0.0,0.0,0.0,0.001521,2
1671462981483369085,443047,1671462981527075006,gps,2,1,42.3000246229,-83.6985507739,270.336608887,0.000121,0.0,0.0,0.0,0.000144,0.0,0.0,0.0,0.001521,2
1671462981493351274,443048,1671462981537067204,gps,2,1,42.3000246228,-83.6985507732,270.336608887,0.000121,0.0,0.0,0.0,0.000144,0.0,0.0,0.0,0.001521,2
1671462981503926131,443049,1671462981547271969,gps,2,1,42.3000246228,-83.6985507718,270.336578369,0.000121,0.0,0.0,0.0,0.000144,0.0,0.0,0.0,0.001521,2
1671462981513327912,443050,1671462981557197589,gps,2,1,42.3000246205,-83.6985507741,270.336578369,0.000121,0.0,0.0,0.0,0.000144,0.0,0.0,0.0,0.001521,2
1671462981523562590,443051,1671462981567106770,gps,2,1,42.3000246204,-83.698550773,270.336547852,0.000121,0.0,0.0,0.0,0.000144,0.0,0.0,0.0,0.001521,2
1671462981533350314,443052,1671462981577183066,gps,2,1,42.3000246203,-83.6985507724,270.336547852,0.000121,0.0,0.0,0.0,0.000144,0.0,0.0,0.0,0.001521,2
1671462981543438406,443053,1671462981587130301,gps,2,1,42.3000246181,-83.6985507745,270.336517334,0.000121,0.0,0.0,0.0,0.000144,0.0,0.0,0.0,0.001521,2
1671462981553676034,443054,1671462981597188091,gps,2,1,42.300024618,-83.6985507734,270.336517334,0.000121,0.0,0.0,0.0,0.000144,0.0,0.0,0.0,0.001521,2
1671462981563451148,443055,1671462981607163259,gps,2,1,42.3000246178,-83.6985507734,270.336517334,0.000121,0.0,0.0,0.0,0.000144,0.0,0.0,0.0,0.001521,2
1671462981573580836,443056,1671462981617087641,gps,2,1,42.3000246157,-83.6985507752,270.336517334,0.000121,0.0,0.0,0.0,0.000144,0.0,0.0,0.0,0.001521,2
1671462981583389187,443057,1671462981627069934,gps,2,1,42.3000246156,-83.6985507746,270.336517334,0.000121,0.0,0.0,0.0,0.000144,0.0,0.0,0.0,0.001521,2
1671462981593506789,443058,1671462981637138495,gps,2,1,42.3000246154,-83.6985507746,270.336517334,0.000121,0.0,0.0,0.0,0.000144,0.0,0.0,0.0,0.001521,2
1671462981603293416,443059,1671462981647057818,gps,2,1,42.3000246133,-83.6985507762,270.336486816,0.000121,0.0,0.0,0.0,0.000144,0.0,0.0,0.0,0.001521,2
1671462981613596256,443060,1671462981657158446,gps,2,1,42.3000246131,-83.698550776,270.336517334,0.000121,0.0,0.0,0.0,0.000144,0.0,0.0,0.0,0.001521,2
1671462981623394817,443061,1671462981667176105,gps,2,1,42.3000246129,-83.6985507755,270.336517334,0.000121,0.0,0.0,0.0,0.000144,0.0,0.0,0.0,0.001521,2
1671462981633321978,443062,1671462981677101406,gps,2,1,42.3000246109,-83.6985507772,270.336486816,0.000121,0.0,0.0,0.0,0.000144,0.0,0.0,0.0,0.001521,2
1671462981643783208,443063,1671462981687074450,gps,2,1,42.3000246107,-83.6985507771,270.336486816,0.000121,0.0,0.0,0.0,0.000144,0.0,0.0,0.0,0.001521,2
1671462981653446578,443064,1671462981697121684,gps,2,1,42.3000246106,-83.6985507759,270.336456299,0.000121,0.0,0.0,0.0,0.000144,0.0,0.0,0.0,0.001521,2
1671462981663842354,443065,1671462981707055767,gps,2,1,42.3000246087,-83.6985507777,270.336456299,0.000121,0.0,0.0,0.0,0.000144,0.0,0.0,0.0,0.001521,2
1671462981673566708,443066,1671462981717058560,gps,2,1,42.3000246085,-83.6985507772,270.336425781,0.000121,0.0,0.0,0.0,0.000144,0.0,0.0,0.0,0.001521,2
1671462981683782307,443067,1671462981727218169,gps,2,1,42.3000246084,-83.6985507759,270.336395264,0.000121,0.0,0.0,0.0,0.000144,0.0,0.0,0.0,0.001521,2
1671462981693799139,443068,1671462981737064209,gps,2,1,42.3000246065,-83.6985507778,270.336395264,0.000121,0.0,0.0,0.0,0.000144,0.0,0.0,0.0,0.001521,2
1671462981703464235,443069,1671462981747063751,gps,2,1,42.3000246063,-83.6985507768,270.336364746,0.000121,0.0,0.0,0.0,0.000144,0.0,0.0,0.0,0.001521,2
1671462981713781063,443070,1671462981757110488,gps,2,1,42.3000246062,-83.698550776,270.336364746,0.000121,0.0,0.0,0.0,0.000144,0.0,0.0,0.0,0.001521,2
1671462981723543977,443071,1671462981767060370,gps,2,1,42.3000246043,-83.6985507778,270.336364746,0.000121,0.0,0.0,0.0,0.000144,0.0,0.0,0.0,0.001521,2
1671462981733735616,443072,1671462981777069473,gps,2,1,42.3000246042,-83.6985507767,270.336334229,0.000121,0.0,0.0,0.0,0.000144,0.0,0.0,0.0,0.001521,2
1671462981743277499,443073,1671462981787121473,gps,2,1,42.300024604,-83.6985507766,270.336334229,0.000121,0.0,0.0,0.0,0.000144,0.0,0.0,0.0,0.001521,2
1671462981753353341,443074,1671462981797054758,gps,2,1,42.3000246022,-83.6985507781,270.336334229,0.000121,0.0,0.0,0.0,0.000144,0.0,0.0,0.0,0.001521,2
1671462981763579971,443075,1671462981807090433,gps,2,1,42.300024602,-83.6985507773,270.336334229,0.000121,0.0,0.0,0.0,0.000144,0.0,0.0,0.0,0.001521,2
1671462981773811167,443076,1671462981817126567,gps,2,1,42.3000246017,-83.6985507773,270.336334229,0.000121,0.0,0.0,0.0,0.000144,0.0,0.0,0.0,0.001521,2
1671462981783284788,443077,1671462981827066071,gps,2,1,42.3000246,-83.6985507786,270.336303711,0.000121,0.0,0.0,0.0,0.000144,0.0,0.0,0.0,0.001521,2
1671462981793222072,443078,1671462981837071319,gps,2,1,42.3000245997,-83.6985507783,270.336334229,0.000121,0.0,0.0,0.0,0.000144,0.0,0.0,0.0,0.001521,2
1671462981803648090,443079,1671462981847120456,gps,2,1,42.3000245995,-83.6985507781,270.336334229,0.000121,0.0,0.0,0.0,0.000144,0.0,0.0,0.0,0.001521,2
1671462981813719110,443080,1671462981857059926,gps,2,1,42.3000245977,-83.6985507793,270.336303711,0.000121,0.0,0.0,0.0,0.000144,0.0,0.0,0.0,0.001521,2
1671462981823550083,443081,1671462981867066627,gps,2,1,42.3000245975,-83.6985507792,270.336334229,0.000121,0.0,0.0,0.0,0.000144,0.0,0.0,0.0,0.001521,2
1671462981833483469,443082,1671462981877132634,gps,2,1,42.3000245972,-83.6985507782,270.336273193,0.000121,0.0,0.0,0.0,0.000144,0.0,0.0,0.0,0.001521,2
1671462981843514064,443083,1671462981887069154,gps,2,1,42.3000245955,-83.6985507795,270.336273193,0.000121,0.0,0.0,0.0,0.000144,0.0,0.0,0.0,0.001521,2
1671462981853660460,443084,1671462981897199478,gps,2,1,42.3000245953,-83.6985507792,270.336273193,0.000121,0.0,0.0,0.0,0.000144,0.0,0.0,0.0,0.001521,2
1671462981863600452,443085,1671462981907231810,gps,2,1,42.300024595,-83.6985507779,270.336242676,0.000121,0.0,0.0,0.0,0.000144,0.0,0.0,0.0,0.001521,2
1671462981873610591,443086,1671462981917067284,gps,2,1,42.3000245934,-83.6985507793,270.336242676,0.000121,0.0,0.0,0.0,0.000144,0.0,0.0,0.0,0.001521,2
1671462981883568010,443087,1671462981927057731,gps,2,1,42.3000245931,-83.6985507785,270.336212158,0.000121,0.0,0.0,0.0,0.000144,0.0,0.0,0.0,0.001521,2
1671462981893496942,443088,1671462981937143737,gps,2,1,42.3000245929,-83.6985507775,270.336181641,0.000121,0.0,0.0,0.0,0.000144,0.0,0.0,0.0,0.001521,2
1671462981903328743,443089,1671462981947068445,gps,2,1,42.3000245914,-83.698550779,270.336181641,0.000121,0.0,0.0,0.0,0.000144,0.0,0.0,0.0,0.001521,2
1671462981913484068,443090,1671462981957124303,gps,2,1,42.3000245912,-83.6985507779,270.336151123,0.000121,0.0,0.0,0.0,0.000144,0.0,0.0,0.0,0.001521,2
1671462981923531699,443091,1671462981967058454,gps,2,1,42.300024591,-83.6985507775,270.336181641,0.000121,0.0,0.0,0.0,0.000144,0.0,0.0,0.0,0.001521,2
1671462981933814762,443092,1671462981977160341,gps,2,1,42.3000245894,-83.6985507788,270.336181641,0.000121,0.0,0.0,0.0,0.000144,0.0,0.0,0.0,0.001521,2
1671462981943732722,443093,1671462981987061591,gps,2,1,42.3000245893,-83.6985507778,270.336151123,0.000121,0.0,0.0,0.0,0.000144,0.0,0.0,0.0,0.001521,2
1671462981953803504,443094,1671462981997111665,gps,2,1,42.300024589,-83.6985507779,270.336181641,0.000121,0.0,0.0,0.0,0.000144,0.0,0.0,0.0,0.001521,2
1671462981963853626,443095,1671462982007063408,gps,2,1,42.3000245875,-83.698550779,270.336181641,0.000121,0.0,0.0,0.0,0.000144,0.0,0.0,0.0,0.001521,2
1671462981973781349,443096,1671462982017064803,gps,2,1,42.3000245873,-83.6985507785,270.336181641,0.000121,0.0,0.0,0.0,0.000144,0.0,0.0,0.0,0.001521,2
1671462981983560529,443097,1671462982027121989,gps,2,1,42.3000245871,-83.6985507785,270.336181641,0.000121,0.0,0.0,0.0,0.000144,0.0,0.0,0.0,0.001521,2
1671462981993589256,443098,1671462982037068595,gps,2,1,42.3000245856,-83.6985507794,270.336181641,0.000121,0.0,0.0,0.0,0.000144,0.0,0.0,0.0,0.001521,2
1671462982003386622,443099,1671462982047184932,gps,2,1,42.3000245853,-83.6985507794,270.336181641,0.000121,0.0,0.0,0.0,0.000144,0.0,0.0,0.0,0.001521,2
1671462982013420790,443100,1671462982057200191,gps,2,1,42.3000245851,-83.6985507786,270.336151123,0.000121,0.0,0.0,0.0,0.000144,0.0,0.0,0.0,0.001521,2
1671462982023507143,443101,1671462982067159623,gps,2,1,42.3000245837,-83.6985507795,270.336151123,0.000121,0.0,0.0,0.0,0.000144,0.0,0.0,0.0,0.001521,2
1671462982033462533,443102,1671462982077187763,gps,2,1,42.3000245834,-83.6985507794,270.336151123,0.000121,0.0,0.0,0.0,0.000144,0.0,0.0,0.0,0.001521,2
1671462982043348105,443103,1671462982087125131,gps,2,1,42.3000245831,-83.6985507781,270.336120605,0.000121,0.0,0.0,0.0,0.000144,0.0,0.0,0.0,0.001521,2
1671462982053350260,443104,1671462982097117693,gps,2,1,42.3000245821,-83.6985507798,270.336120605,0.000121,0.0,0.0,0.0,0.000144,0.0,0.0,0.0,0.001521,2
1671462982063796417,443105,1671462982107171615,gps,2,1,42.3000245818,-83.6985507792,270.336090088,0.000121,0.0,0.0,0.0,0.000144,0.0,0.0,0.0,0.001521,2
1671462982073649567,443106,1671462982117119359,gps,2,1,42.3000245815,-83.698550778,270.336090088,0.000121,0.0,0.0,0.0,0.000144,0.0,0.0,0.0,0.001521,2
1671462982083931674,443107,1671462982127118939,gps,2,1,42.3000245805,-83.6985507798,270.336090088,0.000121,0.0,0.0,0.0,0.000144,0.0,0.0,0.0,0.001521,2
1671462982093899635,443108,1671462982137175085,gps,2,1,42.3000245802,-83.6985507787,270.33605957,0.000121,0.0,0.0,0.0,0.000144,0.0,0.0,0.0,0.001521,2
1671462982103698646,443109,1671462982147122282,gps,2,1,42.3000245799,-83.6985507781,270.33605957,0.000121,0.0,0.0,0.0,0.000144,0.0,0.0,0.0,0.001521,2
1671462982113788992,443110,1671462982157227183,gps,2,1,42.3000245789,-83.6985507798,270.33605957,0.000121,0.0,0.0,0.0,0.000144,0.0,0.0,0.0,0.001521,2
1671462982123634442,443111,1671462982167154190,gps,2,1,42.3000245786,-83.6985507786,270.336029053,0.000121,0.0,0.0,0.0,0.000144,0.0,0.0,0.0,0.001521,2
1671462982133675160,443112,1671462982177130917,gps,2,1,42.3000245783,-83.6985507787,270.33605957,0.000121,0.0,0.0,0.0,0.000144,0.0,0.0,0.0,0.001521,2
1671462982143543860,443113,1671462982187124197,gps,2,1,42.3000245774,-83.6985507801,270.336029053,0.000121,0.0,0.0,0.0,0.000144,0.0,0.0,0.0,0.001521,2
1671462982153513303,443114,1671462982197162838,gps,2,1,42.3000245771,-83.6985507794,270.336029053,0.000121,0.0,0.0,0.0,0.000144,0.0,0.0,0.0,0.001521,2
1671462982163586592,443115,1671462982207101055,gps,2,1,42.3000245768,-83.6985507796,270.33605957,0.000121,0.0,0.0,0.0,0.000144,0.0,0.0,0.0,0.001521,2
1671462982173458024,443116,1671462982217118424,gps,2,1,42.3000245759,-83.6985507808,270.336029053,0.000121,0.0,0.0,0.0,0.000144,0.0,0.0,0.0,0.001521,2
1671462982183562765,443117,1671462982227278801,gps,2,1,42.3000245757,-83.6985507807,270.33605957,0.000121,0.0,0.0,0.0,0.000144,0.0,0.0,0.0,0.001521,2
1671462982193774466,443118,1671462982237146647,gps,2,1,42.3000245754,-83.6985507801,270.336029053,0.000121,0.0,0.0,0.0,0.000144,0.0,0.0,0.0,0.001521,2
1671462982203271145,443119,1671462982247138695,gps,2,1,42.3000245745,-83.6985507814,270.336029053,0.000121,0.0,0.0,0.0,0.000144,0.0,0.0,0.0,0.001521,2
1671462982213484850,443120,1671462982257090009,gps,2,1,42.3000245742,-83.6985507814,270.336029053,0.000121,0.0,0.0,0.0,0.000144,0.0,0.0,0.0,0.001521,2
1671462982223632788,443121,1671462982267152715,gps,2,1,42.300024574,-83.6985507801,270.335998535,0.000121,0.0,0.0,0.0,0.000144,0.0,0.0,0.0,0.001521,2
1671462982233762368,443122,1671462982277064451,gps,2,1,42.3000245731,-83.6985507815,270.335998535,0.000121,0.0,0.0,0.0,0.000144,0.0,0.0,0.0,0.001521,2
1671462982243938802,443123,1671462982287123879,gps,2,1,42.3000245728,-83.6985507811,270.335998535,0.000121,0.0,0.0,0.0,0.000144,0.0,0.0,0.0,0.001521,2
