%time,field.header.seq,field.header.stamp,field.header.frame_id,field.status.status,field.status.service,field.latitude,field.longitude,field.altitude,field.position_covariance0,field.position_covariance1,field.position_covariance2,field.position_covariance3,field.position_covariance4,field.position_covariance5,field.position_covariance6,field.position_covariance7,field.position_covariance8,field.position_covariance_type
1672944875070479160,150777,1672944875097556878,gps,2,1,42.3008963903,-83.6992162936,271.229278564,0.001089,0.0,0.0,0.0,0.001089,0.0,0.0,0.0,0.0049,2
1672944875090372545,150778,1672944875117551898,gps,2,1,42.3008963854,-83.6992162958,271.229553223,0.001089,0.0,0.0,0.0,0.001089,0.0,0.0,0.0,0.0049,2
1672944875111074463,150779,1672944875137469196,gps,2,1,42.3008963807,-83.6992162979,271.229797363,0.001089,0.0,0.0,0.0,0.001089,0.0,0.0,0.0,0.0049,2
1672944875130856000,150780,1672944875157439895,gps,2,1,42.3008963827,-83.6992162966,271.229705811,0.001089,0.0,0.0,0.0,0.001089,0.0,0.0,0.0,0.0049,2
1672944875150496036,150781,1672944875177467058,gps,2,1,42.3008963786,-83.6992162989,271.229919434,0.001089,0.0,0.0,0.0,0.001089,0.0,0.0,0.0,0.0049,2
1672944875170347781,150782,1672944875197456059,gps,2,1,42.3008963746,-83.6992163012,271.230133057,0.001089,0.0,0.0,0.0,0.001089,0.0,0.0,0.0,0.0049,2
1672944875190744619,150783,1672944875217435046,gps,2,1,42.3008963768,-83.6992163003,271.230041504,0.001089,0.0,0.0,0.0,0.001089,0.0,0.0,0.0,0.0049,2
1672944875210606246,150784,1672944875237418047,gps,2,1,42.3008963726,-83.6992163022,271.230224609,0.001089,0.0,0.0,0.0,0.001089,0.0,0.0,0.0,0.0049,2
1672944875230558420,150785,1672944875257422393,gps,2,1,42.3008963686,-83.6992163041,271.230407715,0.001089,0.0,0.0,0.0,0.001089,0.0,0.0,0.0,0.0049,2
1672944875250352170,150786,1672944875277351891,gps,2,1,42.3008963711,-83.6992163031,271.230316162,0.001089,0.0,0.0,0.0,0.001089,0.0,0.0,0.0,0.0049,2
1672944875270826239,150787,1672944875297481420,gps,2,1,42.300896367,-83.6992163043,271.23046875,0.001089,0.0,0.0,0.0,0.001089,0.0,0.0,0.0,0.0049,2
1672944875290984900,150788,1672944875317544627,gps,2,1,42.3008963631,-83.6992163053,271.23059082,0.001089,0.0,0.0,0.0,0.001089,0.0,0.0,0.0,0.0049,2
1672944875311211421,150789,1672944875337566879,gps,2,1,42.3008963645,-83.6992163027,271.23046875,0.001089,0.0,0.0,0.0,0.001089,0.0,0.0,0.0,0.0049,2
1672944875330842268,150790,1672944875357509574,gps,2,1,42.3008963585,-83.6992163022,271.230529785,0.001089,0.0,0.0,0.0,0.001089,0.0,0.0,0.0,0.0049,2
1672944875350823426,150791,1672944875377462588,gps,2,1,42.3008963526,-83.6992163014,271.230560303,0.001089,0.0,0.0,0.0,0.001089,0.0,0.0,0.0,0.0049,2
1672944875370495321,150792,1672944875397451463,gps,2,1,42.3008963514,-83.6992162964,271.230407715,0.001089,0.0,0.0,0.0,0.001089,0.0,0.0,0.0,0.0049,2
1672944875390461707,150793,1672944875417416002,gps,2,1,42.3008963427,-83.6992162928,271.230438232,0.001089,0.0,0.0,0.0,0.001089,0.0,0.0,0.0,0.0049,2
1672944875410492081,150794,1672944875437350509,gps,2,1,42.3008963335,-83.699216289,271.23046875,0.001089,0.0,0.0,0.0,0.001089,0.0,0.0,0.0,0.0049,2
1672944875430798228,150795,1672944875457544685,gps,2,1,42.3008963288,-83.6992162809,271.230285645,0.001089,0.0,0.0,0.0,0.001089,0.0,0.0,0.0,0.0049,2
1672944875450699002,150796,1672944875477448813,gps,2,1,42.3008963162,-83.6992162736,271.230285645,0.001089,0.0,0.0,0.0,0.001089,0.0,0.0,0.0,0.0049,2
1672944875470293453,150797,1672944875497395282,gps,2,1,42.3008963032,-83.699216265,271.230285645,0.001089,0.0,0.0,0.0,0.001089,0.0,0.0,0.0,0.0049,2
1672944875490715552,150798,1672944875517386844,gps,2,1,42.3008962946,-83.6992162532,271.230072021,0.001089,0.0,0.0,0.0,0.001089,0.0,0.0,0.0,0.0049,2
1672944875510554649,150799,1672944875537372217,gps,2,1,42.3008962779,-83.6992162407,271.230041504,0.001089,0.0,0.0,0.0,0.001089,0.0,0.0,0.0,0.0049,2
1672944875530682316,150800,1672944875557621356,gps,2,1,42.3008962612,-83.6992162281,271.230010986,0.001089,0.0,0.0,0.0,0.001089,0.0,0.0,0.0,0.0049,2
1672944875550574310,150801,1672944875577609000,gps,2,1,42.3008962483,-83.699216212,271.229797363,0.001089,0.0,0.0,0.0,0.001089,0.0,0.0,0.0,0.0049,2
1672944875570577295,150802,1672944875597432731,gps,2,1,42.3008962252,-83.6992161934,271.230224609,0.001089,0.0,0.0,0.0,0.001089,0.0,0.0,0.0,0.0049,2
1672944875590860147,150803,1672944875617463893,gps,2,1,42.3008962023,-83.699216175,271.230621338,0.001089,0.0,0.0,0.0,0.001089,0.0,0.0,0.0,0.0049,2
1672944875610800976,150804,1672944875637572332,gps,2,1,42.3008961843,-83.6992161539,271.230407715,0.001089,0.0,0.0,0.0,0.001089,0.0,0.0,0.0,0.0049,2
1672944875631003329,150805,1672944875657460922,gps,2,1,42.3008961566,-83.6992161312,271.230743408,0.001089,0.0,0.0,0.0,0.001089,0.0,0.0,0.0,0.0049,2
1672944875650629179,150806,1672944875677377391,gps,2,1,42.300896129,-83.6992161082,271.231109619,0.001089,0.0,0.0,0.0,0.001089,0.0,0.0,0.0,0.0049,2
1672944875670599899,150807,1672944875697470306,gps,2,1,42.3008961057,-83.6992160819,271.230895996,0.001089,0.0,0.0,0.0,0.001089,0.0,0.0,0.0,0.0049,2
1672944875690744206,150808,1672944875717464159,gps,2,1,42.3008960734,-83.6992160537,271.231201172,0.001089,0.0,0.0,0.0,0.001089,0.0,0.0,0.0,0.0049,2
1672944875710721635,150809,1672944875737387491,gps,2,1,42.3008960407,-83.6992160249,271.23147583,0.001089,0.0,0.0,0.0,0.001089,0.0,0.0,0.0,0.0049,2
1672944875730566312,150810,1672944875757463886,gps,2,1,42.3008960123,-83.699215993,271.231262207,0.001089,0.0,0.0,0.0,0.001089,0.0,0.0,0.0,0.0049,2
1672944875750357862,150811,1672944875777459229,gps,2,1,42.3008959749,-83.6992159584,271.231506348,0.001089,0.0,0.0,0.0,0.001089,0.0,0.0,0.0,0.0049,2
1672944875770573277,150812,1672944875797401340,gps,2,1,42.3008959365,-83.6992159238,271.231689453,0.0009,0.0,0.0,0.0,0.0009,0.0,0.0,0.0,0.004624,2
1672944875790639148,150813,1672944875817460568,gps,2,1,42.3008959025,-83.6992158855,271.23147583,0.0009,0.0,0.0,0.0,0.0009,0.0,0.0,0.0,0.004624,2
1672944875810750239,150814,1672944875837449650,gps,2,1,42.3008958589,-83.6992158448,271.231628418,0.0009,0.0,0.0,0.0,0.0009,0.0,0.0,0.0,0.004624,2
1672944875830605901,150815,1672944875857347024,gps,2,1,42.3008958155,-83.699215804,271.231781006,0.0009,0.0,0.0,0.0,0.0009,0.0,0.0,0.0,0.004624,2
1672944875850676541,150816,1672944875877576072,gps,2,1,42.3008957756,-83.6992157593,271.231567383,0.0009,0.0,0.0,0.0,0.0009,0.0,0.0,0.0,0.004624,2
1672944875870449621,150817,1672944875897422123,gps,2,1,42.3008957266,-83.6992157123,271.231689453,0.0009,0.0,0.0,0.0,0.0009,0.0,0.0,0.0,0.004624,2
1672944875890522352,150818,1672944875917411892,gps,2,1,42.3008956772,-83.6992156651,271.231842041,0.0009,0.0,0.0,0.0,0.0009,0.0,0.0,0.0,0.004624,2
1672944875910564864,150819,1672944875937419236,gps,2,1,42.3008956314,-83.6992156141,271.2315979,0.0009,0.0,0.0,0.0,0.0009,0.0,0.0,0.0,0.004624,2
1672944875930716810,150820,1672944875957439834,gps,2,1,42.3008955762,-83.6992155606,271.231750488,0.0009,0.0,0.0,0.0,0.0009,0.0,0.0,0.0,0.004624,2
1672944875950601247,150821,1672944875977397681,gps,2,1,42.300895521,-83.6992155068,271.231842041,0.0009,0.0,0.0,0.0,0.0009,0.0,0.0,0.0,0.004624,2
1672944875970601207,150822,1672944875997527421,gps,2,1,42.3008954687,-83.6992154489,271.231567383,0.0009,0.0,0.0,0.0,0.0009,0.0,0.0,0.0,0.004624,2
1672944875990577639,150823,1672944876017463672,gps,2,1,42.3008954073,-83.6992153881,271.231628418,0.0009,0.0,0.0,0.0,0.0009,0.0,0.0,0.0,0.004624,2
1672944876010728898,150824,1672944876037528560,gps,2,1,42.300895345,-83.6992153274,271.231628418,0.0009,0.0,0.0,0.0,0.0009,0.0,0.0,0.0,0.004624,2
1672944876030879285,150825,1672944876057663297,gps,2,1,42.3008952859,-83.6992152619,271.231323242,0.0009,0.0,0.0,0.0,0.0009,0.0,0.0,0.0,0.004624,2
1672944876050598203,150826,1672944876077461439,gps,2,1,42.3008952152,-83.6992151927,271.231567383,0.0009,0.0,0.0,0.0,0.0009,0.0,0.0,0.0,0.004624,2
1672944876070963316,150827,1672944876097595443,gps,2,1,42.3008951445,-83.699215123,271.231750488,0.0009,0.0,0.0,0.0,0.0009,0.0,0.0,0.0,0.004624,2
1672944876090666525,150828,1672944876117555040,gps,2,1,42.300895078,-83.699215049,271.231445312,0.0009,0.0,0.0,0.0,0.0009,0.0,0.0,0.0,0.004624,2
1672944876110630995,150829,1672944876137427087,gps,2,1,42.3008950005,-83.6992149706,271.2315979,0.0009,0.0,0.0,0.0,0.0009,0.0,0.0,0.0,0.004624,2
1672944876130592036,150830,1672944876157474709,gps,2,1,42.3008949228,-83.6992148917,271.231750488,0.0009,0.0,0.0,0.0,0.0009,0.0,0.0,0.0,0.004624,2
1672944876150604005,150831,1672944876177441533,gps,2,1,42.3008948486,-83.699214808,271.231414795,0.0009,0.0,0.0,0.0,0.0009,0.0,0.0,0.0,0.004624,2
1672944876170629323,150832,1672944876197423252,gps,2,1,42.3008947635,-83.6992147193,271.231506348,0.0009,0.0,0.0,0.0,0.0009,0.0,0.0,0.0,0.004624,2
1672944876190906979,150833,1672944876217455107,gps,2,1,42.3008946783,-83.6992146301,271.231567383,0.0009,0.0,0.0,0.0,0.0009,0.0,0.0,0.0,0.004624,2
1672944876210541958,150834,1672944876237427619,gps,2,1,42.3008945958,-83.6992145358,271.231170654,0.0009,0.0,0.0,0.0,0.0009,0.0,0.0,0.0,0.004624,2
1672944876230663711,150835,1672944876257437084,gps,2,1,42.3008945024,-83.699214436,271.231201172,0.0009,0.0,0.0,0.0,0.0009,0.0,0.0,0.0,0.004624,2
1672944876250557591,150836,1672944876277409178,gps,2,1,42.3008944089,-83.6992143357,271.231170654,0.0009,0.0,0.0,0.0,0.0009,0.0,0.0,0.0,0.004624,2
1672944876270568072,150837,1672944876297460195,gps,2,1,42.3008943178,-83.6992142302,271.230773926,0.0009,0.0,0.0,0.0,0.0009,0.0,0.0,0.0,0.004624,2
1672944876290585638,150838,1672944876317439924,gps,2,1,42.3008942161,-83.6992141189,271.230712891,0.0009,0.0,0.0,0.0,0.0009,0.0,0.0,0.0,0.004624,2
1672944876310710436,150839,1672944876337517503,gps,2,1,42.3008941143,-83.6992140073,271.230621338,0.0009,0.0,0.0,0.0,0.0009,0.0,0.0,0.0,0.004624,2
1672944876330633792,150840,1672944876357466935,gps,2,1,42.3008940145,-83.6992138902,271.230194092,0.0009,0.0,0.0,0.0,0.0009,0.0,0.0,0.0,0.004624,2
1672944876350671232,150841,1672944876377441421,gps,2,1,42.3008939045,-83.6992137674,271.230102539,0.0009,0.0,0.0,0.0,0.0009,0.0,0.0,0.0,0.004624,2
1672944876370537307,150842,1672944876397412191,gps,2,1,42.3008937943,-83.699213644,271.229980469,0.0009,0.0,0.0,0.0,0.0009,0.0,0.0,0.0,0.004624,2
1672944876390831959,150843,1672944876417540957,gps,2,1,42.3008936859,-83.6992135152,271.229553223,0.0009,0.0,0.0,0.0,0.0009,0.0,0.0,0.0,0.004624,2
1672944876410656251,150844,1672944876437440982,gps,2,1,42.3008935674,-83.6992133807,271.229431152,0.0009,0.0,0.0,0.0,0.0009,0.0,0.0,0.0,0.004624,2
1672944876430477293,150845,1672944876457435098,gps,2,1,42.3008934487,-83.6992132457,271.229309082,0.0009,0.0,0.0,0.0,0.0009,0.0,0.0,0.0,0.004624,2
1672944876450814073,150846,1672944876477544786,gps,2,1,42.300893332,-83.6992131046,271.228851318,0.0009,0.0,0.0,0.0,0.0009,0.0,0.0,0.0,0.004624,2
1672944876470532500,150847,1672944876497439175,gps,2,1,42.3008932059,-83.6992129574,271.228668213,0.0009,0.0,0.0,0.0,0.0009,0.0,0.0,0.0,0.004624,2
1672944876490617585,150848,1672944876517466055,gps,2,1,42.3008930795,-83.6992128096,271.228485107,0.0009,0.0,0.0,0.0,0.0009,0.0,0.0,0.0,0.004624,2
1672944876510717477,150849,1672944876537543890,gps,2,1,42.3008929549,-83.6992126553,271.227996826,0.0009,0.0,0.0,0.0,0.0009,0.0,0.0,0.0,0.004624,2
1672944876530478833,150850,1672944876557568427,gps,2,1,42.3008928226,-83.6992124948,271.227752686,0.0009,0.0,0.0,0.0,0.0009,0.0,0.0,0.0,0.004624,2
1672944876550592154,150851,1672944876577451187,gps,2,1,42.3008926886,-83.6992123331,271.227783203,0.0009,0.0,0.0,0.0,0.0009,0.0,0.0,0.0,0.004624,2
1672944876570485877,150852,1672944876597482660,gps,2,1,42.3008925565,-83.6992121645,271.227264404,0.0009,0.0,0.0,0.0,0.0009,0.0,0.0,0.0,0.004624,2
1672944876590985142,150853,1672944876617521136,gps,2,1,42.3008924151,-83.6992119879,271.227294922,0.0009,0.0,0.0,0.0,0.0009,0.0,0.0,0.0,0.004624,2
1672944876610857957,150854,1672944876637570430,gps,2,1,42.3008922736,-83.6992118105,271.227233887,0.0009,0.0,0.0,0.0,0.0009,0.0,0.0,0.0,0.004624,2
1672944876630671451,150855,1672944876657521491,gps,2,1,42.3008921343,-83.6992116267,271.22668457,0.0009,0.0,0.0,0.0,0.0009,0.0,0.0,0.0,0.004624,2
1672944876650604688,150856,1672944876677438212,gps,2,1,42.300891986,-83.6992114345,271.226623535,0.0009,0.0,0.0,0.0,0.0009,0.0,0.0,0.0,0.004624,2
1672944876670661830,150857,1672944876697468506,gps,2,1,42.3008918377,-83.6992112416,271.226501465,0.0009,0.0,0.0,0.0,0.0009,0.0,0.0,0.0,0.004624,2
1672944876690659063,150858,1672944876717461395,gps,2,1,42.3008916911,-83.6992110422,271.225952148,0.0009,0.0,0.0,0.0,0.0009,0.0,0.0,0.0,0.004624,2
1672944876710503930,150859,1672944876737430333,gps,2,1,42.3008915372,-83.6992108345,271.225738525,0.0009,0.0,0.0,0.0,0.0009,0.0,0.0,0.0,0.004624,2
1672944876730233051,150860,1672944876757461944,gps,2,1,42.3008913832,-83.6992106263,271.225524902,0.0009,0.0,0.0,0.0,0.0009,0.0,0.0,0.0,0.004624,2
1672944876750763156,150861,1672944876777536628,gps,2,1,42.300891229,-83.6992104114,271.224914551,0.0009,0.0,0.0,0.0,0.0009,0.0,0.0,0.0,0.004624,2
1672944876770316961,150862,1672944876797367393,gps,2,1,42.3008910678,-83.6992101883,271.224639893,0.0009,0.0,0.0,0.0,0.0009,0.0,0.0,0.0,0.004624,2
1672944876790317038,150863,1672944876817452654,gps,2,1,42.3008909065,-83.6992099642,271.224365234,0.0009,0.0,0.0,0.0,0.0009,0.0,0.0,0.0,0.004624,2
1672944876810677545,150864,1672944876837519990,gps,2,1,42.3008907448,-83.6992097338,271.223754883,0.0009,0.0,0.0,0.0,0.0009,0.0,0.0,0.0,0.004624,2
1672944876830836812,150865,1672944876857441978,gps,2,1,42.3008905762,-83.6992094954,271.223419189,0.0009,0.0,0.0,0.0,0.0009,0.0,0.0,0.0,0.004624,2
1672944876850558885,150866,1672944876877414349,gps,2,1,42.3008904074,-83.6992092567,271.223083496,0.0009,0.0,0.0,0.0,0.0009,0.0,0.0,0.0,0.004624,2
1672944876870278567,150867,1672944876897528417,gps,2,1,42.3008902383,-83.6992090102,271.222442627,0.0009,0.0,0.0,0.0,0.0009,0.0,0.0,0.0,0.004624,2
1672944876890898487,150868,1672944876917576252,gps,2,1,42.3008900627,-83.6992087561,271.222015381,0.0009,0.0,0.0,0.0,0.0009,0.0,0.0,0.0,0.004624,2
1672944876910635831,150869,1672944876937466654,gps,2,1,42.3008898874,-83.6992085004,271.221557617,0.0009,0.0,0.0,0.0,0.0009,0.0,0.0,0.0,0.004624,2
1672944876930611040,150870,1672944876957539054,gps,2,1,42.3008897113,-83.6992082379,271.220794678,0.0009,0.0,0.0,0.0,0.0009,0.0,0.0,0.0,0.004624,2
1672944876950569353,150871,1672944876977418293,gps,2,1,42.3008895297,-83.6992079665,271.220245361,0.0009,0.0,0.0,0.0,0.0009,0.0,0.0,0.0,0.004624,2
1672944876970575396,150872,1672944876997429398,gps,2,1,42.300889348,-83.6992076944,271.219665527,0.0009,0.0,0.0,0.0,0.0009,0.0,0.0,0.0,0.004624,2
1672944876990458725,150873,1672944877017481006,gps,2,1,42.3008891656,-83.6992074149,271.218780518,0.0009,0.0,0.0,0.0,0.0009,0.0,0.0,0.0,0.004624,2
1672944877010617450,150874,1672944877037478656,gps,2,1,42.3008889777,-83.6992071258,271.218017578,0.0009,0.0,0.0,0.0,0.0009,0.0,0.0,0.0,0.004624,2
1672944877030466171,150875,1672944877057650160,gps,2,1,42.30088879,-83.6992068361,271.217285156,0.0009,0.0,0.0,0.0,0.0009,0.0,0.0,0.0,0.004624,2
1672944877050873734,150876,1672944877077653371,gps,2,1,42.3008886021,-83.6992065385,271.216339111,0.0009,0.0,0.0,0.0,0.0009,0.0,0.0,0.0,0.004624,2
1672944877070594322,150877,1672944877097518008,gps,2,1,42.3008884087,-83.6992062299,271.215667725,0.0009,0.0,0.0,0.0,0.0009,0.0,0.0,0.0,0.004624,2
1672944877090594417,150878,1672944877117534606,gps,2,1,42.3008882152,-83.6992059206,271.214996338,0.0009,0.0,0.0,0.0,0.0009,0.0,0.0,0.0,0.004624,2
1672944877110594399,150879,1672944877137606333,gps,2,1,42.3008880229,-83.6992056035,271.21395874,0.0009,0.0,0.0,0.0,0.0009,0.0,0.0,0.0,0.004624,2
1672944877130607793,150880,1672944877157581194,gps,2,1,42.3008878247,-83.6992052771,271.213256836,0.0009,0.0,0.0,0.0,0.0009,0.0,0.0,0.0,0.004624,2
1672944877150459007,150881,1672944877177474307,gps,2,1,42.3008876268,-83.6992049499,271.212554932,0.0009,0.0,0.0,0.0,0.0009,0.0,0.0,0.0,0.004624,2
1672944877170769429,150882,1672944877197579237,gps,2,1,42.3008874308,-83.6992046126,271.211517334,0.0009,0.0,0.0,0.0,0.0009,0.0,0.0,0.0,0.004624,2
1672944877190797350,150883,1672944877217570484,gps,2,1,42.3008872295,-83.6992042658,271.210784912,0.0009,0.0,0.0,0.0,0.0009,0.0,0.0,0.0,0.004624,2
1672944877210640274,150884,1672944877237443071,gps,2,1,42.3008870292,-83.6992039182,271.210021973,0.0009,0.0,0.0,0.0,0.0009,0.0,0.0,0.0,0.004624,2
1672944877230432994,150885,1672944877257526174,gps,2,1,42.3008868299,-83.6992035608,271.208984375,0.0009,0.0,0.0,0.0,0.0009,0.0,0.0,0.0,0.004624,2
1672944877250571811,150886,1672944877277441946,gps,2,1,42.3008866269,-83.699203194,271.208190918,0.0009,0.0,0.0,0.0,0.0009,0.0,0.0,0.0,0.004624,2
1672944877270533198,150887,1672944877297424775,gps,2,1,42.3008864239,-83.6992028259,271.207366943,0.0009,0.0,0.0,0.0,0.0009,0.0,0.0,0.0,0.004624,2
1672944877290502517,150888,1672944877317608244,gps,2,1,42.300886222,-83.6992024486,271.206329346,0.0009,0.0,0.0,0.0,0.0009,0.0,0.0,0.0,0.004624,2
1672944877310847204,150889,1672944877337439479,gps,2,1,42.3008860149,-83.699202061,271.205505371,0.0009,0.0,0.0,0.0,0.0009,0.0,0.0,0.0,0.004624,2
1672944877330641479,150890,1672944877357439082,gps,2,1,42.300885808,-83.6992016728,271.204650879,0.0009,0.0,0.0,0.0,0.0009,0.0,0.0,0.0,0.004624,2
1672944877350665580,150891,1672944877377581299,gps,2,1,42.3008856043,-83.6992012746,271.203613281,0.0009,0.0,0.0,0.0,0.0009,0.0,0.0,0.0,0.004624,2
1672944877370585108,150892,1672944877397386593,gps,2,1,42.3008853963,-83.699200866,271.202758789,0.0009,0.0,0.0,0.0,0.0009,0.0,0.0,0.0,0.004624,2
1672944877390518888,150893,1672944877417434522,gps,2,1,42.3008851885,-83.6992004564,271.201904297,0.0009,0.0,0.0,0.0,0.0009,0.0,0.0,0.0,0.004624,2
1672944877410528205,150894,1672944877437526648,gps,2,1,42.3008849841,-83.6992000373,271.200927734,0.0009,0.0,0.0,0.0,0.0009,0.0,0.0,0.0,0.004624,2
1672944877430600231,150895,1672944877457428538,gps,2,1,42.3008847772,-83.6991996089,271.200073242,0.0009,0.0,0.0,0.0,0.0009,0.0,0.0,0.0,0.004624,2
1672944877450384809,150896,1672944877477440855,gps,2,1,42.3008845703,-83.6991991796,271.19921875,0.0009,0.0,0.0,0.0,0.0009,0.0,0.0,0.0,0.004624,2
1672944877470598819,150897,1672944877497521171,gps,2,1,42.3008843657,-83.69919874,271.198303223,0.0009,0.0,0.0,0.0,0.0009,0.0,0.0,0.0,0.004624,2
1672944877490649984,150898,1672944877517447690,gps,2,1,42.3008841593,-83.6991982914,271.197509766,0.0009,0.0,0.0,0.0,0.0009,0.0,0.0,0.0,0.004624,2
1672944877510710429,150899,1672944877537530507,gps,2,1,42.30088395,-83.6991978423,271.196746826,0.0009,0.0,0.0,0.0,0.0009,0.0,0.0,0.0,0.004624,2
1672944877530577811,150900,1672944877557659696,gps,2,1,42.3008837458,-83.6991973829,271.195892334,0.0009,0.0,0.0,0.0,0.0009,0.0,0.0,0.0,0.004624,2
1672944877550583026,150901,1672944877577577295,gps,2,1,42.300883537,-83.6991969151,271.195129395,0.0009,0.0,0.0,0.0,0.0009,0.0,0.0,0.0,0.004624,2
1672944877570585081,150902,1672944877597590226,gps,2,1,42.3008833268,-83.699196446,271.194549561,0.0009,0.0,0.0,0.0,0.0009,0.0,0.0,0.0,0.004624,2
1672944877590373470,150903,1672944877617532271,gps,2,1,42.3008831229,-83.6991959668,271.193664551,0.0009,0.0,0.0,0.0,0.0009,0.0,0.0,0.0,0.004624,2
1672944877610279576,150904,1672944877637453173,gps,2,1,42.3008829131,-83.6991954794,271.193023682,0.0009,0.0,0.0,0.0,0.0009,0.0,0.0,0.0,0.004624,2
1672944877630605907,150905,1672944877657458109,gps,2,1,42.3008827035,-83.699194991,271.192352295,0.0009,0.0,0.0,0.0,0.0009,0.0,0.0,0.0,0.004624,2
1672944877650535972,150906,1672944877677468022,gps,2,1,42.3008825001,-83.6991944914,271.191375732,0.0009,0.0,0.0,0.0,0.0009,0.0,0.0,0.0,0.004624,2
1672944877670655253,150907,1672944877697525245,gps,2,1,42.3008822918,-83.6991939832,271.190551758,0.0009,0.0,0.0,0.0,0.0009,0.0,0.0,0.0,0.004624,2
1672944877690528505,150908,1672944877717448649,gps,2,1,42.3008820839,-83.6991934741,271.189697266,0.0009,0.0,0.0,0.0,0.0009,0.0,0.0,0.0,0.004624,2
1672944877710463010,150909,1672944877737532931,gps,2,1,42.3008818816,-83.6991929531,271.18850708,0.0009,0.0,0.0,0.0,0.0009,0.0,0.0,0.0,0.004624,2
1672944877730525603,150910,1672944877757440890,gps,2,1,42.3008816765,-83.6991924245,271.187255859,0.0009,0.0,0.0,0.0,0.0009,0.0,0.0,0.0,0.004624,2
1672944877750638101,150911,1672944877777447392,gps,2,1,42.3008814717,-83.6991918949,271.186004639,0.0009,0.0,0.0,0.0,0.0009,0.0,0.0,0.0,0.004624,2
1672944877770672842,150912,1672944877797448501,gps,2,1,42.3008812716,-83.699191352,271.184539795,0.001089,0.0,0.0,0.0,0.001089,0.0,0.0,0.0,0.0049,2
1672944877790676396,150913,1672944877817440885,gps,2,1,42.3008810694,-83.6991908011,271.183105469,0.001089,0.0,0.0,0.0,0.001089,0.0,0.0,0.0,0.0049,2
1672944877810603822,150914,1672944877837465781,gps,2,1,42.300880866,-83.6991902461,271.181915283,0.001089,0.0,0.0,0.0,0.001089,0.0,0.0,0.0,0.0049,2
1672944877830630139,150915,1672944877857448484,gps,2,1,42.3008806686,-83.6991896809,271.180358887,0.001089,0.0,0.0,0.0,0.001089,0.0,0.0,0.0,0.0049,2
1672944877850661250,150916,1672944877877439617,gps,2,1,42.3008804679,-83.6991891047,271.179138184,0.001089,0.0,0.0,0.0,0.001089,0.0,0.0,0.0,0.0049,2
1672944877870764853,150917,1672944877897449923,gps,2,1,42.3008802675,-83.6991885273,271.177886963,0.001089,0.0,0.0,0.0,0.001089,0.0,0.0,0.0,0.0049,2
1672944877890678387,150918,1672944877917427987,gps,2,1,42.3008800727,-83.6991879402,271.176300049,0.001089,0.0,0.0,0.0,0.001089,0.0,0.0,0.0,0.0049,2
1672944877910284571,150919,1672944877937434787,gps,2,1,42.3008798793,-83.6991873366,271.174713135,0.001089,0.0,0.0,0.0,0.001089,0.0,0.0,0.0,0.0049,2
1672944877930607455,150920,1672944877957407834,gps,2,1,42.3008796863,-83.6991867323,271.173126221,0.001089,0.0,0.0,0.0,0.001089,0.0,0.0,0.0,0.0049,2
1672944877950659088,150921,1672944877977430088,gps,2,1,42.3008794946,-83.6991861227,271.171569824,0.001089,0.0,0.0,0.0,0.001089,0.0,0.0,0.0,0.0049,2
1672944877970566352,150922,1672944877997452351,gps,2,1,42.3008793048,-83.6991854964,271.169952393,0.001089,0.0,0.0,0.0,0.001089,0.0,0.0,0.0,0.0049,2
1672944877990620289,150923,1672944878017475891,gps,2,1,42.3008791152,-83.6991848692,271.168365479,0.001089,0.0,0.0,0.0,0.001089,0.0,0.0,0.0,0.0049,2
1672944878010386046,150924,1672944878037609939,gps,2,1,42.3008789271,-83.6991842361,271.166748047,0.001089,0.0,0.0,0.0,0.001089,0.0,0.0,0.0,0.0049,2
1672944878030893457,150925,1672944878057631801,gps,2,1,42.3008787394,-83.6991835886,271.165222168,0.001089,0.0,0.0,0.0,0.001089,0.0,0.0,0.0,0.0049,2
1672944878050900338,150926,1672944878077538564,gps,2,1,42.3008785512,-83.6991829393,271.163848877,0.001089,0.0,0.0,0.0,0.001089,0.0,0.0,0.0,0.0049,2
1672944878070723679,150927,1672944878097568239,gps,2,1,42.300878368,-83.6991822825,271.162017822,0.001089,0.0,0.0,0.0,0.001089,0.0,0.0,0.0,0.0049,2
1672944878090802685,150928,1672944878117479065,gps,2,1,42.3008781853,-83.6991816109,271.160369873,0.001089,0.0,0.0,0.0,0.001089,0.0,0.0,0.0,0.0049,2
1672944878110623332,150929,1672944878137431485,gps,2,1,42.3008779977,-83.6991809396,271.158843994,0.001089,0.0,0.0,0.0,0.001089,0.0,0.0,0.0,0.0049,2
1672944878130431208,150930,1672944878157610532,gps,2,1,42.30087782,-83.6991802593,271.156738281,0.001089,0.0,0.0,0.0,0.001089,0.0,0.0,0.0,0.0049,2
1672944878150461060,150931,1672944878177452267,gps,2,1,42.3008776385,-83.6991795655,271.154968262,0.001089,0.0,0.0,0.0,0.001089,0.0,0.0,0.0,0.0049,2
1672944878170728193,150932,1672944878197475231,gps,2,1,42.3008774575,-83.6991788705,271.153198242,0.001089,0.0,0.0,0.0,0.001089,0.0,0.0,0.0,0.0049,2
1672944878190675822,150933,1672944878217513621,gps,2,1,42.300877286,-83.6991781668,271.151031494,0.001089,0.0,0.0,0.0,0.001089,0.0,0.0,0.0,0.0049,2
1672944878210608194,150934,1672944878237456007,gps,2,1,42.3008771092,-83.6991774539,271.149414062,0.001089,0.0,0.0,0.0,0.001089,0.0,0.0,0.0,0.0049,2
1672944878230587436,150935,1672944878257466818,gps,2,1,42.300876933,-83.6991767397,271.147766113,0.001089,0.0,0.0,0.0,0.001089,0.0,0.0,0.0,0.0049,2
1672944878250538026,150936,1672944878277531210,gps,2,1,42.3008767674,-83.6991760137,271.145721436,0.001089,0.0,0.0,0.0,0.001089,0.0,0.0,0.0,0.0049,2
1672944878270526792,150937,1672944878297435884,gps,2,1,42.300876597,-83.6991752779,271.144226074,0.001089,0.0,0.0,0.0,0.001089,0.0,0.0,0.0,0.0049,2
1672944878290456527,150938,1672944878317507008,gps,2,1,42.3008764272,-83.6991745414,271.142730713,0.001089,0.0,0.0,0.0,0.001089,0.0,0.0,0.0,0.0049,2
1672944878310675424,150939,1672944878337521077,gps,2,1,42.3008762676,-83.699173793,271.140869141,0.001089,0.0,0.0,0.0,0.001089,0.0,0.0,0.0,0.0049,2
1672944878330382686,150940,1672944878357428189,gps,2,1,42.300876108,-83.6991730289,271.13949585,0.001089,0.0,0.0,0.0,0.001089,0.0,0.0,0.0,0.0049,2
1672944878350635447,150941,1672944878377425011,gps,2,1,42.3008759491,-83.6991722643,271.138153076,0.001089,0.0,0.0,0.0,0.001089,0.0,0.0,0.0,0.0049,2
1672944878370498079,150942,1672944878397452979,gps,2,1,42.3008757964,-83.6991714935,271.136444092,0.001089,0.0,0.0,0.0,0.001089,0.0,0.0,0.0,0.0049,2
1672944878390665652,150943,1672944878417518672,gps,2,1,42.3008756446,-83.6991707075,271.135131836,0.001089,0.0,0.0,0.0,0.001089,0.0,0.0,0.0,0.0049,2
1672944878410534256,150944,1672944878437470187,gps,2,1,42.3008754967,-83.6991699212,271.133789062,0.001089,0.0,0.0,0.0,0.001089,0.0,0.0,0.0,0.0049,2
1672944878430752947,150945,1672944878457552761,gps,2,1,42.3008753523,-83.6991691283,271.132171631,0.001089,0.0,0.0,0.0,0.001089,0.0,0.0,0.0,0.0049,2
1672944878450503729,150946,1672944878477458940,gps,2,1,42.3008752127,-83.6991683215,271.130889893,0.001089,0.0,0.0,0.0,0.001089,0.0,0.0,0.0,0.0049,2
1672944878470582982,150947,1672944878497438584,gps,2,1,42.3008750674,-83.6991675153,271.129699707,0.001089,0.0,0.0,0.0,0.001089,0.0,0.0,0.0,0.0049,2
1672944878490797273,150948,1672944878517535104,gps,2,1,42.3008749307,-83.6991667012,271.128112793,0.001089,0.0,0.0,0.0,0.001089,0.0,0.0,0.0,0.0049,2
1672944878510552184,150949,1672944878537547191,gps,2,1,42.3008747904,-83.699165876,271.126983643,0.001089,0.0,0.0,0.0,0.001089,0.0,0.0,0.0,0.0049,2
1672944878530614344,150950,1672944878557612215,gps,2,1,42.3008746482,-83.6991650514,271.125579834,0.001089,0.0,0.0,0.0,0.001089,0.0,0.0,0.0,0.0049,2
1672944878550757290,150951,1672944878577601493,gps,2,1,42.300874516,-83.6991642197,271.124176025,0.001089,0.0,0.0,0.0,0.001089,0.0,0.0,0.0,0.0049,2
1672944878570466057,150952,1672944878597532049,gps,2,1,42.3008743791,-83.6991633794,271.123199463,0.001089,0.0,0.0,0.0,0.001089,0.0,0.0,0.0,0.0049,2
1672944878590222242,150953,1672944878617477935,gps,2,1,42.3008742432,-83.699162547,271.122192383,0.001089,0.0,0.0,0.0,0.001089,0.0,0.0,0.0,0.0049,2
1672944878610713184,150954,1672944878637600425,gps,2,1,42.3008741197,-83.699161699,271.121276855,0.001089,0.0,0.0,0.0,0.001089,0.0,0.0,0.0,0.0049,2
1672944878630843605,150955,1672944878657582307,gps,2,1,42.3008739944,-83.6991608508,271.120635986,0.001089,0.0,0.0,0.0,0.001089,0.0,0.0,0.0,0.0049,2
1672944878650688767,150956,1672944878677417889,gps,2,1,42.3008738697,-83.6991600026,271.120056152,0.001089,0.0,0.0,0.0,0.001089,0.0,0.0,0.0,0.0049,2
1672944878670717295,150957,1672944878697459026,gps,2,1,42.3008737581,-83.6991591393,271.119445801,0.001089,0.0,0.0,0.0,0.001089,0.0,0.0,0.0,0.0049,2
1672944878690569558,150958,1672944878717544552,gps,2,1,42.3008736459,-83.6991582767,271.119110107,0.001089,0.0,0.0,0.0,0.001089,0.0,0.0,0.0,0.0049,2
1672944878710479338,150959,1672944878737433657,gps,2,1,42.3008735354,-83.699157408,271.118743896,0.001089,0.0,0.0,0.0,0.001089,0.0,0.0,0.0,0.0049,2
1672944878730966480,150960,1672944878757557478,gps,2,1,42.3008734346,-83.699156531,271.11831665,0.001089,0.0,0.0,0.0,0.001089,0.0,0.0,0.0,0.0049,2
1672944878750629860,150961,1672944878777481335,gps,2,1,42.3008733339,-83.699155649,271.11807251,0.001089,0.0,0.0,0.0,0.001089,0.0,0.0,0.0,0.0049,2
1672944878770571782,150962,1672944878797525900,gps,2,1,42.3008732312,-83.6991547671,271.117858887,0.001089,0.0,0.0,0.0,0.001089,0.0,0.0,0.0,0.0049,2
1672944878790794523,150963,1672944878817482189,gps,2,1,42.3008731385,-83.6991538765,271.117370605,0.001089,0.0,0.0,0.0,0.001089,0.0,0.0,0.0,0.0049,2
1672944878810727589,150964,1672944878837529854,gps,2,1,42.3008730426,-83.6991529826,271.116943359,0.001089,0.0,0.0,0.0,0.001089,0.0,0.0,0.0,0.0049,2
1672944878830579752,150965,1672944878857437131,gps,2,1,42.3008729469,-83.6991520878,271.116485596,0.001089,0.0,0.0,0.0,0.001089,0.0,0.0,0.0,0.0049,2
1672944878850546958,150966,1672944878877518903,gps,2,1,42.3008728602,-83.6991511846,271.115722656,0.001089,0.0,0.0,0.0,0.001089,0.0,0.0,0.0,0.0049,2
1672944878870784072,150967,1672944878897405226,gps,2,1,42.3008727701,-83.6991502779,271.114990234,0.001089,0.0,0.0,0.0,0.001089,0.0,0.0,0.0,0.0049,2
1672944878890644798,150968,1672944878917425497,gps,2,1,42.3008726803,-83.699149371,271.114227295,0.001089,0.0,0.0,0.0,0.001089,0.0,0.0,0.0,0.0049,2
1672944878910495094,150969,1672944878937351212,gps,2,1,42.3008725985,-83.699148456,271.113098145,0.001089,0.0,0.0,0.0,0.001089,0.0,0.0,0.0,0.0049,2
1672944878930701874,150970,1672944878957465981,gps,2,1,42.3008725084,-83.6991475396,271.111816406,0.001089,0.0,0.0,0.0,0.001089,0.0,0.0,0.0,0.0049,2
1672944878950467187,150971,1672944878977398273,gps,2,1,42.3008724185,-83.6991466229,271.11050415,0.001089,0.0,0.0,0.0,0.001089,0.0,0.0,0.0,0.0049,2
1672944878970476346,150972,1672944878997546045,gps,2,1,42.3008723413,-83.6991456969,271.108978271,0.001089,0.0,0.0,0.0,0.001089,0.0,0.0,0.0,0.0049,2
1672944878990515020,150973,1672944879017468829,gps,2,1,42.3008722559,-83.6991447694,271.107269287,0.001089,0.0,0.0,0.0,0.001089,0.0,0.0,0.0,0.0049,2
1672944879010684778,150974,1672944879037531932,gps,2,1,42.3008721751,-83.6991438463,271.10559082,0.001089,0.0,0.0,0.0,0.001089,0.0,0.0,0.0,0.0049,2
1672944879030367087,150975,1672944879057678342,gps,2,1,42.3008721019,-83.69914291,271.103881836,0.001089,0.0,0.0,0.0,0.001089,0.0,0.0,0.0,0.0049,2
1672944879050871225,150976,1672944879077525393,gps,2,1,42.3008720251,-83.6991419771,271.102264404,0.001089,0.0,0.0,0.0,0.001089,0.0,0.0,0.0,0.0049,2
1672944879070595792,150977,1672944879097535196,gps,2,1,42.3008719445,-83.6991410468,271.100311279,0.001089,0.0,0.0,0.0,0.001089,0.0,0.0,0.0,0.0049,2
1672944879090654897,150978,1672944879117506456,gps,2,1,42.3008718752,-83.6991401013,271.098937988,0.001089,0.0,0.0,0.0,0.001089,0.0,0.0,0.0,0.0049,2
1672944879110468382,150979,1672944879137469579,gps,2,1,42.3008717988,-83.6991391568,271.097595215,0.001089,0.0,0.0,0.0,0.001089,0.0,0.0,0.0,0.0049,2
1672944879130449217,150980,1672944879157455802,gps,2,1,42.3008717227,-83.6991382118,271.096252441,0.001089,0.0,0.0,0.0,0.001089,0.0,0.0,0.0,0.0049,2
1672944879150612270,150981,1672944879177424229,gps,2,1,42.3008716575,-83.6991372567,271.095214844,0.001089,0.0,0.0,0.0,0.001089,0.0,0.0,0.0,0.0049,2
1672944879170545539,150982,1672944879197474917,gps,2,1,42.3008715857,-83.6991363026,271.094024658,0.001089,0.0,0.0,0.0,0.001089,0.0,0.0,0.0,0.0049,2
1672944879190447883,150983,1672944879217419896,gps,2,1,42.3008715143,-83.6991353474,271.092803955,0.001089,0.0,0.0,0.0,0.001089,0.0,0.0,0.0,0.0049,2
1672944879210593021,150984,1672944879237526628,gps,2,1,42.3008714526,-83.6991343827,271.09173584,0.001089,0.0,0.0,0.0,0.001089,0.0,0.0,0.0,0.0049,2
1672944879230637820,150985,1672944879257397218,gps,2,1,42.3008713849,-83.6991334196,271.090545654,0.001089,0.0,0.0,0.0,0.001089,0.0,0.0,0.0,0.0049,2
1672944879250518144,150986,1672944879277429821,gps,2,1,42.3008713178,-83.6991324558,271.089538574,0.001089,0.0,0.0,0.0,0.001089,0.0,0.0,0.0,0.0049,2
1672944879270581115,150987,1672944879297451469,gps,2,1,42.3008712595,-83.6991314847,271.088806152,0.001089,0.0,0.0,0.0,0.001089,0.0,0.0,0.0,0.0049,2
1672944879290429631,150988,1672944879317466029,gps,2,1,42.3008711961,-83.6991305148,271.088897705,0.001089,0.0,0.0,0.0,0.001089,0.0,0.0,0.0,0.0049,2
1672944879310567442,150989,1672944879337443852,gps,2,1,42.3008711367,-83.6991295441,271.088592529,0.001089,0.0,0.0,0.0,0.001089,0.0,0.0,0.0,0.0049,2
1672944879330528441,150990,1672944879357397194,gps,2,1,42.3008710832,-83.699128564,271.088775635,0.001089,0.0,0.0,0.0,0.001089,0.0,0.0,0.0,0.0049,2
1672944879350468540,150991,1672944879377386080,gps,2,1,42.3008710291,-83.6991275859,271.089172363,0.001089,0.0,0.0,0.0,0.001089,0.0,0.0,0.0,0.0049,2
1672944879370485103,150992,1672944879397442247,gps,2,1,42.3008709759,-83.699126605,271.089630127,0.001089,0.0,0.0,0.0,0.001089,0.0,0.0,0.0,0.0049,2
1672944879390470810,150993,1672944879417531500,gps,2,1,42.3008709281,-83.6991256164,271.090209961,0.001089,0.0,0.0,0.0,0.001089,0.0,0.0,0.0,0.0049,2
1672944879410394983,150994,1672944879437477136,gps,2,1,42.3008708792,-83.6991246263,271.090911865,0.001089,0.0,0.0,0.0,0.001089,0.0,0.0,0.0,0.0049,2
1672944879430236001,150995,1672944879457443721,gps,2,1,42.3008708302,-83.6991236355,271.091644287,0.001089,0.0,0.0,0.0,0.001089,0.0,0.0,0.0,0.0049,2
1672944879450453943,150996,1672944879477524165,gps,2,1,42.300870787,-83.6991226377,271.092254639,0.001089,0.0,0.0,0.0,0.001089,0.0,0.0,0.0,0.0049,2
1672944879470640014,150997,1672944879497414121,gps,2,1,42.3008707419,-83.6991216391,271.092834473,0.001089,0.0,0.0,0.0,0.001089,0.0,0.0,0.0,0.0049,2
1672944879490646022,150998,1672944879517527541,gps,2,1,42.3008706969,-83.6991206395,271.093414307,0.001089,0.0,0.0,0.0,0.001089,0.0,0.0,0.0,0.0049,2
1672944879510623035,150999,1672944879537564866,gps,2,1,42.3008706565,-83.6991196325,271.093811035,0.001089,0.0,0.0,0.0,0.001089,0.0,0.0,0.0,0.0049,2
1672944879530732468,151000,1672944879557626606,gps,2,1,42.3008706176,-83.6991186275,271.094024658,0.001089,0.0,0.0,0.0,0.001089,0.0,0.0,0.0,0.0049,2
1672944879550466219,151001,1672944879577547639,gps,2,1,42.3008705772,-83.6991176237,271.094085693,0.001089,0.0,0.0,0.0,0.001089,0.0,0.0,0.0,0.0049,2
1672944879570807320,151002,1672944879597569462,gps,2,1,42.3008705388,-83.6991166076,271.094146729,0.001089,0.0,0.0,0.0,0.001089,0.0,0.0,0.0,0.0049,2
1672944879590999103,151003,1672944879617603827,gps,2,1,42.3008705001,-83.6991155954,271.093902588,0.001089,0.0,0.0,0.0,0.001089,0.0,0.0,0.0,0.0049,2
1672944879610663057,151004,1672944879637446473,gps,2,1,42.300870463,-83.6991145791,271.09375,0.001089,0.0,0.0,0.0,0.001089,0.0,0.0,0.0,0.0049,2
1672944879630770510,151005,1672944879657512495,gps,2,1,42.3008704261,-83.6991135546,271.093536377,0.001089,0.0,0.0,0.0,0.001089,0.0,0.0,0.0,0.0049,2
1672944879650617380,151006,1672944879677394030,gps,2,1,42.3008703903,-83.6991125307,271.093139648,0.001089,0.0,0.0,0.0,0.001089,0.0,0.0,0.0,0.0049,2
1672944879670607446,151007,1672944879697469102,gps,2,1,42.3008703545,-83.6991115063,271.09274292,0.001089,0.0,0.0,0.0,0.001089,0.0,0.0,0.0,0.0049,2
1672944879690504773,151008,1672944879717538541,gps,2,1,42.3008703187,-83.6991104746,271.092254639,0.001089,0.0,0.0,0.0,0.001089,0.0,0.0,0.0,0.0049,2
1672944879710407671,151009,1672944879737445211,gps,2,1,42.300870286,-83.6991094469,271.091522217,0.001089,0.0,0.0,0.0,0.001089,0.0,0.0,0.0,0.0049,2
1672944879730745574,151010,1672944879757455856,gps,2,1,42.3008702536,-83.6991084191,271.09085083,0.001089,0.0,0.0,0.0,0.001089,0.0,0.0,0.0,0.0049,2
1672944879750546072,151011,1672944879777530260,gps,2,1,42.3008702188,-83.6991073798,271.090423584,0.001089,0.0,0.0,0.0,0.001089,0.0,0.0,0.0,0.0049,2
1672944879770243938,151012,1672944879797429848,gps,2,1,42.3008701872,-83.699106344,271.090057373,0.001089,0.0,0.0,0.0,0.001156,0.0,0.0,0.0,0.0049,2
1672944879790627937,151013,1672944879817478915,gps,2,1,42.3008701556,-83.6991053081,271.089691162,0.001089,0.0,0.0,0.0,0.001156,0.0,0.0,0.0,0.0049,2
1672944879810569202,151014,1672944879837447822,gps,2,1,42.3008701223,-83.6991042603,271.089599609,0.001089,0.0,0.0,0.0,0.001156,0.0,0.0,0.0,0.0049,2
1672944879830678246,151015,1672944879857443187,gps,2,1,42.3008700862,-83.6991032151,271.08984375,0.001089,0.0,0.0,0.0,0.001156,0.0,0.0,0.0,0.0049,2
1672944879850349180,151016,1672944879877450072,gps,2,1,42.3008700505,-83.6991021694,271.090087891,0.001089,0.0,0.0,0.0,0.001156,0.0,0.0,0.0,0.0049,2
1672944879870615317,151017,1672944879897536349,gps,2,1,42.300870019,-83.6991011129,271.090148926,0.001089,0.0,0.0,0.0,0.001156,0.0,0.0,0.0,0.0049,2
1672944879890790102,151018,1672944879917463156,gps,2,1,42.3008699858,-83.6991000583,271.090393066,0.001089,0.0,0.0,0.0,0.001156,0.0,0.0,0.0,0.0049,2
1672944879910249896,151019,1672944879937430544,gps,2,1,42.300869953,-83.6990990055,271.090667725,0.001089,0.0,0.0,0.0,0.001156,0.0,0.0,0.0,0.0049,2
1672944879930496193,151020,1672944879957426213,gps,2,1,42.3008699245,-83.69909794,271.09072876,0.001089,0.0,0.0,0.0,0.001156,0.0,0.0,0.0,0.0049,2
1672944879950598610,151021,1672944879977413319,gps,2,1,42.3008698946,-83.6990968783,271.090942383,0.001089,0.0,0.0,0.0,0.001156,0.0,0.0,0.0,0.0049,2
1672944879970609282,151022,1672944879997468534,gps,2,1,42.3008698648,-83.6990958159,271.091125488,0.001089,0.0,0.0,0.0,0.001156,0.0,0.0,0.0,0.0049,2
1672944879990370701,151023,1672944880017561895,gps,2,1,42.3008698389,-83.6990947413,271.091125488,0.001089,0.0,0.0,0.0,0.001156,0.0,0.0,0.0,0.0049,2
1672944880010447775,151024,1672944880037512904,gps,2,1,42.3008698161,-83.6990936689,271.09085083,0.001089,0.0,0.0,0.0,0.001156,0.0,0.0,0.0,0.0049,2
1672944880030754915,151025,1672944880057673931,gps,2,1,42.3008697931,-83.6990925951,271.090576172,0.001089,0.0,0.0,0.0,0.001156,0.0,0.0,0.0,0.0049,2
1672944880050830898,151026,1672944880077519871,gps,2,1,42.3008697688,-83.6990915112,271.090332031,0.001089,0.0,0.0,0.0,0.001156,0.0,0.0,0.0,0.0049,2
1672944880070627955,151027,1672944880097458992,gps,2,1,42.3008697506,-83.699090424,271.089691162,0.001089,0.0,0.0,0.0,0.001156,0.0,0.0,0.0,0.0049,2
1672944880090303057,151028,1672944880117534910,gps,2,1,42.3008697322,-83.699089336,271.089050293,0.001089,0.0,0.0,0.0,0.001156,0.0,0.0,0.0,0.0049,2
1672944880110547485,151029,1672944880137590434,gps,2,1,42.3008697082,-83.6990882429,271.088378906,0.001089,0.0,0.0,0.0,0.001156,0.0,0.0,0.0,0.0049,2
1672944880130660402,151030,1672944880157461583,gps,2,1,42.3008696861,-83.6990871456,271.087371826,0.001089,0.0,0.0,0.0,0.001156,0.0,0.0,0.0,0.0049,2
1672944880150617164,151031,1672944880177444914,gps,2,1,42.3008696639,-83.6990860478,271.086273193,0.001089,0.0,0.0,0.0,0.001156,0.0,0.0,0.0,0.0049,2
1672944880170566323,151032,1672944880197506581,gps,2,1,42.30086964,-83.6990849436,271.084899902,0.001089,0.0,0.0,0.0,0.001156,0.0,0.0,0.0,0.0049,2
1672944880190820463,151033,1672944880217438779,gps,2,1,42.3008696188,-83.699083837,271.08303833,0.001089,0.0,0.0,0.0,0.001156,0.0,0.0,0.0,0.0049,2
1672944880210637938,151034,1672944880237448734,gps,2,1,42.300869594,-83.6990827322,271.081420898,0.001089,0.0,0.0,0.0,0.001156,0.0,0.0,0.0,0.0049,2
1672944880230863883,151035,1672944880257511818,gps,2,1,42.30086957,-83.6990816229,271.079742432,0.001089,0.0,0.0,0.0,0.001156,0.0,0.0,0.0,0.0049,2
1672944880250586766,151036,1672944880277448872,gps,2,1,42.3008695457,-83.6990805134,271.078186035,0.001089,0.0,0.0,0.0,0.001156,0.0,0.0,0.0,0.0049,2
1672944880270531235,151037,1672944880297456257,gps,2,1,42.3008695229,-83.6990793997,271.076660156,0.001089,0.0,0.0,0.0,0.001156,0.0,0.0,0.0,0.0049,2
1672944880290530637,151038,1672944880317534917,gps,2,1,42.3008694987,-83.6990782838,271.075286865,0.001089,0.0,0.0,0.0,0.001156,0.0,0.0,0.0,0.0049,2
1672944880310179996,151039,1672944880337449557,gps,2,1,42.300869476,-83.6990771625,271.074157715,0.001089,0.0,0.0,0.0,0.001156,0.0,0.0,0.0,0.0049,2
1672944880330242718,151040,1672944880357435913,gps,2,1,42.3008694533,-83.6990760391,271.072998047,0.001089,0.0,0.0,0.0,0.001156,0.0,0.0,0.0,0.0049,2
1672944880350750196,151041,1672944880377531863,gps,2,1,42.3008694298,-83.6990749145,271.072174072,0.001089,0.0,0.0,0.0,0.001156,0.0,0.0,0.0,0.0049,2
1672944880370520380,151042,1672944880397406286,gps,2,1,42.3008694089,-83.6990737833,271.071685791,0.001089,0.0,0.0,0.0,0.001156,0.0,0.0,0.0,0.0049,2
1672944880390250967,151043,1672944880417460926,gps,2,1,42.3008693875,-83.6990726522,271.071228027,0.001089,0.0,0.0,0.0,0.001156,0.0,0.0,0.0,0.0049,2
1672944880410606879,151044,1672944880437537513,gps,2,1,42.3008693669,-83.6990715181,271.071136475,0.001089,0.0,0.0,0.0,0.001156,0.0,0.0,0.0,0.0049,2
1672944880430459104,151045,1672944880457448830,gps,2,1,42.3008693502,-83.6990703798,271.07131958,0.001089,0.0,0.0,0.0,0.001156,0.0,0.0,0.0,0.0049,2
1672944880450603255,151046,1672944880477398851,gps,2,1,42.3008693342,-83.6990692423,271.071411133,0.001089,0.0,0.0,0.0,0.001156,0.0,0.0,0.0,0.0049,2
1672944880470533995,151047,1672944880497545719,gps,2,1,42.3008693177,-83.6990680973,271.071624756,0.001089,0.0,0.0,0.0,0.001156,0.0,0.0,0.0,0.0049,2
1672944880490704482,151048,1672944880517458038,gps,2,1,42.3008693049,-83.6990669483,271.071746826,0.001089,0.0,0.0,0.0,0.001156,0.0,0.0,0.0,0.0049,2
1672944880510583539,151049,1672944880537514285,gps,2,1,42.3008692911,-83.6990657974,271.071868896,0.001089,0.0,0.0,0.0,0.001156,0.0,0.0,0.0,0.0049,2
1672944880530490324,151050,1672944880557635223,gps,2,1,42.3008692774,-83.6990646426,271.071960449,0.001089,0.0,0.0,0.0,0.001156,0.0,0.0,0.0,0.0049,2
1672944880550468033,151051,1672944880577514848,gps,2,1,42.3008692646,-83.6990634819,271.071929932,0.001089,0.0,0.0,0.0,0.001156,0.0,0.0,0.0,0.0049,2
1672944880570884266,151052,1672944880597642330,gps,2,1,42.300869254,-83.6990623163,271.071960449,0.001089,0.0,0.0,0.0,0.001156,0.0,0.0,0.0,0.0049,2
1672944880590581100,151053,1672944880617480164,gps,2,1,42.3008692411,-83.6990611509,271.071807861,0.001089,0.0,0.0,0.0,0.001156,0.0,0.0,0.0,0.0049,2
1672944880610418948,151054,1672944880637375599,gps,2,1,42.3008692321,-83.6990599761,271.071472168,0.001089,0.0,0.0,0.0,0.001156,0.0,0.0,0.0,0.0049,2
1672944880630549898,151055,1672944880657415001,gps,2,1,42.3008692229,-83.6990588002,271.071136475,0.001089,0.0,0.0,0.0,0.001156,0.0,0.0,0.0,0.0049,2
1672944880650493259,151056,1672944880677458366,gps,2,1,42.3008692103,-83.6990576252,271.070892334,0.001089,0.0,0.0,0.0,0.001156,0.0,0.0,0.0,0.0049,2
1672944880670635818,151057,1672944880697387121,gps,2,1,42.3008692003,-83.6990564405,271.070495605,0.001089,0.0,0.0,0.0,0.001156,0.0,0.0,0.0,0.0049,2
1672944880690441672,151058,1672944880717421015,gps,2,1,42.3008691903,-83.6990552554,271.070098877,0.001089,0.0,0.0,0.0,0.001156,0.0,0.0,0.0,0.0049,2
1672944880710338870,151059,1672944880737416378,gps,2,1,42.3008691763,-83.6990540701,271.069885254,0.001089,0.0,0.0,0.0,0.001156,0.0,0.0,0.0,0.0049,2
1672944880730523363,151060,1672944880757421852,gps,2,1,42.3008691609,-83.6990528754,271.070129395,0.001089,0.0,0.0,0.0,0.001156,0.0,0.0,0.0,0.0049,2
1672944880750548595,151061,1672944880777404559,gps,2,1,42.3008691455,-83.6990516807,271.070251465,0.001089,0.0,0.0,0.0,0.001156,0.0,0.0,0.0,0.0049,2
1672944880770594090,151062,1672944880797663235,gps,2,1,42.30086913,-83.6990504842,271.070007324,0.001089,0.0,0.0,0.0,0.001156,0.0,0.0,0.0,0.0049,2
1672944880790532436,151063,1672944880817426938,gps,2,1,42.3008691142,-83.6990492779,271.070098877,0.001089,0.0,0.0,0.0,0.001156,0.0,0.0,0.0,0.0049,2
1672944880810539524,151064,1672944880837458043,gps,2,1,42.3008691008,-83.699048075,271.070251465,0.001089,0.0,0.0,0.0,0.001156,0.0,0.0,0.0,0.0049,2
1672944880830555193,151065,1672944880857537024,gps,2,1,42.3008690854,-83.6990468704,271.070800781,0.001089,0.0,0.0,0.0,0.001156,0.0,0.0,0.0,0.0049,2
1672944880850389310,151066,1672944880877453385,gps,2,1,42.3008690709,-83.699045656,271.072174072,0.001089,0.0,0.0,0.0,0.001156,0.0,0.0,0.0,0.0049,2
1672944880870747142,151067,1672944880897467870,gps,2,1,42.3008690571,-83.6990444442,271.073638916,0.001089,0.0,0.0,0.0,0.001156,0.0,0.0,0.0,0.0049,2
1672944880890514229,151068,1672944880917436782,gps,2,1,42.300869041,-83.6990432279,271.075134277,0.001089,0.0,0.0,0.0,0.001156,0.0,0.0,0.0,0.0049,2
1672944880910572423,151069,1672944880937482047,gps,2,1,42.3008690272,-83.6990420053,271.077148438,0.001089,0.0,0.0,0.0,0.001156,0.0,0.0,0.0,0.0049,2
1672944880930503053,151070,1672944880957417825,gps,2,1,42.3008690141,-83.6990407795,271.079101562,0.001089,0.0,0.0,0.0,0.001156,0.0,0.0,0.0,0.0049,2
1672944880950427826,151071,1672944880977410601,gps,2,1,42.3008689997,-83.6990395541,271.081451416,0.001089,0.0,0.0,0.0,0.001156,0.0,0.0,0.0,0.0049,2
1672944880970488110,151072,1672944880997453308,gps,2,1,42.3008689885,-83.6990383189,271.084197998,0.001089,0.0,0.0,0.0,0.001156,0.0,0.0,0.0,0.0049,2
1672944880990353173,151073,1672944881017470981,gps,2,1,42.3008689776,-83.6990370839,271.086883545,0.001089,0.0,0.0,0.0,0.001156,0.0,0.0,0.0,0.0049,2
1672944881010527313,151074,1672944881037545435,gps,2,1,42.3008689663,-83.6990358492,271.089752197,0.001089,0.0,0.0,0.0,0.001156,0.0,0.0,0.0,0.0049,2
1672944881030847826,151075,1672944881057680888,gps,2,1,42.3008689554,-83.6990346085,271.092803955,0.001089,0.0,0.0,0.0,0.001156,0.0,0.0,0.0,0.0049,2
1672944881050610146,151076,1672944881077455257,gps,2,1,42.3008689448,-83.6990333677,271.095916748,0.001089,0.0,0.0,0.0,0.001156,0.0,0.0,0.0,0.0049,2
1672944881070645574,151077,1672944881097584112,gps,2,1,42.3008689366,-83.6990321244,271.09866333,0.001089,0.0,0.0,0.0,0.001156,0.0,0.0,0.0,0.0049,2
1672944881090674419,151078,1672944881117534506,gps,2,1,42.3008689281,-83.6990308754,271.101593018,0.001089,0.0,0.0,0.0,0.001156,0.0,0.0,0.0,0.0049,2
1672944881110468654,151079,1672944881137432459,gps,2,1,42.300868921,-83.6990296264,271.104400635,0.001089,0.0,0.0,0.0,0.001156,0.0,0.0,0.0,0.0049,2
1672944881130310426,151080,1672944881157548204,gps,2,1,42.3008689137,-83.6990283762,271.107055664,0.001089,0.0,0.0,0.0,0.001156,0.0,0.0,0.0,0.0049,2
1672944881150677017,151081,1672944881177555643,gps,2,1,42.3008689074,-83.6990271206,271.109832764,0.001089,0.0,0.0,0.0,0.001156,0.0,0.0,0.0,0.0049,2
1672944881170496397,151082,1672944881197453526,gps,2,1,42.3008688976,-83.6990258645,271.112762451,0.001089,0.0,0.0,0.0,0.001156,0.0,0.0,0.0,0.0049,2
1672944881190750984,151083,1672944881217532360,gps,2,1,42.3008688918,-83.6990246067,271.115478516,0.001089,0.0,0.0,0.0,0.001156,0.0,0.0,0.0,0.0049,2
1672944881210426323,151084,1672944881237439100,gps,2,1,42.3008688843,-83.699023344,271.118682861,0.001089,0.0,0.0,0.0,0.001156,0.0,0.0,0.0,0.0049,2
1672944881230653533,151085,1672944881257439352,gps,2,1,42.300868877,-83.6990220805,271.121887207,0.001089,0.0,0.0,0.0,0.001156,0.0,0.0,0.0,0.0049,2
1672944881250431373,151086,1672944881277534937,gps,2,1,42.3008688729,-83.6990208156,271.125061035,0.001089,0.0,0.0,0.0,0.001156,0.0,0.0,0.0,0.0049,2
1672944881270608199,151087,1672944881297515383,gps,2,1,42.3008688672,-83.6990195437,271.128509521,0.001089,0.0,0.0,0.0,0.001156,0.0,0.0,0.0,0.0049,2
1672944881290568003,151088,1672944881317452708,gps,2,1,42.3008688625,-83.6990182728,271.132080078,0.001089,0.0,0.0,0.0,0.001156,0.0,0.0,0.0,0.0049,2
1672944881310706169,151089,1672944881337510258,gps,2,1,42.3008688601,-83.6990169983,271.135375977,0.001089,0.0,0.0,0.0,0.001156,0.0,0.0,0.0,0.0049,2
1672944881330739210,151090,1672944881357527086,gps,2,1,42.3008688558,-83.6990157186,271.138916016,0.001089,0.0,0.0,0.0,0.001156,0.0,0.0,0.0,0.0049,2
1672944881350585315,151091,1672944881377447309,gps,2,1,42.3008688521,-83.6990144378,271.142425537,0.001089,0.0,0.0,0.0,0.001156,0.0,0.0,0.0,0.0049,2
1672944881370530453,151092,1672944881397550735,gps,2,1,42.3008688496,-83.6990131543,271.14553833,0.001089,0.0,0.0,0.0,0.001156,0.0,0.0,0.0,0.0049,2
1672944881390571702,151093,1672944881417460414,gps,2,1,42.300868845,-83.6990118657,271.148895264,0.001089,0.0,0.0,0.0,0.001156,0.0,0.0,0.0,0.0049,2
1672944881410396616,151094,1672944881437442026,gps,2,1,42.3008688423,-83.6990105739,271.151580811,0.001089,0.0,0.0,0.0,0.001156,0.0,0.0,0.0,0.0049,2
1672944881430680721,151095,1672944881457555632,gps,2,1,42.3008688387,-83.6990092822,271.154602051,0.001089,0.0,0.0,0.0,0.001156,0.0,0.0,0.0,0.0049,2
1672944881450228805,151096,1672944881477394574,gps,2,1,42.3008688353,-83.699007983,271.157196045,0.001089,0.0,0.0,0.0,0.001156,0.0,0.0,0.0,0.0049,2
1672944881470574238,151097,1672944881497536851,gps,2,1,42.3008688319,-83.6990066835,271.159790039,0.001089,0.0,0.0,0.0,0.001156,0.0,0.0,0.0,0.0049,2
1672944881490539911,151098,1672944881517477892,gps,2,1,42.3008688285,-83.6990053841,271.162689209,0.001089,0.0,0.0,0.0,0.001156,0.0,0.0,0.0,0.0049,2
1672944881510533838,151099,1672944881537537233,gps,2,1,42.3008688252,-83.6990040774,271.165466309,0.001089,0.0,0.0,0.0,0.001156,0.0,0.0,0.0,0.0049,2
1672944881530497787,151100,1672944881557522986,gps,2,1,42.3008688209,-83.6990027709,271.168426514,0.001089,0.0,0.0,0.0,0.001156,0.0,0.0,0.0,0.0049,2
1672944881550624572,151101,1672944881577639644,gps,2,1,42.3008688173,-83.6990014626,271.171234131,0.001089,0.0,0.0,0.0,0.001156,0.0,0.0,0.0,0.0049,2
1672944881570732402,151102,1672944881597500906,gps,2,1,42.3008688131,-83.6990001478,271.174194336,0.001089,0.0,0.0,0.0,0.001156,0.0,0.0,0.0,0.0049,2
1672944881590482135,151103,1672944881617427743,gps,2,1,42.300868808,-83.6989988373,271.177398682,0.001089,0.0,0.0,0.0,0.001156,0.0,0.0,0.0,0.0049,2
1672944881610308760,151104,1672944881637470735,gps,2,1,42.3008688045,-83.6989975205,271.180419922,0.001089,0.0,0.0,0.0,0.001156,0.0,0.0,0.0,0.0049,2
1672944881630601899,151105,1672944881657394663,gps,2,1,42.3008688002,-83.6989962024,271.183898926,0.001089,0.0,0.0,0.0,0.001156,0.0,0.0,0.0,0.0049,2
1672944881650364552,151106,1672944881677386320,gps,2,1,42.3008687961,-83.6989948833,271.18737793,0.001089,0.0,0.0,0.0,0.001156,0.0,0.0,0.0,0.0049,2
1672944881670483024,151107,1672944881697466864,gps,2,1,42.3008687933,-83.6989935592,271.190765381,0.001089,0.0,0.0,0.0,0.001156,0.0,0.0,0.0,0.0049,2
1672944881690452127,151108,1672944881717412833,gps,2,1,42.30086879,-83.6989922328,271.194732666,0.001089,0.0,0.0,0.0,0.001156,0.0,0.0,0.0,0.0049,2
1672944881710476512,151109,1672944881737412602,gps,2,1,42.3008687869,-83.6989909077,271.198699951,0.001089,0.0,0.0,0.0,0.001156,0.0,0.0,0.0,0.0049,2
1672944881730441657,151110,1672944881757446875,gps,2,1,42.3008687858,-83.6989895766,271.202789307,0.001089,0.0,0.0,0.0,0.001156,0.0,0.0,0.0,0.0049,2
1672944881750541700,151111,1672944881777430071,gps,2,1,42.300868785,-83.6989882434,271.207427979,0.001089,0.0,0.0,0.0,0.001156,0.0,0.0,0.0,0.0049,2
1672944881770537656,151112,1672944881797455761,gps,2,1,42.3008687844,-83.6989869116,271.212127686,0.0009,0.0,0.0,0.0,0.0009,0.0,0.0,0.0,0.005041,2
1672944881790585478,151113,1672944881817421504,gps,2,1,42.300868785,-83.6989855732,271.216522217,0.0009,0.0,0.0,0.0,0.0009,0.0,0.0,0.0,0.005041,2
1672944881810483356,151114,1672944881837468431,gps,2,1,42.3008687862,-83.6989842325,271.221008301,0.0009,0.0,0.0,0.0,0.0009,0.0,0.0,0.0,0.005041,2
1672944881830435698,151115,1672944881857384089,gps,2,1,42.3008687877,-83.6989828917,271.225463867,0.0009,0.0,0.0,0.0,0.0009,0.0,0.0,0.0,0.005041,2
1672944881850301034,151116,1672944881877461683,gps,2,1,42.3008687886,-83.6989815453,271.229431152,0.0009,0.0,0.0,0.0,0.0009,0.0,0.0,0.0,0.005041,2
1672944881870584621,151117,1672944881897417187,gps,2,1,42.3008687893,-83.6989801966,271.233306885,0.0009,0.0,0.0,0.0,0.0009,0.0,0.0,0.0,0.005041,2
1672944881890457864,151118,1672944881917432712,gps,2,1,42.30086879,-83.6989788472,271.237121582,0.0009,0.0,0.0,0.0,0.0009,0.0,0.0,0.0,0.005041,2
1672944881910571844,151119,1672944881937469962,gps,2,1,42.3008687904,-83.6989774932,271.240600586,0.0009,0.0,0.0,0.0,0.0009,0.0,0.0,0.0,0.005041,2
1672944881930485322,151120,1672944881957412696,gps,2,1,42.3008687878,-83.6989761338,271.24407959,0.0009,0.0,0.0,0.0,0.0009,0.0,0.0,0.0,0.005041,2
1672944881950483040,151121,1672944881977409364,gps,2,1,42.3008687853,-83.6989747739,271.247619629,0.0009,0.0,0.0,0.0,0.0009,0.0,0.0,0.0,0.005041,2
1672944881970408584,151122,1672944881997481709,gps,2,1,42.3008687864,-83.6989734118,271.250976562,0.0009,0.0,0.0,0.0,0.0009,0.0,0.0,0.0,0.005041,2
1672944881990622935,151123,1672944882017431311,gps,2,1,42.3008687849,-83.6989720439,271.254425049,0.0009,0.0,0.0,0.0,0.0009,0.0,0.0,0.0,0.005041,2
1672944882010522394,151124,1672944882037471760,gps,2,1,42.3008687844,-83.6989706734,271.258239746,0.0009,0.0,0.0,0.0,0.0009,0.0,0.0,0.0,0.005041,2
1672944882030658563,151125,1672944882057645478,gps,2,1,42.3008687864,-83.6989693031,271.261505127,0.0009,0.0,0.0,0.0,0.0009,0.0,0.0,0.0,0.005041,2
1672944882050726153,151126,1672944882077678767,gps,2,1,42.3008687876,-83.6989679235,271.265319824,0.0009,0.0,0.0,0.0,0.0009,0.0,0.0,0.0,0.005041,2
1672944882070316680,151127,1672944882097465419,gps,2,1,42.3008687888,-83.698966544,271.268829346,0.0009,0.0,0.0,0.0,0.0009,0.0,0.0,0.0,0.005041,2
1672944882090522266,151128,1672944882117518153,gps,2,1,42.3008687915,-83.6989651662,271.271789551,0.0009,0.0,0.0,0.0,0.0009,0.0,0.0,0.0,0.005041,2
1672944882110702884,151129,1672944882137689338,gps,2,1,42.3008687932,-83.6989637801,271.275115967,0.0009,0.0,0.0,0.0,0.0009,0.0,0.0,0.0,0.005041,2
1672944882130523833,151130,1672944882157550942,gps,2,1,42.3008687947,-83.6989623934,271.278411865,0.0009,0.0,0.0,0.0,0.0009,0.0,0.0,0.0,0.005041,2
1672944882150529957,151131,1672944882177587118,gps,2,1,42.3008687978,-83.6989610084,271.281341553,0.0009,0.0,0.0,0.0,0.0009,0.0,0.0,0.0,0.005041,2
1672944882170720216,151132,1672944882197609797,gps,2,1,42.3008687999,-83.6989596149,271.284698486,0.0009,0.0,0.0,0.0,0.0009,0.0,0.0,0.0,0.005041,2
1672944882190451654,151133,1672944882217547222,gps,2,1,42.3008688023,-83.6989582217,271.287994385,0.0009,0.0,0.0,0.0,0.0009,0.0,0.0,0.0,0.005041,2
1672944882210543350,151134,1672944882237517955,gps,2,1,42.3008688062,-83.6989568292,271.29107666,0.0009,0.0,0.0,0.0,0.0009,0.0,0.0,0.0,0.005041,2
1672944882230603511,151135,1672944882257456956,gps,2,1,42.3008688099,-83.6989554296,271.294647217,0.0009,0.0,0.0,0.0,0.0009,0.0,0.0,0.0,0.005041,2
1672944882250452355,151136,1672944882277461414,gps,2,1,42.3008688138,-83.6989540299,271.298187256,0.0009,0.0,0.0,0.0,0.0009,0.0,0.0,0.0,0.005041,2
1672944882270171749,151137,1672944882297510394,gps,2,1,42.300868819,-83.6989526321,271.301513672,0.0009,0.0,0.0,0.0,0.0009,0.0,0.0,0.0,0.005041,2
1672944882290656245,151138,1672944882317566780,gps,2,1,42.3008688248,-83.6989512253,271.305236816,0.0009,0.0,0.0,0.0,0.0009,0.0,0.0,0.0,0.005041,2
1672944882310539998,151139,1672944882337422150,gps,2,1,42.3008688307,-83.698949819,271.308929443,0.0009,0.0,0.0,0.0,0.0009,0.0,0.0,0.0,0.005041,2
1672944882330457269,151140,1672944882357410613,gps,2,1,42.3008688372,-83.698948417,271.312255859,0.0009,0.0,0.0,0.0,0.0009,0.0,0.0,0.0,0.005041,2
1672944882350550348,151141,1672944882377518415,gps,2,1,42.3008688444,-83.6989470077,271.315826416,0.0009,0.0,0.0,0.0,0.0009,0.0,0.0,0.0,0.005041,2
1672944882370544220,151142,1672944882397411361,gps,2,1,42.300868852,-83.6989456007,271.319274902,0.0009,0.0,0.0,0.0,0.0009,0.0,0.0,0.0,0.005041,2
1672944882390612328,151143,1672944882417462469,gps,2,1,42.3008688602,-83.6989441959,271.32244873,0.0009,0.0,0.0,0.0,0.0009,0.0,0.0,0.0,0.005041,2
1672944882410390555,151144,1672944882437671626,gps,2,1,42.3008688699,-83.6989427868,271.325653076,0.0009,0.0,0.0,0.0,0.0009,0.0,0.0,0.0,0.005041,2
1672944882430593382,151145,1672944882457453793,gps,2,1,42.3008688797,-83.6989413778,271.328826904,0.0009,0.0,0.0,0.0,0.0009,0.0,0.0,0.0,0.005041,2
1672944882450744268,151146,1672944882477460165,gps,2,1,42.300868891,-83.6989399712,271.331726074,0.0009,0.0,0.0,0.0,0.0009,0.0,0.0,0.0,0.005041,2
1672944882470547624,151147,1672944882497554515,gps,2,1,42.3008689045,-83.6989385613,271.334625244,0.0009,0.0,0.0,0.0,0.0009,0.0,0.0,0.0,0.005041,2
1672944882490521045,151148,1672944882517516363,gps,2,1,42.3008689175,-83.6989371505,271.337554932,0.0009,0.0,0.0,0.0,0.0009,0.0,0.0,0.0,0.005041,2
1672944882510531324,151149,1672944882537551857,gps,2,1,42.3008689322,-83.6989357434,271.340209961,0.0009,0.0,0.0,0.0,0.0009,0.0,0.0,0.0,0.005041,2
1672944882530906454,151150,1672944882557681691,gps,2,1,42.3008689481,-83.6989343332,271.342926025,0.0009,0.0,0.0,0.0,0.0009,0.0,0.0,0.0,0.005041,2
1672944882550860331,151151,1672944882577566266,gps,2,1,42.3008689649,-83.6989329215,271.345703125,0.0009,0.0,0.0,0.0,0.0009,0.0,0.0,0.0,0.005041,2
1672944882570675024,151152,1672944882597478189,gps,2,1,42.3008689815,-83.6989315145,271.348175049,0.0009,0.0,0.0,0.0,0.0009,0.0,0.0,0.0,0.005041,2
1672944882590630616,151153,1672944882617508337,gps,2,1,42.3008689993,-83.6989301031,271.350830078,0.0009,0.0,0.0,0.0,0.0009,0.0,0.0,0.0,0.005041,2
1672944882610606229,151154,1672944882637536155,gps,2,1,42.3008690189,-83.6989286925,271.353393555,0.0009,0.0,0.0,0.0,0.0009,0.0,0.0,0.0,0.005041,2
1672944882630507454,151155,1672944882657545896,gps,2,1,42.300869036,-83.6989272862,271.355712891,0.0009,0.0,0.0,0.0,0.0009,0.0,0.0,0.0,0.005041,2
1672944882650430671,151156,1672944882677403900,gps,2,1,42.3008690566,-83.6989258759,271.358062744,0.0009,0.0,0.0,0.0,0.0009,0.0,0.0,0.0,0.005041,2
1672944882670426745,151157,1672944882697456605,gps,2,1,42.300869077,-83.6989244671,271.360443115,0.0009,0.0,0.0,0.0,0.0009,0.0,0.0,0.0,0.005041,2
1672944882690383751,151158,1672944882717554422,gps,2,1,42.3008690959,-83.6989230614,271.362640381,0.0009,0.0,0.0,0.0,0.0009,0.0,0.0,0.0,0.005041,2
1672944882710590750,151159,1672944882737599271,gps,2,1,42.3008691201,-83.6989216503,271.365020752,0.0009,0.0,0.0,0.0,0.0009,0.0,0.0,0.0,0.005041,2
1672944882730504353,151160,1672944882757414018,gps,2,1,42.3008691439,-83.6989202403,271.367431641,0.0009,0.0,0.0,0.0,0.0009,0.0,0.0,0.0,0.005041,2
1672944882750573775,151161,1672944882777556753,gps,2,1,42.3008691665,-83.6989188359,271.369537354,0.0009,0.0,0.0,0.0,0.0009,0.0,0.0,0.0,0.005041,2
1672944882770636610,151162,1672944882797557744,gps,2,1,42.3008691947,-83.6989174275,271.37197876,0.0009,0.0,0.0,0.0,0.0009,0.0,0.0,0.0,0.005041,2
1672944882790474171,151163,1672944882817518858,gps,2,1,42.3008692231,-83.6989160191,271.374389648,0.0009,0.0,0.0,0.0,0.0009,0.0,0.0,0.0,0.005041,2
1672944882810504752,151164,1672944882837542286,gps,2,1,42.3008692503,-83.698914617,271.376647949,0.0009,0.0,0.0,0.0,0.0009,0.0,0.0,0.0,0.005041,2
1672944882830508549,151165,1672944882857457236,gps,2,1,42.3008692838,-83.6989132086,271.379302979,0.0009,0.0,0.0,0.0,0.0009,0.0,0.0,0.0,0.005041,2
1672944882850233365,151166,1672944882877461607,gps,2,1,42.300869317,-83.6989118009,271.381958008,0.0009,0.0,0.0,0.0,0.0009,0.0,0.0,0.0,0.005041,2
1672944882870548285,151167,1672944882897531155,gps,2,1,42.3008693491,-83.698910401,271.384246826,0.0009,0.0,0.0,0.0,0.0009,0.0,0.0,0.0,0.005041,2
1672944882890670496,151168,1672944882917408735,gps,2,1,42.3008693862,-83.6989089961,271.386749268,0.0009,0.0,0.0,0.0,0.0009,0.0,0.0,0.0,0.005041,2
1672944882910653063,151169,1672944882937438368,gps,2,1,42.3008694268,-83.698907591,271.389190674,0.0009,0.0,0.0,0.0,0.0009,0.0,0.0,0.0,0.005041,2
1672944882930677927,151170,1672944882957507982,gps,2,1,42.3008694625,-83.6989061943,271.391326904,0.0009,0.0,0.0,0.0,0.0009,0.0,0.0,0.0,0.005041,2
1672944882950653152,151171,1672944882977425260,gps,2,1,42.3008695054,-83.6989047926,271.393707275,0.0009,0.0,0.0,0.0,0.0009,0.0,0.0,0.0,0.005041,2
1672944882970488471,151172,1672944882997475805,gps,2,1,42.3008695483,-83.6989033906,271.396057129,0.0009,0.0,0.0,0.0,0.0009,0.0,0.0,0.0,0.005041,2
1672944882990352090,151173,1672944883017476370,gps,2,1,42.3008695863,-83.6989019967,271.398162842,0.0009,0.0,0.0,0.0,0.0009,0.0,0.0,0.0,0.005041,2
1672944883010115707,151174,1672944883037415693,gps,2,1,42.3008696291,-83.6989005994,271.40045166,0.0009,0.0,0.0,0.0,0.0009,0.0,0.0,0.0,0.005041,2
1672944883030681937,151175,1672944883057687240,gps,2,1,42.3008696719,-83.6988992022,271.402770996,0.0009,0.0,0.0,0.0,0.0009,0.0,0.0,0.0,0.005041,2
1672944883050497882,151176,1672944883077582126,gps,2,1,42.3008697121,-83.6988978113,271.404907227,0.0009,0.0,0.0,0.0,0.0009,0.0,0.0,0.0,0.005041,2
1672944883070548344,151177,1672944883097573283,gps,2,1,42.300869761,-83.6988964121,271.407318115,0.0009,0.0,0.0,0.0,0.0009,0.0,0.0,0.0,0.005041,2
1672944883090598257,151178,1672944883117603272,gps,2,1,42.3008698096,-83.6988950132,271.409729004,0.0009,0.0,0.0,0.0,0.0009,0.0,0.0,0.0,0.005041,2
1672944883110635209,151179,1672944883137593292,gps,2,1,42.3008698522,-83.6988936253,271.411834717,0.0009,0.0,0.0,0.0,0.0009,0.0,0.0,0.0,0.005041,2
