%time,field.header.seq,field.header.stamp,field.header.frame_id,field.status.status,field.status.service,field.latitude,field.longitude,field.altitude,field.position_covariance0,field.position_covariance1,field.position_covariance2,field.position_covariance3,field.position_covariance4,field.position_covariance5,field.position_covariance6,field.position_covariance7,field.position_covariance8,field.position_covariance_type
1672947562785244160,108226,1672947562784956349,gps,2,1,42.2998829838,-83.6985012529,269.748657227,0.000144,0.0,0.0,0.0,0.000169,0.0,0.0,0.0,0.0025,2
1672947562795269826,108227,1672947562795035831,gps,2,1,42.2998829869,-83.6985012537,269.748626709,0.000144,0.0,0.0,0.0,0.000169,0.0,0.0,0.0,0.0025,2
1672947562805175386,108228,1672947562804952136,gps,2,1,42.2998829897,-83.6985012544,269.748626709,0.000144,0.0,0.0,0.0,0.000169,0.0,0.0,0.0,0.0025,2
1672947562815147635,108229,1672947562814948311,gps,2,1,42.2998829922,-83.6985012552,269.748809814,0.000144,0.0,0.0,0.0,0.000169,0.0,0.0,0.0,0.0025,2
1672947562825170654,108230,1672947562824963793,gps,2,1,42.2998829956,-83.6985012561,269.748809814,0.000144,0.0,0.0,0.0,0.000169,0.0,0.0,0.0,0.0025,2
1672947562835256391,108231,1672947562835019948,gps,2,1,42.2998829988,-83.6985012569,269.748809814,0.000144,0.0,0.0,0.0,0.000169,0.0,0.0,0.0,0.0025,2
1672947562845302430,108232,1672947562845074829,gps,2,1,42.2998830016,-83.6985012578,269.74899292,0.000144,0.0,0.0,0.0,0.000169,0.0,0.0,0.0,0.0025,2
1672947562855149036,108233,1672947562854967261,gps,2,1,42.2998830054,-83.6985012588,269.748962402,0.000144,0.0,0.0,0.0,0.000169,0.0,0.0,0.0,0.0025,2
1672947562865273897,108234,1672947562865028569,gps,2,1,42.2998830088,-83.6985012597,269.748962402,0.000144,0.0,0.0,0.0,0.000169,0.0,0.0,0.0,0.0025,2
1672947562875230960,108235,1672947562874966493,gps,2,1,42.2998830119,-83.6985012606,269.749145508,0.000144,0.0,0.0,0.0,0.000169,0.0,0.0,0.0,0.0025,2
1672947562885288543,108236,1672947562885050474,gps,2,1,42.299883016,-83.6985012616,269.74911499,0.000144,0.0,0.0,0.0,0.000169,0.0,0.0,0.0,0.0025,2
1672947562895216151,108237,1672947562894977014,gps,2,1,42.2998830199,-83.6985012626,269.749084473,0.000144,0.0,0.0,0.0,0.000169,0.0,0.0,0.0,0.0025,2
1672947562905218367,108238,1672947562904965132,gps,2,1,42.2998830232,-83.6985012635,269.749237061,0.000144,0.0,0.0,0.0,0.000169,0.0,0.0,0.0,0.0025,2
1672947562915243052,108239,1672947562915036681,gps,2,1,42.2998830277,-83.6985012646,269.749237061,0.000144,0.0,0.0,0.0,0.000169,0.0,0.0,0.0,0.0025,2
1672947562925188534,108240,1672947562924981559,gps,2,1,42.2998830317,-83.6985012657,269.749206543,0.000144,0.0,0.0,0.0,0.000169,0.0,0.0,0.0,0.0025,2
1672947562935217736,108241,1672947562934975900,gps,2,1,42.2998830353,-83.6985012666,269.749359131,0.000144,0.0,0.0,0.0,0.000169,0.0,0.0,0.0,0.0025,2
1672947562945192554,108242,1672947562944989367,gps,2,1,42.2998830401,-83.6985012678,269.749359131,0.000144,0.0,0.0,0.0,0.000169,0.0,0.0,0.0,0.0025,2
1672947562955212145,108243,1672947562955027061,gps,2,1,42.2998830446,-83.6985012689,269.749328613,0.000144,0.0,0.0,0.0,0.000169,0.0,0.0,0.0,0.0025,2
1672947562965181580,108244,1672947562964955919,gps,2,1,42.2998830487,-83.69850127,269.749481201,0.000144,0.0,0.0,0.0,0.000169,0.0,0.0,0.0,0.0025,2
1672947562975154633,108245,1672947562974959292,gps,2,1,42.2998830537,-83.6985012712,269.749481201,0.000144,0.0,0.0,0.0,0.000169,0.0,0.0,0.0,0.0025,2
1672947562985299875,108246,1672947562985052054,gps,2,1,42.2998830586,-83.6985012724,269.749450684,0.000144,0.0,0.0,0.0,0.000169,0.0,0.0,0.0,0.0025,2
1672947562995222692,108247,1672947562994980558,gps,2,1,42.299883063,-83.6985012736,269.749603271,0.000144,0.0,0.0,0.0,0.000169,0.0,0.0,0.0,0.0025,2
1672947563005232873,108248,1672947563005025126,gps,2,1,42.2998830684,-83.6985012749,269.749603271,0.000144,0.0,0.0,0.0,0.000169,0.0,0.0,0.0,0.0025,2
1672947563015317829,108249,1672947563015120159,gps,2,1,42.2998830735,-83.6985012762,269.749603271,0.000144,0.0,0.0,0.0,0.000169,0.0,0.0,0.0,0.0025,2
1672947563025399530,108250,1672947563025178326,gps,2,1,42.2998830783,-83.6985012775,269.749725342,0.000144,0.0,0.0,0.0,0.000169,0.0,0.0,0.0,0.0025,2
1672947563035255171,108251,1672947563035044108,gps,2,1,42.2998830841,-83.6985012789,269.749725342,0.000144,0.0,0.0,0.0,0.000169,0.0,0.0,0.0,0.0025,2
1672947563045274207,108252,1672947563045078729,gps,2,1,42.2998830895,-83.6985012803,269.749725342,0.000144,0.0,0.0,0.0,0.000169,0.0,0.0,0.0,0.0025,2
1672947563055250117,108253,1672947563055037249,gps,2,1,42.2998830942,-83.6985012806,269.750030518,0.000144,0.0,0.0,0.0,0.000169,0.0,0.0,0.0,0.0025,2
1672947563065275849,108254,1672947563065072849,gps,2,1,42.2998831002,-83.6985012821,269.750030518,0.000144,0.0,0.0,0.0,0.000169,0.0,0.0,0.0,0.0025,2
1672947563075332618,108255,1672947563075139600,gps,2,1,42.2998831061,-83.6985012835,269.75,0.000144,0.0,0.0,0.0,0.000169,0.0,0.0,0.0,0.0025,2
1672947563085204676,108256,1672947563085006364,gps,2,1,42.2998831111,-83.6985012839,269.750305176,0.000144,0.0,0.0,0.0,0.000169,0.0,0.0,0.0,0.0025,2
1672947563095251974,108257,1672947563095067287,gps,2,1,42.2998831175,-83.6985012855,269.750305176,0.000144,0.0,0.0,0.0,0.000169,0.0,0.0,0.0,0.0025,2
1672947563105227533,108258,1672947563105033711,gps,2,1,42.2998831235,-83.698501287,269.750305176,0.000144,0.0,0.0,0.0,0.000169,0.0,0.0,0.0,0.0025,2
1672947563115146635,108259,1672947563114977312,gps,2,1,42.2998831289,-83.6985012875,269.750549316,0.000144,0.0,0.0,0.0,0.000169,0.0,0.0,0.0,0.0025,2
1672947563125199072,108260,1672947563124981472,gps,2,1,42.2998831356,-83.6985012892,269.750549316,0.000144,0.0,0.0,0.0,0.000169,0.0,0.0,0.0,0.0025,2
1672947563135280587,108261,1672947563135075345,gps,2,1,42.299883142,-83.6985012907,269.750549316,0.000144,0.0,0.0,0.0,0.000169,0.0,0.0,0.0,0.0025,2
1672947563145165798,108262,1672947563144978277,gps,2,1,42.2998831475,-83.6985012913,269.750823975,0.000144,0.0,0.0,0.0,0.000169,0.0,0.0,0.0,0.0025,2
1672947563155186441,108263,1672947563154986165,gps,2,1,42.2998831544,-83.698501293,269.750823975,0.000144,0.0,0.0,0.0,0.000169,0.0,0.0,0.0,0.0025,2
1672947563165239751,108264,1672947563165049235,gps,2,1,42.2998831612,-83.6985012946,269.750823975,0.000144,0.0,0.0,0.0,0.000169,0.0,0.0,0.0,0.0025,2
1672947563175168757,108265,1672947563174987669,gps,2,1,42.2998831671,-83.6985012953,269.751068115,0.000144,0.0,0.0,0.0,0.000169,0.0,0.0,0.0,0.0025,2
1672947563185189311,108266,1672947563184993744,gps,2,1,42.2998831744,-83.6985012971,269.751068115,0.000144,0.0,0.0,0.0,0.000169,0.0,0.0,0.0,0.0025,2
1672947563195269370,108267,1672947563195049866,gps,2,1,42.2998831814,-83.6985012988,269.751068115,0.000144,0.0,0.0,0.0,0.000169,0.0,0.0,0.0,0.0025,2
1672947563205197852,108268,1672947563204999961,gps,2,1,42.2998831876,-83.6985012996,269.751312256,0.000144,0.0,0.0,0.0,0.000169,0.0,0.0,0.0,0.0025,2
1672947563215200219,108269,1672947563215003955,gps,2,1,42.2998831952,-83.6985013015,269.751312256,0.000144,0.0,0.0,0.0,0.000169,0.0,0.0,0.0,0.0025,2
1672947563225250268,108270,1672947563225057670,gps,2,1,42.2998832025,-83.6985013033,269.751342773,0.000144,0.0,0.0,0.0,0.000169,0.0,0.0,0.0,0.0025,2
1672947563235195642,108271,1672947563234984095,gps,2,1,42.299883209,-83.6985013043,269.751586914,0.000144,0.0,0.0,0.0,0.000169,0.0,0.0,0.0,0.0025,2
1672947563245191447,108272,1672947563244984274,gps,2,1,42.2998832168,-83.6985013063,269.751586914,0.000144,0.0,0.0,0.0,0.000169,0.0,0.0,0.0,0.0025,2
1672947563255256319,108273,1672947563255050485,gps,2,1,42.2998832245,-83.6985013082,269.751586914,0.000144,0.0,0.0,0.0,0.000169,0.0,0.0,0.0,0.0025,2
1672947563265201205,108274,1672947563265004751,gps,2,1,42.2998832313,-83.6985013093,269.751831055,0.000144,0.0,0.0,0.0,0.000169,0.0,0.0,0.0,0.0025,2
1672947563275290663,108275,1672947563275089181,gps,2,1,42.2998832394,-83.6985013113,269.751831055,0.000144,0.0,0.0,0.0,0.000169,0.0,0.0,0.0,0.0025,2
1672947563285256014,108276,1672947563285060163,gps,2,1,42.2998832472,-83.6985013134,269.751861572,0.000144,0.0,0.0,0.0,0.000169,0.0,0.0,0.0,0.0025,2
1672947563295191113,108277,1672947563295003976,gps,2,1,42.2998832543,-83.6985013146,269.752075195,0.000144,0.0,0.0,0.0,0.000169,0.0,0.0,0.0,0.0025,2
1672947563305226607,108278,1672947563305007536,gps,2,1,42.2998832627,-83.6985013167,269.752105713,0.000144,0.0,0.0,0.0,0.000169,0.0,0.0,0.0,0.0025,2
1672947563315262092,108279,1672947563315066199,gps,2,1,42.2998832708,-83.6985013189,269.752105713,0.000144,0.0,0.0,0.0,0.000169,0.0,0.0,0.0,0.0025,2
1672947563325190238,108280,1672947563325000065,gps,2,1,42.2998832783,-83.6985013201,269.752319336,0.000144,0.0,0.0,0.0,0.000169,0.0,0.0,0.0,0.0025,2
1672947563335237541,108281,1672947563335014540,gps,2,1,42.299883287,-83.6985013224,269.752319336,0.000144,0.0,0.0,0.0,0.000169,0.0,0.0,0.0,0.0025,2
1672947563345460373,108282,1672947563345243365,gps,2,1,42.2998832954,-83.6985013246,269.752349854,0.000144,0.0,0.0,0.0,0.000169,0.0,0.0,0.0,0.0025,2
1672947563355212158,108283,1672947563355004459,gps,2,1,42.2998833033,-83.6985013259,269.752532959,0.000144,0.0,0.0,0.0,0.000169,0.0,0.0,0.0,0.0025,2
1672947563365192377,108284,1672947563365003631,gps,2,1,42.2998833123,-83.6985013282,269.752563477,0.000144,0.0,0.0,0.0,0.000169,0.0,0.0,0.0,0.0025,2
1672947563375265144,108285,1672947563375065599,gps,2,1,42.299883321,-83.6985013305,269.752563477,0.000144,0.0,0.0,0.0,0.000169,0.0,0.0,0.0,0.0025,2
1672947563385155931,108286,1672947563384997174,gps,2,1,42.2998833291,-83.6985013319,269.7527771,0.000144,0.0,0.0,0.0,0.000169,0.0,0.0,0.0,0.0025,2
1672947563395192147,108287,1672947563394999941,gps,2,1,42.2998833384,-83.6985013343,269.7527771,0.000144,0.0,0.0,0.0,0.000169,0.0,0.0,0.0,0.0025,2
1672947563405287350,108288,1672947563405086069,gps,2,1,42.2998833475,-83.6985013366,269.752807617,0.000144,0.0,0.0,0.0,0.000169,0.0,0.0,0.0,0.0025,2
1672947563415239325,108289,1672947563415037960,gps,2,1,42.299883356,-83.6985013381,269.752990723,0.000144,0.0,0.0,0.0,0.000169,0.0,0.0,0.0,0.0025,2
1672947563425292095,108290,1672947563425070596,gps,2,1,42.2998833657,-83.6985013405,269.75302124,0.000144,0.0,0.0,0.0,0.000169,0.0,0.0,0.0,0.0025,2
1672947563435243056,108291,1672947563435015103,gps,2,1,42.2998833749,-83.6985013428,269.75302124,0.000144,0.0,0.0,0.0,0.000169,0.0,0.0,0.0,0.0025,2
1672947563445217623,108292,1672947563445011126,gps,2,1,42.2998833838,-83.6985013444,269.753234863,0.000144,0.0,0.0,0.0,0.000169,0.0,0.0,0.0,0.0025,2
1672947563455293000,108293,1672947563455069913,gps,2,1,42.2998833937,-83.6985013469,269.753265381,0.000144,0.0,0.0,0.0,0.000169,0.0,0.0,0.0,0.0025,2
1672947563465236961,108294,1672947563465016260,gps,2,1,42.2998834034,-83.6985013493,269.753265381,0.000144,0.0,0.0,0.0,0.000169,0.0,0.0,0.0,0.0025,2
1672947563475217142,108295,1672947563475005931,gps,2,1,42.2998834125,-83.698501351,269.753448486,0.000144,0.0,0.0,0.0,0.000169,0.0,0.0,0.0,0.0025,2
1672947563485219155,108296,1672947563485011599,gps,2,1,42.2998834227,-83.6985013536,269.753479004,0.000144,0.0,0.0,0.0,0.000169,0.0,0.0,0.0,0.0025,2
1672947563495285711,108297,1672947563495074002,gps,2,1,42.2998834328,-83.6985013561,269.753509521,0.000144,0.0,0.0,0.0,0.000169,0.0,0.0,0.0,0.0025,2
1672947563505272148,108298,1672947563505057974,gps,2,1,42.2998834423,-83.698501358,269.753692627,0.000144,0.0,0.0,0.0,0.000169,0.0,0.0,0.0,0.0025,2
1672947563515295638,108299,1672947563515111226,gps,2,1,42.2998834529,-83.6985013607,269.753692627,0.000144,0.0,0.0,0.0,0.000169,0.0,0.0,0.0,0.0025,2
1672947563525452899,108300,1672947563525196555,gps,2,1,42.2998834632,-83.6985013633,269.753723145,0.000144,0.0,0.0,0.0,0.000169,0.0,0.0,0.0,0.0025,2
1672947563535310602,108301,1672947563535066702,gps,2,1,42.2998834731,-83.6985013653,269.75390625,0.000144,0.0,0.0,0.0,0.000169,0.0,0.0,0.0,0.0025,2
1672947563545333451,108302,1672947563545089665,gps,2,1,42.299883484,-83.698501368,269.753936768,0.000144,0.0,0.0,0.0,0.000169,0.0,0.0,0.0,0.0025,2
1672947563555306749,108303,1672947563555099408,gps,2,1,42.2998834946,-83.6985013707,269.753936768,0.000144,0.0,0.0,0.0,0.000169,0.0,0.0,0.0,0.0025,2
1672947563565284809,108304,1672947563565041301,gps,2,1,42.2998835035,-83.698501372,269.754333496,0.000144,0.0,0.0,0.0,0.000169,0.0,0.0,0.0,0.0025,2
1672947563575344919,108305,1672947563575116526,gps,2,1,42.2998835147,-83.6985013748,269.754364014,0.000144,0.0,0.0,0.0,0.000169,0.0,0.0,0.0,0.0025,2
1672947563585302846,108306,1672947563585079058,gps,2,1,42.2998835256,-83.6985013776,269.754394531,0.000144,0.0,0.0,0.0,0.000169,0.0,0.0,0.0,0.0025,2
1672947563595276255,108307,1672947563595077614,gps,2,1,42.2998835348,-83.698501379,269.754760742,0.000144,0.0,0.0,0.0,0.000169,0.0,0.0,0.0,0.0025,2
1672947563605188341,108308,1672947563604969159,gps,2,1,42.2998835463,-83.6985013819,269.75479126,0.000144,0.0,0.0,0.0,0.000169,0.0,0.0,0.0,0.0025,2
1672947563615182018,108309,1672947563614970317,gps,2,1,42.2998835576,-83.6985013847,269.754821777,0.000144,0.0,0.0,0.0,0.000169,0.0,0.0,0.0,0.0025,2
1672947563625170897,108310,1672947563624966574,gps,2,1,42.2998835672,-83.6985013862,269.755187988,0.000144,0.0,0.0,0.0,0.000169,0.0,0.0,0.0,0.0025,2
1672947563635250233,108311,1672947563635047943,gps,2,1,42.299883579,-83.6985013892,269.755218506,0.000144,0.0,0.0,0.0,0.000169,0.0,0.0,0.0,0.0025,2
1672947563645319147,108312,1672947563645098609,gps,2,1,42.2998835906,-83.6985013921,269.755249023,0.000144,0.0,0.0,0.0,0.000169,0.0,0.0,0.0,0.0025,2
1672947563655247553,108313,1672947563655056422,gps,2,1,42.2998836006,-83.6985013938,269.755584717,0.000144,0.0,0.0,0.0,0.000169,0.0,0.0,0.0,0.0025,2
1672947563665226039,108314,1672947563665030688,gps,2,1,42.2998836127,-83.6985013968,269.755615234,0.000144,0.0,0.0,0.0,0.000169,0.0,0.0,0.0,0.0025,2
1672947563675310593,108315,1672947563675091740,gps,2,1,42.2998836245,-83.6985013998,269.755645752,0.000144,0.0,0.0,0.0,0.000169,0.0,0.0,0.0,0.0025,2
1672947563685232035,108316,1672947563685013683,gps,2,1,42.2998836348,-83.6985014015,269.755981445,0.000144,0.0,0.0,0.0,0.000169,0.0,0.0,0.0,0.0025,2
1672947563695277066,108317,1672947563695087308,gps,2,1,42.2998836472,-83.6985014046,269.756011963,0.000144,0.0,0.0,0.0,0.000169,0.0,0.0,0.0,0.0025,2
1672947563705253633,108318,1672947563705035677,gps,2,1,42.2998836593,-83.6985014076,269.756011963,0.000144,0.0,0.0,0.0,0.000169,0.0,0.0,0.0,0.0025,2
1672947563715257195,108319,1672947563715048776,gps,2,1,42.29988367,-83.6985014095,269.756347656,0.000144,0.0,0.0,0.0,0.000169,0.0,0.0,0.0,0.0025,2
1672947563725239295,108320,1672947563725025590,gps,2,1,42.2998836827,-83.6985014126,269.756378174,0.000144,0.0,0.0,0.0,0.000169,0.0,0.0,0.0,0.0025,2
1672947563735296693,108321,1672947563735078318,gps,2,1,42.2998836951,-83.6985014157,269.756408691,0.000144,0.0,0.0,0.0,0.000169,0.0,0.0,0.0,0.0025,2
1672947563745231581,108322,1672947563745025003,gps,2,1,42.299883706,-83.6985014177,269.756713867,0.000144,0.0,0.0,0.0,0.000169,0.0,0.0,0.0,0.0025,2
1672947563755284915,108323,1672947563755088590,gps,2,1,42.299883719,-83.6985014209,269.756713867,0.000144,0.0,0.0,0.0,0.000169,0.0,0.0,0.0,0.0025,2
1672947563765248973,108324,1672947563765055614,gps,2,1,42.2998837316,-83.6985014241,269.756744385,0.000144,0.0,0.0,0.0,0.000169,0.0,0.0,0.0,0.0025,2
1672947563775350896,108325,1672947563775124090,gps,2,1,42.2998837429,-83.6985014261,269.757049561,0.000144,0.0,0.0,0.0,0.000169,0.0,0.0,0.0,0.0025,2
1672947563785295962,108326,1672947563785037294,gps,2,1,42.2998837561,-83.6985014294,269.757080078,0.000144,0.0,0.0,0.0,0.000169,0.0,0.0,0.0,0.0025,2
1672947563795311985,108327,1672947563795077708,gps,2,1,42.2998837691,-83.6985014327,269.757110596,0.000144,0.0,0.0,0.0,0.000169,0.0,0.0,0.0,0.0025,2
1672947563805277698,108328,1672947563805016358,gps,2,1,42.2998837807,-83.6985014349,269.757415771,0.000144,0.0,0.0,0.0,0.000169,0.0,0.0,0.0,0.0025,2
1672947563815354600,108329,1672947563815080874,gps,2,1,42.2998837942,-83.6985014383,269.757446289,0.000144,0.0,0.0,0.0,0.000169,0.0,0.0,0.0,0.0025,2
1672947563825270137,108330,1672947563825023108,gps,2,1,42.2998838074,-83.6985014416,269.757476807,0.000144,0.0,0.0,0.0,0.000169,0.0,0.0,0.0,0.0025,2
1672947563835288866,108331,1672947563835038418,gps,2,1,42.2998838194,-83.6985014439,269.757751465,0.000144,0.0,0.0,0.0,0.000169,0.0,0.0,0.0,0.0025,2
1672947563845405459,108332,1672947563845189812,gps,2,1,42.2998838332,-83.6985014474,269.7578125,0.000144,0.0,0.0,0.0,0.000169,0.0,0.0,0.0,0.0025,2
1672947563855262662,108333,1672947563855041302,gps,2,1,42.2998838468,-83.6985014508,269.757843018,0.000144,0.0,0.0,0.0,0.000169,0.0,0.0,0.0,0.0025,2
1672947563865255696,108334,1672947563865036947,gps,2,1,42.2998838591,-83.6985014533,269.758117676,0.000144,0.0,0.0,0.0,0.000169,0.0,0.0,0.0,0.0025,2
1672947563875358521,108335,1672947563875115452,gps,2,1,42.2998838732,-83.6985014568,269.758148193,0.000144,0.0,0.0,0.0,0.000169,0.0,0.0,0.0,0.0025,2
1672947563885275503,108336,1672947563885046710,gps,2,1,42.2998838872,-83.6985014604,269.758209229,0.000144,0.0,0.0,0.0,0.000169,0.0,0.0,0.0,0.0025,2
1672947563895253683,108337,1672947563895029991,gps,2,1,42.2998838999,-83.6985014628,269.758453369,0.000144,0.0,0.0,0.0,0.000169,0.0,0.0,0.0,0.0025,2
1672947563905295432,108338,1672947563905042410,gps,2,1,42.2998839144,-83.6985014665,269.758483887,0.000144,0.0,0.0,0.0,0.000169,0.0,0.0,0.0,0.0025,2
1672947563915348360,108339,1672947563915100372,gps,2,1,42.2998839285,-83.6985014701,269.758544922,0.000144,0.0,0.0,0.0,0.000169,0.0,0.0,0.0,0.0025,2
1672947563925261927,108340,1672947563925042841,gps,2,1,42.2998839415,-83.6985014726,269.758789062,0.000144,0.0,0.0,0.0,0.000169,0.0,0.0,0.0,0.0025,2
1672947563935280349,108341,1672947563935082290,gps,2,1,42.2998839563,-83.6985014763,269.758850098,0.000144,0.0,0.0,0.0,0.000169,0.0,0.0,0.0,0.0025,2
1672947563945244380,108342,1672947563945044247,gps,2,1,42.2998839709,-83.69850148,269.758880615,0.000144,0.0,0.0,0.0,0.000169,0.0,0.0,0.0,0.0025,2
1672947563955265898,108343,1672947563955032138,gps,2,1,42.2998839844,-83.6985014827,269.759124756,0.000144,0.0,0.0,0.0,0.000169,0.0,0.0,0.0,0.0025,2
1672947563965283814,108344,1672947563965033496,gps,2,1,42.2998839995,-83.6985014864,269.759155273,0.000144,0.0,0.0,0.0,0.000169,0.0,0.0,0.0,0.0025,2
1672947563975288233,108345,1672947563975097062,gps,2,1,42.2998840142,-83.6985014901,269.759216309,0.000144,0.0,0.0,0.0,0.000169,0.0,0.0,0.0,0.0025,2
1672947563985269264,108346,1672947563985033374,gps,2,1,42.299884028,-83.6985014928,269.759429932,0.000144,0.0,0.0,0.0,0.000169,0.0,0.0,0.0,0.0025,2
1672947563995352932,108347,1672947563995117954,gps,2,1,42.2998840434,-83.6985014967,269.759490967,0.000144,0.0,0.0,0.0,0.000169,0.0,0.0,0.0,0.0025,2
1672947564005355252,108348,1672947564005103600,gps,2,1,42.2998840585,-83.6985015005,269.759521484,0.000144,0.0,0.0,0.0,0.000169,0.0,0.0,0.0,0.0025,2
1672947564015328364,108349,1672947564015118399,gps,2,1,42.2998840706,-83.6985015036,269.75982666,0.000144,0.0,0.0,0.0,0.000169,0.0,0.0,0.0,0.0025,2
1672947564025477915,108350,1672947564025288645,gps,2,1,42.2998840862,-83.6985015075,269.759887695,0.000144,0.0,0.0,0.0,0.000169,0.0,0.0,0.0,0.0025,2
1672947564035374916,108351,1672947564035165417,gps,2,1,42.2998841017,-83.6985015114,269.759918213,0.000144,0.0,0.0,0.0,0.000169,0.0,0.0,0.0,0.0025,2
1672947564045255669,108352,1672947564045052390,gps,2,1,42.2998841141,-83.6985015146,269.760253906,0.000144,0.0,0.0,0.0,0.000169,0.0,0.0,0.0,0.0025,2
1672947564055349685,108353,1672947564055152491,gps,2,1,42.2998841301,-83.6985015186,269.760284424,0.000144,0.0,0.0,0.0,0.000169,0.0,0.0,0.0,0.0025,2
1672947564065352407,108354,1672947564065161889,gps,2,1,42.2998841458,-83.6985015226,269.760345459,0.000144,0.0,0.0,0.0,0.000169,0.0,0.0,0.0,0.0025,2
1672947564075268932,108355,1672947564075064383,gps,2,1,42.2998841586,-83.6985015259,269.760650635,0.000144,0.0,0.0,0.0,0.000169,0.0,0.0,0.0,0.0025,2
1672947564085324628,108356,1672947564085102123,gps,2,1,42.2998841748,-83.69850153,269.760681152,0.000144,0.0,0.0,0.0,0.000169,0.0,0.0,0.0,0.0025,2
1672947564095337119,108357,1672947564095131427,gps,2,1,42.299884191,-83.6985015341,269.760742188,0.000144,0.0,0.0,0.0,0.000169,0.0,0.0,0.0,0.0025,2
1672947564105252339,108358,1672947564105037226,gps,2,1,42.2998842042,-83.6985015376,269.761016846,0.000144,0.0,0.0,0.0,0.000169,0.0,0.0,0.0,0.0025,2
1672947564115366448,108359,1672947564115146483,gps,2,1,42.299884221,-83.6985015417,269.761077881,0.000144,0.0,0.0,0.0,0.000169,0.0,0.0,0.0,0.0025,2
1672947564125279030,108360,1672947564125060542,gps,2,1,42.2998842372,-83.6985015459,269.761138916,0.000144,0.0,0.0,0.0,0.000169,0.0,0.0,0.0,0.0025,2
1672947564135232523,108361,1672947564135053043,gps,2,1,42.2998842509,-83.6985015495,269.761413574,0.000144,0.0,0.0,0.0,0.000169,0.0,0.0,0.0,0.0025,2
1672947564145264920,108362,1672947564145050226,gps,2,1,42.2998842682,-83.6985015538,269.761444092,0.000144,0.0,0.0,0.0,0.000169,0.0,0.0,0.0,0.0025,2
1672947564155320368,108363,1672947564155108885,gps,2,1,42.2998842851,-83.6985015581,269.761505127,0.000144,0.0,0.0,0.0,0.000169,0.0,0.0,0.0,0.0025,2
1672947564165250255,108364,1672947564165047232,gps,2,1,42.2998842996,-83.6985015619,269.761749268,0.000144,0.0,0.0,0.0,0.000169,0.0,0.0,0.0,0.0025,2
1672947564175332318,108365,1672947564175110183,gps,2,1,42.2998843176,-83.6985015665,269.761810303,0.000144,0.0,0.0,0.0,0.000169,0.0,0.0,0.0,0.0025,2
1672947564185246278,108366,1672947564185056915,gps,2,1,42.299884335,-83.6985015709,269.76184082,0.000144,0.0,0.0,0.0,0.000169,0.0,0.0,0.0,0.0025,2
1672947564195246568,108367,1672947564195049552,gps,2,1,42.2998843504,-83.698501575,269.762084961,0.000144,0.0,0.0,0.0,0.000169,0.0,0.0,0.0,0.0025,2
1672947564205340159,108368,1672947564205122035,gps,2,1,42.2998843693,-83.6985015798,269.762115479,0.000144,0.0,0.0,0.0,0.000169,0.0,0.0,0.0,0.0025,2
1672947564215268560,108369,1672947564215072404,gps,2,1,42.2998843874,-83.6985015844,269.762145996,0.000144,0.0,0.0,0.0,0.000169,0.0,0.0,0.0,0.0025,2
1672947564225246652,108370,1672947564225047290,gps,2,1,42.2998844037,-83.6985015887,269.762390137,0.000144,0.0,0.0,0.0,0.000169,0.0,0.0,0.0,0.0025,2
1672947564235320423,108371,1672947564235113163,gps,2,1,42.2998844235,-83.6985015939,269.762420654,0.000144,0.0,0.0,0.0,0.000169,0.0,0.0,0.0,0.0025,2
1672947564245268940,108372,1672947564245057824,gps,2,1,42.2998844426,-83.6985015987,269.762481689,0.000144,0.0,0.0,0.0,0.000169,0.0,0.0,0.0,0.0025,2
1672947564255259107,108373,1672947564255053203,gps,2,1,42.29988446,-83.6985016034,269.762695312,0.000144,0.0,0.0,0.0,0.000169,0.0,0.0,0.0,0.0025,2
1672947564265356273,108374,1672947564265129142,gps,2,1,42.2998844809,-83.6985016088,269.762756348,0.000144,0.0,0.0,0.0,0.000169,0.0,0.0,0.0,0.0025,2
1672947564275371293,108375,1672947564275153517,gps,2,1,42.2998845008,-83.6985016139,269.762786865,0.000144,0.0,0.0,0.0,0.000169,0.0,0.0,0.0,0.0025,2
1672947564285282118,108376,1672947564285075879,gps,2,1,42.2998845193,-83.6985016189,269.763031006,0.000144,0.0,0.0,0.0,0.000169,0.0,0.0,0.0,0.0025,2
1672947564295301331,108377,1672947564295085797,gps,2,1,42.2998845411,-83.6985016245,269.763092041,0.000144,0.0,0.0,0.0,0.000169,0.0,0.0,0.0,0.0025,2
1672947564305350471,108378,1672947564305127015,gps,2,1,42.299884562,-83.69850163,269.763153076,0.000144,0.0,0.0,0.0,0.000169,0.0,0.0,0.0,0.0025,2
1672947564315268855,108379,1672947564315062363,gps,2,1,42.2998845814,-83.6985016352,269.763366699,0.000144,0.0,0.0,0.0,0.000169,0.0,0.0,0.0,0.0025,2
1672947564325280251,108380,1672947564325072726,gps,2,1,42.2998846039,-83.698501641,269.763458252,0.000144,0.0,0.0,0.0,0.000169,0.0,0.0,0.0,0.0025,2
1672947564335320703,108381,1672947564335123409,gps,2,1,42.2998846259,-83.6985016468,269.763519287,0.000144,0.0,0.0,0.0,0.000169,0.0,0.0,0.0,0.0025,2
1672947564345342528,108382,1672947564345154290,gps,2,1,42.2998846464,-83.6985016523,269.76373291,0.000144,0.0,0.0,0.0,0.000169,0.0,0.0,0.0,0.0025,2
1672947564355386588,108383,1672947564355172259,gps,2,1,42.2998846702,-83.6985016585,269.763824463,0.000144,0.0,0.0,0.0,0.000169,0.0,0.0,0.0,0.0025,2
1672947564365301541,108384,1672947564365098378,gps,2,1,42.299884693,-83.6985016644,269.763885498,0.000144,0.0,0.0,0.0,0.000169,0.0,0.0,0.0,0.0025,2
1672947564375254347,108385,1672947564375051369,gps,2,1,42.2998847147,-83.69850167,269.764129639,0.000144,0.0,0.0,0.0,0.000169,0.0,0.0,0.0,0.0025,2
1672947564385397999,108386,1672947564385136857,gps,2,1,42.2998847397,-83.6985016765,269.764190674,0.000144,0.0,0.0,0.0,0.000169,0.0,0.0,0.0,0.0025,2
1672947564395264285,108387,1672947564395071311,gps,2,1,42.2998847638,-83.6985016828,269.764282227,0.000144,0.0,0.0,0.0,0.000169,0.0,0.0,0.0,0.0025,2
1672947564405296824,108388,1672947564405055880,gps,2,1,42.2998847869,-83.6985016889,269.76449585,0.000144,0.0,0.0,0.0,0.000169,0.0,0.0,0.0,0.0025,2
1672947564415331127,108389,1672947564415079793,gps,2,1,42.2998848137,-83.6985016959,269.764556885,0.000144,0.0,0.0,0.0,0.000169,0.0,0.0,0.0,0.0025,2
1672947564425381881,108390,1672947564425142922,gps,2,1,42.2998848389,-83.6985017024,269.764648438,0.000144,0.0,0.0,0.0,0.000169,0.0,0.0,0.0,0.0025,2
1672947564435267665,108391,1672947564435069234,gps,2,1,42.2998848635,-83.6985017088,269.764862061,0.000144,0.0,0.0,0.0,0.000169,0.0,0.0,0.0,0.0025,2
1672947564445281774,108392,1672947564445082805,gps,2,1,42.299884891,-83.6985017158,269.764953613,0.000144,0.0,0.0,0.0,0.000169,0.0,0.0,0.0,0.0025,2
1672947564455340417,108393,1672947564455128328,gps,2,1,42.2998849182,-83.6985017231,269.765014648,0.000144,0.0,0.0,0.0,0.000169,0.0,0.0,0.0,0.0025,2
1672947564465285872,108394,1672947564465089030,gps,2,1,42.2998849442,-83.6985017299,269.765228271,0.000144,0.0,0.0,0.0,0.000169,0.0,0.0,0.0,0.0025,2
1672947564475304783,108395,1672947564475095873,gps,2,1,42.299884974,-83.6985017377,269.765319824,0.000144,0.0,0.0,0.0,0.000169,0.0,0.0,0.0,0.0025,2
1672947564485370533,108396,1672947564485159283,gps,2,1,42.2998850018,-83.6985017449,269.765380859,0.000144,0.0,0.0,0.0,0.000169,0.0,0.0,0.0,0.0025,2
1672947564495281530,108397,1672947564495081491,gps,2,1,42.2998850297,-83.6985017521,269.765594482,0.000144,0.0,0.0,0.0,0.000169,0.0,0.0,0.0,0.0025,2
1672947564505352805,108398,1672947564505133237,gps,2,1,42.2998850604,-83.69850176,269.765686035,0.000144,0.0,0.0,0.0,0.000169,0.0,0.0,0.0,0.0025,2
1672947564515365662,108399,1672947564515164294,gps,2,1,42.2998850908,-83.6985017682,269.765777588,0.000144,0.0,0.0,0.0,0.000169,0.0,0.0,0.0,0.0025,2
1672947564525449298,108400,1672947564525227422,gps,2,1,42.2998851203,-83.698501776,269.765991211,0.000144,0.0,0.0,0.0,0.000169,0.0,0.0,0.0,0.0025,2
1672947564535384211,108401,1672947564535181734,gps,2,1,42.2998851531,-83.6985017846,269.766052246,8.1e-05,0.0,0.0,0.0,0.0001,0.0,0.0,0.0,0.002401,2
1672947564545401193,108402,1672947564545163950,gps,2,1,42.2998851841,-83.6985017924,269.766174316,8.1e-05,0.0,0.0,0.0,0.0001,0.0,0.0,0.0,0.002401,2
1672947564555379412,108403,1672947564555145687,gps,2,1,42.2998852133,-83.698501801,269.766418457,8.1e-05,0.0,0.0,0.0,0.0001,0.0,0.0,0.0,0.002401,2
1672947564565334830,108404,1672947564565103387,gps,2,1,42.2998852478,-83.6985018102,269.766540527,8.1e-05,0.0,0.0,0.0,0.0001,0.0,0.0,0.0,0.002401,2
1672947564575374284,108405,1672947564575136838,gps,2,1,42.2998852812,-83.6985018185,269.766601562,8.1e-05,0.0,0.0,0.0,0.0001,0.0,0.0,0.0,0.002401,2
1672947564585290024,108406,1672947564585086756,gps,2,1,42.2998853128,-83.6985018277,269.766845703,8.1e-05,0.0,0.0,0.0,0.0001,0.0,0.0,0.0,0.002401,2
1672947564595378399,108407,1672947564595177423,gps,2,1,42.2998853492,-83.6985018369,269.766937256,8.1e-05,0.0,0.0,0.0,0.0001,0.0,0.0,0.0,0.002401,2
1672947564605367989,108408,1672947564605145733,gps,2,1,42.2998853842,-83.6985018468,269.767089844,8.1e-05,0.0,0.0,0.0,0.0001,0.0,0.0,0.0,0.002401,2
1672947564615315364,108409,1672947564615093565,gps,2,1,42.2998854179,-83.6985018569,269.767333984,8.1e-05,0.0,0.0,0.0,0.0001,0.0,0.0,0.0,0.002401,2
1672947564625303279,108410,1672947564625088402,gps,2,1,42.2998854571,-83.6985018667,269.76739502,8.1e-05,0.0,0.0,0.0,0.0001,0.0,0.0,0.0,0.002401,2
1672947564635407614,108411,1672947564635188388,gps,2,1,42.2998854934,-83.6985018767,269.767547607,8.1e-05,0.0,0.0,0.0,0.0001,0.0,0.0,0.0,0.002401,2
1672947564645335573,108412,1672947564645112617,gps,2,1,42.2998855292,-83.6985018872,269.767822266,8.1e-05,0.0,0.0,0.0,0.0001,0.0,0.0,0.0,0.002401,2
1672947564655309015,108413,1672947564655098039,gps,2,1,42.2998855696,-83.6985018982,269.767913818,8.1e-05,0.0,0.0,0.0,0.0001,0.0,0.0,0.0,0.002401,2
1672947564665355082,108414,1672947564665135644,gps,2,1,42.299885609,-83.6985019074,269.767974854,8.1e-05,0.0,0.0,0.0,0.0001,0.0,0.0,0.0,0.002401,2
1672947564675279427,108415,1672947564675082531,gps,2,1,42.2998856463,-83.6985019183,269.768249512,8.1e-05,0.0,0.0,0.0,0.0001,0.0,0.0,0.0,0.002401,2
1672947564685327316,108416,1672947564685103517,gps,2,1,42.2998856889,-83.6985019298,269.768371582,8.1e-05,0.0,0.0,0.0,0.0001,0.0,0.0,0.0,0.002401,2
1672947564695356317,108417,1672947564695145378,gps,2,1,42.2998857295,-83.6985019396,269.768463135,8.1e-05,0.0,0.0,0.0,0.0001,0.0,0.0,0.0,0.002401,2
1672947564705290202,108418,1672947564705089959,gps,2,1,42.2998857691,-83.6985019511,269.768737793,8.1e-05,0.0,0.0,0.0,0.0001,0.0,0.0,0.0,0.002401,2
1672947564715301377,108419,1672947564715098693,gps,2,1,42.2998858139,-83.6985019628,269.768859863,8.1e-05,0.0,0.0,0.0,0.0001,0.0,0.0,0.0,0.002401,2
1672947564725387907,108420,1672947564725154758,gps,2,1,42.2998858568,-83.6985019735,269.768981934,8.1e-05,0.0,0.0,0.0,0.0001,0.0,0.0,0.0,0.002401,2
1672947564735298705,108421,1672947564735088921,gps,2,1,42.2998858986,-83.6985019856,269.769256592,8.1e-05,0.0,0.0,0.0,0.0001,0.0,0.0,0.0,0.002401,2
1672947564745297503,108422,1672947564745089807,gps,2,1,42.2998859451,-83.6985019976,269.769348145,8.1e-05,0.0,0.0,0.0,0.0001,0.0,0.0,0.0,0.002401,2
1672947564755350788,108423,1672947564755156410,gps,2,1,42.2998859903,-83.6985020091,269.769500732,8.1e-05,0.0,0.0,0.0,0.0001,0.0,0.0,0.0,0.002401,2
1672947564765331698,108424,1672947564765121191,gps,2,1,42.2998860342,-83.6985020218,269.769744873,8.1e-05,0.0,0.0,0.0,0.0001,0.0,0.0,0.0,0.002401,2
1672947564775405289,108425,1672947564775196695,gps,2,1,42.299886083,-83.6985020338,269.769897461,8.1e-05,0.0,0.0,0.0,0.0001,0.0,0.0,0.0,0.002401,2
1672947564785354802,108426,1672947564785151466,gps,2,1,42.2998861297,-83.6985020469,269.770050049,8.1e-05,0.0,0.0,0.0,0.0001,0.0,0.0,0.0,0.002401,2
1672947564795311316,108427,1672947564795114735,gps,2,1,42.2998861758,-83.69850206,269.770324707,8.1e-05,0.0,0.0,0.0,0.0001,0.0,0.0,0.0,0.002401,2
1672947564805293678,108428,1672947564805089904,gps,2,1,42.2998862269,-83.6985020729,269.770477295,8.1e-05,0.0,0.0,0.0,0.0001,0.0,0.0,0.0,0.002401,2
1672947564815334461,108429,1672947564815141354,gps,2,1,42.2998862755,-83.6985020872,269.7706604,8.1e-05,0.0,0.0,0.0,0.0001,0.0,0.0,0.0,0.002401,2
1672947564825299522,108430,1672947564825084204,gps,2,1,42.299886324,-83.6985021006,269.770935059,8.1e-05,0.0,0.0,0.0,0.0001,0.0,0.0,0.0,0.002401,2
1672947564835303750,108431,1672947564835097002,gps,2,1,42.2998863768,-83.6985021151,269.771118164,8.1e-05,0.0,0.0,0.0,0.0001,0.0,0.0,0.0,0.002401,2
1672947564845457677,108432,1672947564845249334,gps,2,1,42.2998864279,-83.6985021293,269.771270752,8.1e-05,0.0,0.0,0.0,0.0001,0.0,0.0,0.0,0.002401,2
1672947564855308209,108433,1672947564855104633,gps,2,1,42.2998864784,-83.6985021432,269.771575928,8.1e-05,0.0,0.0,0.0,0.0001,0.0,0.0,0.0,0.002401,2
1672947564865281047,108434,1672947564865105390,gps,2,1,42.2998865332,-83.6985021591,269.771759033,8.1e-05,0.0,0.0,0.0,0.0001,0.0,0.0,0.0,0.002401,2
1672947564875394575,108435,1672947564875179131,gps,2,1,42.2998865867,-83.6985021721,269.771911621,8.1e-05,0.0,0.0,0.0,0.0001,0.0,0.0,0.0,0.002401,2
1672947564885299731,108436,1672947564885099769,gps,2,1,42.2998866397,-83.6985021872,269.772216797,8.1e-05,0.0,0.0,0.0,0.0001,0.0,0.0,0.0,0.002401,2
1672947564895299792,108437,1672947564895103570,gps,2,1,42.2998866969,-83.6985022026,269.772369385,8.1e-05,0.0,0.0,0.0,0.0001,0.0,0.0,0.0,0.002401,2
1672947564905369806,108438,1672947564905164936,gps,2,1,42.2998867524,-83.6985022163,269.772583008,8.1e-05,0.0,0.0,0.0,0.0001,0.0,0.0,0.0,0.002401,2
1672947564915330512,108439,1672947564915108004,gps,2,1,42.2998868073,-83.698502232,269.772888184,8.1e-05,0.0,0.0,0.0,0.0001,0.0,0.0,0.0,0.002401,2
1672947564925324324,108440,1672947564925109922,gps,2,1,42.2998868666,-83.698502247,269.773101807,8.1e-05,0.0,0.0,0.0,0.0001,0.0,0.0,0.0,0.002401,2
1672947564935454470,108441,1672947564935233692,gps,2,1,42.2998869246,-83.6985022627,269.773284912,8.1e-05,0.0,0.0,0.0,0.0001,0.0,0.0,0.0,0.002401,2
1672947564945315750,108442,1672947564945098749,gps,2,1,42.2998869818,-83.6985022787,269.773590088,8.1e-05,0.0,0.0,0.0,0.0001,0.0,0.0,0.0,0.002401,2
1672947564955311044,108443,1672947564955102610,gps,2,1,42.2998870434,-83.6985022953,269.773803711,8.1e-05,0.0,0.0,0.0,0.0001,0.0,0.0,0.0,0.002401,2
1672947564965374403,108444,1672947564965147569,gps,2,1,42.2998871034,-83.6985023116,269.773956299,8.1e-05,0.0,0.0,0.0,0.0001,0.0,0.0,0.0,0.002401,2
1672947564975316058,108445,1672947564975101409,gps,2,1,42.299887163,-83.6985023282,269.774261475,8.1e-05,0.0,0.0,0.0,0.0001,0.0,0.0,0.0,0.002401,2
1672947564985310936,108446,1672947564985098484,gps,2,1,42.299887227,-83.6985023456,269.77444458,8.1e-05,0.0,0.0,0.0,0.0001,0.0,0.0,0.0,0.002401,2
1672947564995413741,108447,1672947564995164328,gps,2,1,42.299887289,-83.6985023621,269.774658203,8.1e-05,0.0,0.0,0.0,0.0001,0.0,0.0,0.0,0.002401,2
1672947565005399709,108448,1672947565005172018,gps,2,1,42.2998873508,-83.6985023796,269.774963379,8.1e-05,0.0,0.0,0.0,0.0001,0.0,0.0,0.0,0.002401,2
1672947565015412949,108449,1672947565015187060,gps,2,1,42.2998874169,-83.698502397,269.77520752,8.1e-05,0.0,0.0,0.0,0.0001,0.0,0.0,0.0,0.002401,2
1672947565025499944,108450,1672947565025306180,gps,2,1,42.299887481,-83.6985024144,269.775390625,8.1e-05,0.0,0.0,0.0,0.0001,0.0,0.0,0.0,0.002401,2
1672947565035444568,108451,1672947565035214104,gps,2,1,42.299887542,-83.6985024336,269.775787354,8.1e-05,0.0,0.0,0.0,0.0001,0.0,0.0,0.0,0.002401,2
1672947565045344324,108452,1672947565045138723,gps,2,1,42.2998876103,-83.6985024524,269.776031494,8.1e-05,0.0,0.0,0.0,0.0001,0.0,0.0,0.0,0.002401,2
1672947565055427602,108453,1672947565055215880,gps,2,1,42.2998876766,-83.6985024702,269.776245117,8.1e-05,0.0,0.0,0.0,0.0001,0.0,0.0,0.0,0.002401,2
1672947565065441122,108454,1672947565065217203,gps,2,1,42.2998877402,-83.6985024902,269.776641846,8.1e-05,0.0,0.0,0.0,0.0001,0.0,0.0,0.0,0.002401,2
1672947565075368244,108455,1672947565075133324,gps,2,1,42.2998878108,-83.6985025095,269.776885986,8.1e-05,0.0,0.0,0.0,0.0001,0.0,0.0,0.0,0.002401,2
1672947565085373619,108456,1672947565085168673,gps,2,1,42.2998878794,-83.6985025279,269.777130127,8.1e-05,0.0,0.0,0.0,0.0001,0.0,0.0,0.0,0.002401,2
1672947565095289100,108457,1672947565095106513,gps,2,1,42.2998879452,-83.6985025486,269.777526855,8.1e-05,0.0,0.0,0.0,0.0001,0.0,0.0,0.0,0.002401,2
1672947565105333325,108458,1672947565105106770,gps,2,1,42.299888018,-83.6985025681,269.777801514,8.1e-05,0.0,0.0,0.0,0.0001,0.0,0.0,0.0,0.002401,2
1672947565115396085,108459,1672947565115177927,gps,2,1,42.299888089,-83.6985025876,269.778045654,8.1e-05,0.0,0.0,0.0,0.0001,0.0,0.0,0.0,0.002401,2
1672947565125327976,108460,1672947565125115791,gps,2,1,42.2998881572,-83.6985026088,269.7784729,8.1e-05,0.0,0.0,0.0,0.0001,0.0,0.0,0.0,0.002401,2
1672947565135334454,108461,1672947565135123202,gps,2,1,42.2998882322,-83.6985026298,269.778747559,8.1e-05,0.0,0.0,0.0,0.0001,0.0,0.0,0.0,0.002401,2
1672947565145409780,108462,1672947565145189485,gps,2,1,42.2998883055,-83.6985026495,269.779022217,8.1e-05,0.0,0.0,0.0,0.0001,0.0,0.0,0.0,0.002401,2
1672947565155338057,108463,1672947565155113624,gps,2,1,42.2998883763,-83.6985026715,269.779449463,8.1e-05,0.0,0.0,0.0,0.0001,0.0,0.0,0.0,0.002401,2
1672947565165342707,108464,1672947565165121724,gps,2,1,42.2998884535,-83.6985026928,269.779754639,8.1e-05,0.0,0.0,0.0,0.0001,0.0,0.0,0.0,0.002401,2
1672947565175418002,108465,1672947565175178473,gps,2,1,42.299888529,-83.6985027133,269.780059814,8.1e-05,0.0,0.0,0.0,0.0001,0.0,0.0,0.0,0.002401,2
1672947565185338621,108466,1672947565185121230,gps,2,1,42.2998886021,-83.698502736,269.780517578,8.1e-05,0.0,0.0,0.0,0.0001,0.0,0.0,0.0,0.002401,2
1672947565195346637,108467,1672947565195127887,gps,2,1,42.2998886817,-83.6985027578,269.780761719,8.1e-05,0.0,0.0,0.0,0.0001,0.0,0.0,0.0,0.002401,2
1672947565205433489,108468,1672947565205186998,gps,2,1,42.2998887595,-83.6985027793,269.781066895,8.1e-05,0.0,0.0,0.0,0.0001,0.0,0.0,0.0,0.002401,2
1672947565215365679,108469,1672947565215134886,gps,2,1,42.299888835,-83.6985028024,269.781524658,8.1e-05,0.0,0.0,0.0,0.0001,0.0,0.0,0.0,0.002401,2
1672947565225321332,108470,1672947565225117797,gps,2,1,42.2998889171,-83.6985028252,269.781829834,8.1e-05,0.0,0.0,0.0,0.0001,0.0,0.0,0.0,0.002401,2
1672947565235406821,108471,1672947565235167867,gps,2,1,42.2998889971,-83.6985028469,269.78213501,8.1e-05,0.0,0.0,0.0,0.0001,0.0,0.0,0.0,0.002401,2
1672947565245358281,108472,1672947565245107499,gps,2,1,42.2998890753,-83.6985028707,269.782531738,8.1e-05,0.0,0.0,0.0,0.0001,0.0,0.0,0.0,0.002401,2
1672947565255384639,108473,1672947565255115393,gps,2,1,42.2998891595,-83.6985028936,269.782836914,8.1e-05,0.0,0.0,0.0,0.0001,0.0,0.0,0.0,0.002401,2
1672947565265453491,108474,1672947565265197115,gps,2,1,42.2998892419,-83.6985029163,269.783111572,8.1e-05,0.0,0.0,0.0,0.0001,0.0,0.0,0.0,0.002401,2
1672947565275406429,108475,1672947565275212439,gps,2,1,42.2998893225,-83.6985029405,269.783538818,8.1e-05,0.0,0.0,0.0,0.0001,0.0,0.0,0.0,0.002401,2
1672947565285380777,108476,1672947565285127441,gps,2,1,42.2998894093,-83.6985029645,269.783813477,8.1e-05,0.0,0.0,0.0,0.0001,0.0,0.0,0.0,0.002401,2
1672947565295443297,108477,1672947565295193470,gps,2,1,42.2998894939,-83.6985029877,269.78414917,8.1e-05,0.0,0.0,0.0,0.0001,0.0,0.0,0.0,0.002401,2
1672947565305387675,108478,1672947565305125597,gps,2,1,42.2998895771,-83.6985030126,269.784545898,8.1e-05,0.0,0.0,0.0,0.0001,0.0,0.0,0.0,0.002401,2
1672947565315465350,108479,1672947565315217168,gps,2,1,42.2998896665,-83.6985030367,269.784851074,8.1e-05,0.0,0.0,0.0,0.0001,0.0,0.0,0.0,0.002401,2
1672947565325433231,108480,1672947565325198728,gps,2,1,42.2998897535,-83.6985030604,269.785125732,8.1e-05,0.0,0.0,0.0,0.0001,0.0,0.0,0.0,0.002401,2
1672947565335367377,108481,1672947565335135356,gps,2,1,42.2998898393,-83.6985030859,269.785552979,8.1e-05,0.0,0.0,0.0,0.0001,0.0,0.0,0.0,0.002401,2
1672947565345364765,108482,1672947565345132008,gps,2,1,42.2998899309,-83.6985031105,269.785797119,8.1e-05,0.0,0.0,0.0,0.0001,0.0,0.0,0.0,0.002401,2
1672947565355391287,108483,1672947565355180259,gps,2,1,42.2998900207,-83.6985031351,269.786071777,8.1e-05,0.0,0.0,0.0,0.0001,0.0,0.0,0.0,0.002401,2
1672947565365333126,108484,1672947565365119233,gps,2,1,42.2998901093,-83.698503161,269.786499023,8.1e-05,0.0,0.0,0.0,0.0001,0.0,0.0,0.0,0.002401,2
1672947565375384519,108485,1672947565375122495,gps,2,1,42.2998902037,-83.6985031868,269.786804199,8.1e-05,0.0,0.0,0.0,0.0001,0.0,0.0,0.0,0.002401,2
1672947565385463017,108486,1672947565385201775,gps,2,1,42.2998902957,-83.6985032113,269.787109375,8.1e-05,0.0,0.0,0.0,0.0001,0.0,0.0,0.0,0.002401,2
1672947565395387100,108487,1672947565395148895,gps,2,1,42.2998903869,-83.6985032378,269.787506104,8.1e-05,0.0,0.0,0.0,0.0001,0.0,0.0,0.0,0.002401,2
1672947565405379727,108488,1672947565405146143,gps,2,1,42.2998904836,-83.6985032636,269.787841797,8.1e-05,0.0,0.0,0.0,0.0001,0.0,0.0,0.0,0.002401,2
1672947565415456902,108489,1672947565415202972,gps,2,1,42.2998905786,-83.698503289,269.788116455,8.1e-05,0.0,0.0,0.0,0.0001,0.0,0.0,0.0,0.002401,2
1672947565425453903,108490,1672947565425208709,gps,2,1,42.2998906724,-83.698503316,269.788543701,8.1e-05,0.0,0.0,0.0,0.0001,0.0,0.0,0.0,0.002401,2
1672947565435392347,108491,1672947565435160316,gps,2,1,42.2998907718,-83.6985033428,269.788879395,8.1e-05,0.0,0.0,0.0,0.0001,0.0,0.0,0.0,0.002401,2
1672947565445412572,108492,1672947565445200135,gps,2,1,42.2998908691,-83.6985033693,269.789215088,8.1e-05,0.0,0.0,0.0,0.0001,0.0,0.0,0.0,0.002401,2
1672947565455355775,108493,1672947565455132369,gps,2,1,42.2998909656,-83.6985033971,269.789642334,8.1e-05,0.0,0.0,0.0,0.0001,0.0,0.0,0.0,0.002401,2
1672947565465371168,108494,1672947565465138271,gps,2,1,42.2998910677,-83.6985034252,269.790039062,8.1e-05,0.0,0.0,0.0,0.0001,0.0,0.0,0.0,0.002401,2
1672947565475443937,108495,1672947565475198732,gps,2,1,42.2998911674,-83.6985034518,269.790405273,8.1e-05,0.0,0.0,0.0,0.0001,0.0,0.0,0.0,0.002401,2
1672947565485423082,108496,1672947565485171928,gps,2,1,42.2998912666,-83.6985034808,269.79083252,8.1e-05,0.0,0.0,0.0,0.0001,0.0,0.0,0.0,0.002401,2
1672947565495398904,108497,1672947565495158692,gps,2,1,42.2998913713,-83.6985035089,269.79119873,8.1e-05,0.0,0.0,0.0,0.0001,0.0,0.0,0.0,0.002401,2
1672947565505503978,108498,1672947565505273952,gps,2,1,42.2998914737,-83.6985035371,269.791534424,8.1e-05,0.0,0.0,0.0,0.0001,0.0,0.0,0.0,0.002401,2
1672947565515361872,108499,1672947565515147710,gps,2,1,42.2998915734,-83.6985035659,269.7918396,8.1e-05,0.0,0.0,0.0,0.0001,0.0,0.0,0.0,0.002401,2
1672947565525511946,108500,1672947565525280899,gps,2,1,42.2998916807,-83.6985035954,269.792205811,8.1e-05,0.0,0.0,0.0,0.0001,0.0,0.0,0.0,0.002401,2
1672947565535511716,108501,1672947565535271985,gps,2,1,42.2998917859,-83.6985036249,269.792572021,0.000144,0.0,0.0,0.0,0.000169,0.0,0.0,0.0,0.0025,2
1672947565545460141,108502,1672947565545246657,gps,2,1,42.2998918885,-83.6985036544,269.792877197,0.000144,0.0,0.0,0.0,0.000169,0.0,0.0,0.0,0.0025,2
1672947565555410193,108503,1672947565555175759,gps,2,1,42.2998919987,-83.6985036855,269.793243408,0.000144,0.0,0.0,0.0,0.000169,0.0,0.0,0.0,0.0025,2
1672947565565456521,108504,1672947565565205396,gps,2,1,42.2998921065,-83.6985037147,269.793609619,0.000144,0.0,0.0,0.0,0.000169,0.0,0.0,0.0,0.0025,2
1672947565575361778,108505,1672947565575141592,gps,2,1,42.299892212,-83.6985037454,269.793914795,0.000144,0.0,0.0,0.0,0.000169,0.0,0.0,0.0,0.0025,2
1672947565585351240,108506,1672947565585160650,gps,2,1,42.299892325,-83.6985037764,269.794250488,0.000144,0.0,0.0,0.0,0.000169,0.0,0.0,0.0,0.0025,2
1672947565595495673,108507,1672947565595299339,gps,2,1,42.2998924357,-83.6985038068,269.794616699,0.000144,0.0,0.0,0.0,0.000169,0.0,0.0,0.0,0.0025,2
1672947565605393327,108508,1672947565605191489,gps,2,1,42.2998925442,-83.6985038381,269.794921875,0.000144,0.0,0.0,0.0,0.000169,0.0,0.0,0.0,0.0025,2
1672947565615381302,108509,1672947565615175270,gps,2,1,42.29989266,-83.69850387,269.795288086,0.000144,0.0,0.0,0.0,0.000169,0.0,0.0,0.0,0.0025,2
1672947565625459220,108510,1672947565625232384,gps,2,1,42.2998927736,-83.6985039017,269.795654297,0.000144,0.0,0.0,0.0,0.000169,0.0,0.0,0.0,0.0025,2
1672947565635380149,108511,1672947565635152291,gps,2,1,42.2998928853,-83.6985039336,269.79598999,0.000144,0.0,0.0,0.0,0.000169,0.0,0.0,0.0,0.0025,2
1672947565645353273,108512,1672947565645156988,gps,2,1,42.2998930041,-83.698503967,269.796386719,0.000144,0.0,0.0,0.0,0.000169,0.0,0.0,0.0,0.0025,2
1672947565655422369,108513,1672947565655201379,gps,2,1,42.2998931203,-83.6985039988,269.796722412,0.000144,0.0,0.0,0.0,0.000169,0.0,0.0,0.0,0.0025,2
1672947565665344889,108514,1672947565665150952,gps,2,1,42.2998932351,-83.6985040319,269.797088623,0.000144,0.0,0.0,0.0,0.000169,0.0,0.0,0.0,0.0025,2
1672947565675361039,108515,1672947565675140157,gps,2,1,42.2998933568,-83.6985040655,269.797485352,0.000144,0.0,0.0,0.0,0.000169,0.0,0.0,0.0,0.0025,2
1672947565685448881,108516,1672947565685206999,gps,2,1,42.2998934759,-83.6985040984,269.79788208,0.000144,0.0,0.0,0.0,0.000169,0.0,0.0,0.0,0.0025,2
1672947565695371843,108517,1672947565695146917,gps,2,1,42.2998935937,-83.6985041327,269.798248291,0.000144,0.0,0.0,0.0,0.000169,0.0,0.0,0.0,0.0025,2
1672947565705368131,108518,1672947565705161145,gps,2,1,42.2998937181,-83.6985041672,269.798675537,0.000144,0.0,0.0,0.0,0.000169,0.0,0.0,0.0,0.0025,2
1672947565715448466,108519,1672947565715219075,gps,2,1,42.2998938402,-83.698504202,269.799102783,0.000144,0.0,0.0,0.0,0.000169,0.0,0.0,0.0,0.0025,2
1672947565725364612,108520,1672947565725150371,gps,2,1,42.2998939611,-83.6985042371,269.799499512,0.000144,0.0,0.0,0.0,0.000169,0.0,0.0,0.0,0.0025,2
1672947565735365445,108521,1672947565735150232,gps,2,1,42.2998940884,-83.698504274,269.799957275,0.000144,0.0,0.0,0.0,0.000169,0.0,0.0,0.0,0.0025,2
1672947565745438782,108522,1672947565745216967,gps,2,1,42.2998942134,-83.6985043094,269.800384521,0.000144,0.0,0.0,0.0,0.000169,0.0,0.0,0.0,0.0025,2
1672947565755433516,108523,1672947565755199178,gps,2,1,42.2998943372,-83.6985043459,269.800811768,0.000144,0.0,0.0,0.0,0.000169,0.0,0.0,0.0,0.0025,2
1672947565765397769,108524,1672947565765184718,gps,2,1,42.2998944675,-83.6985043838,269.801269531,0.000144,0.0,0.0,0.0,0.000169,0.0,0.0,0.0,0.0025,2
1672947565775539823,108525,1672947565775306729,gps,2,1,42.2998945955,-83.6985044195,269.801757812,0.000144,0.0,0.0,0.0,0.000169,0.0,0.0,0.0,0.0025,2
1672947565785477887,108526,1672947565785228602,gps,2,1,42.2998947224,-83.6985044574,269.802215576,0.000144,0.0,0.0,0.0,0.000169,0.0,0.0,0.0,0.0025,2
1672947565795393651,108527,1672947565795157671,gps,2,1,42.2998948557,-83.6985044952,269.802734375,0.000144,0.0,0.0,0.0,0.000169,0.0,0.0,0.0,0.0025,2
1672947565805398622,108528,1672947565805207610,gps,2,1,42.2998949864,-83.6985045325,269.803222656,0.000144,0.0,0.0,0.0,0.000169,0.0,0.0,0.0,0.0025,2
1672947565815415477,108529,1672947565815164046,gps,2,1,42.2998951164,-83.6985045711,269.803710938,0.000144,0.0,0.0,0.0,0.000169,0.0,0.0,0.0,0.0025,2
1672947565825403356,108530,1672947565825153595,gps,2,1,42.2998952528,-83.6985046097,269.804260254,0.000144,0.0,0.0,0.0,0.000169,0.0,0.0,0.0,0.0025,2
1672947565835456993,108531,1672947565835225057,gps,2,1,42.2998953864,-83.6985046489,269.804779053,0.000144,0.0,0.0,0.0,0.000169,0.0,0.0,0.0,0.0025,2
1672947565845413210,108532,1672947565845159001,gps,2,1,42.2998955197,-83.6985046879,269.805297852,0.000144,0.0,0.0,0.0,0.000169,0.0,0.0,0.0,0.0025,2
1672947565855368416,108533,1672947565855167315,gps,2,1,42.2998956593,-83.6985047282,269.805908203,0.000144,0.0,0.0,0.0,0.000169,0.0,0.0,0.0,0.0025,2
1672947565865436668,108534,1672947565865220418,gps,2,1,42.2998957961,-83.6985047673,269.80645752,0.000144,0.0,0.0,0.0,0.000169,0.0,0.0,0.0,0.0025,2
1672947565875382080,108535,1672947565875162246,gps,2,1,42.2998959326,-83.6985048073,269.807037354,0.000144,0.0,0.0,0.0,0.000169,0.0,0.0,0.0,0.0025,2
1672947565885369540,108536,1672947565885167254,gps,2,1,42.2998960753,-83.698504848,269.807647705,0.000144,0.0,0.0,0.0,0.000169,0.0,0.0,0.0,0.0025,2
1672947565895447847,108537,1672947565895235169,gps,2,1,42.2998962153,-83.6985048876,269.808227539,0.000144,0.0,0.0,0.0,0.000169,0.0,0.0,0.0,0.0025,2
1672947565905408464,108538,1672947565905171712,gps,2,1,42.2998963553,-83.6985049284,269.808837891,0.000144,0.0,0.0,0.0,0.000169,0.0,0.0,0.0,0.0025,2
1672947565915395560,108539,1672947565915172190,gps,2,1,42.2998965013,-83.6985049696,269.809448242,0.000144,0.0,0.0,0.0,0.000169,0.0,0.0,0.0,0.0025,2
1672947565925459607,108540,1672947565925235084,gps,2,1,42.2998966445,-83.6985050108,269.810058594,0.000144,0.0,0.0,0.0,0.000169,0.0,0.0,0.0,0.0025,2
1672947565935412992,108541,1672947565935176782,gps,2,1,42.299896788,-83.6985050523,269.810668945,0.000144,0.0,0.0,0.0,0.000169,0.0,0.0,0.0,0.0025,2
1672947565945364572,108542,1672947565945164466,gps,2,1,42.2998969373,-83.6985050952,269.811309814,0.000144,0.0,0.0,0.0,0.000169,0.0,0.0,0.0,0.0025,2
1672947565955424872,108543,1672947565955210505,gps,2,1,42.2998970839,-83.6985051372,269.811920166,0.000144,0.0,0.0,0.0,0.000169,0.0,0.0,0.0,0.0025,2
1672947565965361440,108544,1672947565965154706,gps,2,1,42.2998972309,-83.6985051797,269.812530518,0.000144,0.0,0.0,0.0,0.000169,0.0,0.0,0.0,0.0025,2
1672947565975394664,108545,1672947565975165636,gps,2,1,42.2998973835,-83.6985052238,269.813171387,0.000144,0.0,0.0,0.0,0.000169,0.0,0.0,0.0,0.0025,2
1672947565985445591,108546,1672947565985226317,gps,2,1,42.2998975337,-83.6985052657,269.813812256,0.000144,0.0,0.0,0.0,0.000169,0.0,0.0,0.0,0.0025,2
1672947565995410177,108547,1672947565995186096,gps,2,1,42.299897684,-83.6985053096,269.814422607,0.000144,0.0,0.0,0.0,0.000169,0.0,0.0,0.0,0.0025,2
1672947566005455818,108548,1672947566005240485,gps,2,1,42.2998978403,-83.6985053537,269.815032959,0.000144,0.0,0.0,0.0,0.000169,0.0,0.0,0.0,0.0025,2
1672947566015478692,108549,1672947566015254931,gps,2,1,42.2998979936,-83.698505397,269.815673828,0.000144,0.0,0.0,0.0,0.000169,0.0,0.0,0.0,0.0025,2
1672947566025577972,108550,1672947566025367439,gps,2,1,42.2998981476,-83.6985054418,269.81628418,0.000144,0.0,0.0,0.0,0.000169,0.0,0.0,0.0,0.0025,2
1672947566035479121,108551,1672947566035264605,gps,2,1,42.2998983071,-83.6985054868,269.816925049,0.000144,0.0,0.0,0.0,0.000169,0.0,0.0,0.0,0.0025,2
1672947566045486620,108552,1672947566045247931,gps,2,1,42.2998984641,-83.6985055323,269.817504883,0.000144,0.0,0.0,0.0,0.000169,0.0,0.0,0.0,0.0025,2
1672947566055453705,108553,1672947566055236670,gps,2,1,42.2998986219,-83.6985055765,269.818145752,0.000144,0.0,0.0,0.0,0.000169,0.0,0.0,0.0,0.0025,2
1672947566065497146,108554,1672947566065296935,gps,2,1,42.299898785,-83.6985056238,269.818695068,0.000144,0.0,0.0,0.0,0.000169,0.0,0.0,0.0,0.0025,2
1672947566075451392,108555,1672947566075268187,gps,2,1,42.2998989452,-83.6985056698,269.81930542,0.000144,0.0,0.0,0.0,0.000169,0.0,0.0,0.0,0.0025,2
1672947566085411012,108556,1672947566085182551,gps,2,1,42.2998991065,-83.6985057156,269.819885254,0.000144,0.0,0.0,0.0,0.000169,0.0,0.0,0.0,0.0025,2
1672947566095425076,108557,1672947566095168072,gps,2,1,42.2998992732,-83.6985057641,269.820404053,0.000144,0.0,0.0,0.0,0.000169,0.0,0.0,0.0,0.0025,2
1672947566105473064,108558,1672947566105231959,gps,2,1,42.2998994368,-83.6985058107,269.820983887,0.000144,0.0,0.0,0.0,0.000169,0.0,0.0,0.0,0.0025,2
1672947566115407942,108559,1672947566115173483,gps,2,1,42.2998996019,-83.6985058582,269.821533203,0.000144,0.0,0.0,0.0,0.000169,0.0,0.0,0.0,0.0025,2
1672947566125395750,108560,1672947566125182750,gps,2,1,42.2998997719,-83.6985059073,269.822052002,0.000144,0.0,0.0,0.0,0.000169,0.0,0.0,0.0,0.0025,2
1672947566135519024,108561,1672947566135265252,gps,2,1,42.2998999392,-83.6985059559,269.822570801,0.000144,0.0,0.0,0.0,0.000169,0.0,0.0,0.0,0.0025,2
1672947566145411928,108562,1672947566145176019,gps,2,1,42.2999001077,-83.6985060048,269.8230896,0.000144,0.0,0.0,0.0,0.000169,0.0,0.0,0.0,0.0025,2
1672947566155432194,108563,1672947566155177038,gps,2,1,42.2999002814,-83.698506056,269.823577881,0.000144,0.0,0.0,0.0,0.000169,0.0,0.0,0.0,0.0025,2
1672947566165427340,108564,1672947566165237547,gps,2,1,42.2999004523,-83.6985061064,269.824066162,0.000144,0.0,0.0,0.0,0.000169,0.0,0.0,0.0,0.0025,2
1672947566175435493,108565,1672947566175181971,gps,2,1,42.2999006245,-83.6985061567,269.824554443,0.000144,0.0,0.0,0.0,0.000169,0.0,0.0,0.0,0.0025,2
1672947566185446759,108566,1672947566185186817,gps,2,1,42.2999008017,-83.6985062102,269.824981689,0.000144,0.0,0.0,0.0,0.000169,0.0,0.0,0.0,0.0025,2
1672947566195506275,108567,1672947566195251170,gps,2,1,42.2999009765,-83.6985062615,269.825469971,0.000144,0.0,0.0,0.0,0.000169,0.0,0.0,0.0,0.0025,2
1672947566205423028,108568,1672947566205187858,gps,2,1,42.2999011522,-83.6985063139,269.825927734,0.000144,0.0,0.0,0.0,0.000169,0.0,0.0,0.0,0.0025,2
1672947566215412788,108569,1672947566215180592,gps,2,1,42.2999013332,-83.6985063684,269.826293945,0.000144,0.0,0.0,0.0,0.000169,0.0,0.0,0.0,0.0025,2
1672947566225447359,108570,1672947566225230942,gps,2,1,42.299901511,-83.6985064213,269.826751709,0.000144,0.0,0.0,0.0,0.000169,0.0,0.0,0.0,0.0025,2
1672947566235408072,108571,1672947566235182282,gps,2,1,42.2999016903,-83.6985064756,269.827178955,0.000144,0.0,0.0,0.0,0.000169,0.0,0.0,0.0,0.0025,2
1672947566245392368,108572,1672947566245191370,gps,2,1,42.2999018745,-83.6985065315,269.827575684,0.000144,0.0,0.0,0.0,0.000169,0.0,0.0,0.0,0.0025,2
1672947566255443193,108573,1672947566255244908,gps,2,1,42.2999020558,-83.6985065868,269.827972412,0.000144,0.0,0.0,0.0,0.000169,0.0,0.0,0.0,0.0025,2
1672947566265423432,108574,1672947566265207013,gps,2,1,42.2999022385,-83.6985066422,269.828430176,0.000144,0.0,0.0,0.0,0.000169,0.0,0.0,0.0,0.0025,2
1672947566275514752,108575,1672947566275283022,gps,2,1,42.2999024258,-83.6985066999,269.828918457,0.000144,0.0,0.0,0.0,0.000169,0.0,0.0,0.0,0.0025,2
1672947566285498949,108576,1672947566285249429,gps,2,1,42.2999026105,-83.6985067561,269.829345703,0.000144,0.0,0.0,0.0,0.000169,0.0,0.0,0.0,0.0025,2
1672947566295440652,108577,1672947566295197640,gps,2,1,42.2999027966,-83.6985068125,269.82989502,0.000144,0.0,0.0,0.0,0.000169,0.0,0.0,0.0,0.0025,2
1672947566305430810,108578,1672947566305212259,gps,2,1,42.2999029875,-83.6985068706,269.830474854,0.000144,0.0,0.0,0.0,0.000169,0.0,0.0,0.0,0.0025,2
1672947566315495447,108579,1672947566315252778,gps,2,1,42.2999031754,-83.6985069273,269.830993652,0.000144,0.0,0.0,0.0,0.000169,0.0,0.0,0.0,0.0025,2
1672947566325427417,108580,1672947566325188843,gps,2,1,42.2999033651,-83.6985069845,269.831634521,0.000144,0.0,0.0,0.0,0.000169,0.0,0.0,0.0,0.0025,2
1672947566335437614,108581,1672947566335213226,gps,2,1,42.2999035594,-83.6985070421,269.832305908,0.000144,0.0,0.0,0.0,0.000169,0.0,0.0,0.0,0.0025,2
1672947566345595178,108582,1672947566345359751,gps,2,1,42.2999037511,-83.6985071004,269.832855225,0.000144,0.0,0.0,0.0,0.000169,0.0,0.0,0.0,0.0025,2
1672947566355414949,108583,1672947566355209038,gps,2,1,42.2999039442,-83.6985071576,269.833557129,0.000144,0.0,0.0,0.0,0.000169,0.0,0.0,0.0,0.0025,2
1672947566365407771,108584,1672947566365187262,gps,2,1,42.2999041421,-83.6985072159,269.834289551,0.000144,0.0,0.0,0.0,0.000169,0.0,0.0,0.0,0.0025,2
1672947566375485541,108585,1672947566375263527,gps,2,1,42.2999043372,-83.6985072749,269.834960938,0.000144,0.0,0.0,0.0,0.000169,0.0,0.0,0.0,0.0025,2
1672947566385379332,108586,1672947566385178509,gps,2,1,42.299904534,-83.6985073326,269.835723877,0.000144,0.0,0.0,0.0,0.000169,0.0,0.0,0.0,0.0025,2
1672947566395410001,108587,1672947566395190795,gps,2,1,42.2999047354,-83.698507392,269.836486816,0.000144,0.0,0.0,0.0,0.000169,0.0,0.0,0.0,0.0025,2
1672947566405491029,108588,1672947566405262527,gps,2,1,42.2999049338,-83.6985074504,269.837219238,0.000144,0.0,0.0,0.0,0.000169,0.0,0.0,0.0,0.0025,2
1672947566415395413,108589,1672947566415200408,gps,2,1,42.299905134,-83.6985075089,269.838012695,0.000144,0.0,0.0,0.0,0.000169,0.0,0.0,0.0,0.0025,2
1672947566425395330,108590,1672947566425202091,gps,2,1,42.299905339,-83.6985075685,269.838806152,0.000144,0.0,0.0,0.0,0.000169,0.0,0.0,0.0,0.0025,2
1672947566435508746,108591,1672947566435254117,gps,2,1,42.2999055407,-83.6985076272,269.839599609,0.000144,0.0,0.0,0.0,0.000169,0.0,0.0,0.0,0.0025,2
1672947566445446290,108592,1672947566445204054,gps,2,1,42.2999057445,-83.6985076868,269.840393066,0.000144,0.0,0.0,0.0,0.000169,0.0,0.0,0.0,0.0025,2
1672947566455426404,108593,1672947566455212583,gps,2,1,42.2999059527,-83.6985077475,269.841094971,0.000144,0.0,0.0,0.0,0.000169,0.0,0.0,0.0,0.0025,2
1672947566465477434,108594,1672947566465256138,gps,2,1,42.2999061581,-83.6985078079,269.84185791,0.000144,0.0,0.0,0.0,0.000169,0.0,0.0,0.0,0.0025,2
1672947566475424172,108595,1672947566475202988,gps,2,1,42.2999063652,-83.6985078685,269.842590332,0.000144,0.0,0.0,0.0,0.000169,0.0,0.0,0.0,0.0025,2
1672947566485411436,108596,1672947566485203447,gps,2,1,42.2999065767,-83.6985079312,269.843261719,0.000144,0.0,0.0,0.0,0.000169,0.0,0.0,0.0,0.0025,2
1672947566495467729,108597,1672947566495253524,gps,2,1,42.2999067855,-83.6985079923,269.843994141,0.000144,0.0,0.0,0.0,0.000169,0.0,0.0,0.0,0.0025,2
1672947566505425744,108598,1672947566505234272,gps,2,1,42.299906996,-83.6985080542,269.844665527,0.000144,0.0,0.0,0.0,0.000169,0.0,0.0,0.0,0.0025,2
1672947566515514830,108599,1672947566515276710,gps,2,1,42.2999072109,-83.6985081176,269.845275879,0.000144,0.0,0.0,0.0,0.000169,0.0,0.0,0.0,0.0025,2
1672947566525643242,108600,1672947566525390595,gps,2,1,42.2999074229,-83.6985081796,269.845947266,0.000144,0.0,0.0,0.0,0.000169,0.0,0.0,0.0,0.0025,2
1672947566535511927,108601,1672947566535275878,gps,2,1,42.2999076369,-83.6985082428,269.846557617,0.000144,0.0,0.0,0.0,0.000169,0.0,0.0,0.0,0.0025,2
1672947566545504079,108602,1672947566545325374,gps,2,1,42.2999078549,-83.6985083068,269.847137451,0.000144,0.0,0.0,0.0,0.000169,0.0,0.0,0.0,0.0025,2
1672947566555537961,108603,1672947566555286514,gps,2,1,42.2999080703,-83.6985083706,269.847747803,0.000144,0.0,0.0,0.0,0.000169,0.0,0.0,0.0,0.0025,2
1672947566565380199,108604,1672947566565206130,gps,2,1,42.2999082861,-83.6985084386,269.848480225,0.000144,0.0,0.0,0.0,0.000169,0.0,0.0,0.0,0.0025,2
1672947566575416223,108605,1672947566575209557,gps,2,1,42.2999085072,-83.6985085045,269.849060059,0.000144,0.0,0.0,0.0,0.000169,0.0,0.0,0.0,0.0025,2
1672947566585497819,108606,1672947566585275247,gps,2,1,42.2999087258,-83.6985085694,269.849639893,0.000144,0.0,0.0,0.0,0.000169,0.0,0.0,0.0,0.0025,2
1672947566595463456,108607,1672947566595254302,gps,2,1,42.2999089447,-83.6985086386,269.850372314,0.000144,0.0,0.0,0.0,0.000169,0.0,0.0,0.0,0.0025,2
1672947566605447813,108608,1672947566605230373,gps,2,1,42.2999091692,-83.698508706,269.850952148,0.000144,0.0,0.0,0.0,0.000169,0.0,0.0,0.0,0.0025,2
1672947566615475273,108609,1672947566615277958,gps,2,1,42.2999093909,-83.6985087714,269.851531982,0.000144,0.0,0.0,0.0,0.000169,0.0,0.0,0.0,0.0025,2
1672947566625434695,108610,1672947566625220471,gps,2,1,42.2999096131,-83.6985088421,269.852264404,0.000144,0.0,0.0,0.0,0.000169,0.0,0.0,0.0,0.0025,2
1672947566635515055,108611,1672947566635325118,gps,2,1,42.2999098405,-83.6985089101,269.852905273,0.000144,0.0,0.0,0.0,0.000169,0.0,0.0,0.0,0.0025,2
1672947566645384670,108612,1672947566645210144,gps,2,1,42.2999100653,-83.6985089773,269.853485107,0.000144,0.0,0.0,0.0,0.000169,0.0,0.0,0.0,0.0025,2
1672947566655412267,108613,1672947566655199510,gps,2,1,42.2999102907,-83.6985090493,269.854248047,0.000144,0.0,0.0,0.0,0.000169,0.0,0.0,0.0,0.0025,2
1672947566665413208,108614,1672947566665202886,gps,2,1,42.2999105211,-83.6985091185,269.854888916,0.000144,0.0,0.0,0.0,0.000169,0.0,0.0,0.0,0.0025,2
1672947566675487584,108615,1672947566675279231,gps,2,1,42.2999107489,-83.6985091877,269.85546875,0.000144,0.0,0.0,0.0,0.000169,0.0,0.0,0.0,0.0025,2
1672947566685441944,108616,1672947566685228734,gps,2,1,42.2999109774,-83.6985092607,269.856231689,0.000144,0.0,0.0,0.0,0.000169,0.0,0.0,0.0,0.0025,2
1672947566695436053,108617,1672947566695220484,gps,2,1,42.2999112108,-83.6985093319,269.856872559,0.000144,0.0,0.0,0.0,0.000169,0.0,0.0,0.0,0.0025,2
1672947566705597058,108618,1672947566705344768,gps,2,1,42.2999114418,-83.6985094015,269.857513428,0.000144,0.0,0.0,0.0,0.000169,0.0,0.0,0.0,0.0025,2
1672947566715425841,108619,1672947566715237727,gps,2,1,42.2999116735,-83.6985094756,269.858276367,0.000144,0.0,0.0,0.0,0.000169,0.0,0.0,0.0,0.0025,2
1672947566725418514,108620,1672947566725215046,gps,2,1,42.29991191,-83.6985095474,269.858947754,0.000144,0.0,0.0,0.0,0.000169,0.0,0.0,0.0,0.0025,2
1672947566735516907,108621,1672947566735272304,gps,2,1,42.2999121439,-83.698509618,269.859588623,0.000144,0.0,0.0,0.0,0.000169,0.0,0.0,0.0,0.0025,2
1672947566745460360,108622,1672947566745213412,gps,2,1,42.2999123787,-83.698509693,269.86038208,0.000144,0.0,0.0,0.0,0.000169,0.0,0.0,0.0,0.0025,2
1672947566755566097,108623,1672947566755341698,gps,2,1,42.2999126182,-83.6985097654,269.861053467,0.000144,0.0,0.0,0.0,0.000169,0.0,0.0,0.0,0.0025,2
1672947566765509160,108624,1672947566765283035,gps,2,1,42.2999128553,-83.6985098377,269.861663818,0.000144,0.0,0.0,0.0,0.000169,0.0,0.0,0.0,0.0025,2
1672947566775523207,108625,1672947566775328339,gps,2,1,42.2999130932,-83.6985099134,269.862457275,0.000144,0.0,0.0,0.0,0.000169,0.0,0.0,0.0,0.0025,2
1672947566785404373,108626,1672947566785212028,gps,2,1,42.2999133357,-83.6985099872,269.86315918,0.000144,0.0,0.0,0.0,0.000169,0.0,0.0,0.0,0.0025,2
