%time,field.header.seq,field.header.stamp,field.header.frame_id,field.twist.twist.linear.x,field.twist.twist.linear.y,field.twist.twist.linear.z,field.twist.twist.angular.x,field.twist.twist.angular.y,field.twist.twist.angular.z,field.twist.covariance0,field.twist.covariance1,field.twist.covariance2,field.twist.covariance3,field.twist.covariance4,field.twist.covariance5,field.twist.covariance6,field.twist.covariance7,field.twist.covariance8,field.twist.covariance9,field.twist.covariance10,field.twist.covariance11,field.twist.covariance12,field.twist.covariance13,field.twist.covariance14,field.twist.covariance15,field.twist.covariance16,field.twist.covariance17,field.twist.covariance18,field.twist.covariance19,field.twist.covariance20,field.twist.covariance21,field.twist.covariance22,field.twist.covariance23,field.twist.covariance24,field.twist.covariance25,field.twist.covariance26,field.twist.covariance27,field.twist.covariance28,field.twist.covariance29,field.twist.covariance30,field.twist.covariance31,field.twist.covariance32,field.twist.covariance33,field.twist.covariance34,field.twist.covariance35
1672944875070498714,150777,1672944875097556878,enu,0.0059,0.0108,-0.0051,0.0,0.0,0.0,0.000225,0.0,0.0,0.0,0.0,0.0,0.0,0.000225,0.0,0.0,0.0,0.0,0.0,0.0,0.0001,0.0,0.0,0.0,0.0,0.0,0.0,0.0,0.0,0.0,0.0,0.0,0.0,0.0,0.0,0.0,0.0,0.0,0.0,0.0,0.0,0.0
1672944875090556902,150778,1672944875117551898,enu,0.0056,0.0109,-0.0052,0.0,0.0,0.0,0.000225,0.0,0.0,0.0,0.0,0.0,0.0,0.000225,0.0,0.0,0.0,0.0,0.0,0.0,0.0001,0.0,0.0,0.0,0.0,0.0,0.0,0.0,0.0,0.0,0.0,0.0,0.0,0.0,0.0,0.0,0.0,0.0,0.0,0.0,0.0,0.0
1672944875111064109,150779,1672944875137469196,enu,0.0053,0.011,-0.0053,0.0,0.0,0.0,0.000225,0.0,0.0,0.0,0.0,0.0,0.0,0.000225,0.0,0.0,0.0,0.0,0.0,0.0,0.0001,0.0,0.0,0.0,0.0,0.0,0.0,0.0,0.0,0.0,0.0,0.0,0.0,0.0,0.0,0.0,0.0,0.0,0.0,0.0,0.0,0.0
1672944875130872690,150780,1672944875157439895,enu,0.0049,0.0116,-0.0054,0.0,0.0,0.0,0.000225,0.0,0.0,0.0,0.0,0.0,0.0,0.000225,0.0,0.0,0.0,0.0,0.0,0.0,0.0001,0.0,0.0,0.0,0.0,0.0,0.0,0.0,0.0,0.0,0.0,0.0,0.0,0.0,0.0,0.0,0.0,0.0,0.0,0.0,0.0,0.0
1672944875150511440,150781,1672944875177467058,enu,0.0045,0.0127,-0.005,0.0,0.0,0.0,0.000225,0.0,0.0,0.0,0.0,0.0,0.0,0.000225,0.0,0.0,0.0,0.0,0.0,0.0,0.0001,0.0,0.0,0.0,0.0,0.0,0.0,0.0,0.0,0.0,0.0,0.0,0.0,0.0,0.0,0.0,0.0,0.0,0.0,0.0,0.0,0.0
1672944875170527735,150782,1672944875197456059,enu,0.0041,0.0133,-0.0047,0.0,0.0,0.0,0.000225,0.0,0.0,0.0,0.0,0.0,0.0,0.000225,0.0,0.0,0.0,0.0,0.0,0.0,0.0001,0.0,0.0,0.0,0.0,0.0,0.0,0.0,0.0,0.0,0.0,0.0,0.0,0.0,0.0,0.0,0.0,0.0,0.0,0.0,0.0,0.0
1672944875190799906,150783,1672944875217435046,enu,0.0036,0.0137,-0.0047,0.0,0.0,0.0,0.000225,0.0,0.0,0.0,0.0,0.0,0.0,0.000225,0.0,0.0,0.0,0.0,0.0,0.0,0.0001,0.0,0.0,0.0,0.0,0.0,0.0,0.0,0.0,0.0,0.0,0.0,0.0,0.0,0.0,0.0,0.0,0.0,0.0,0.0,0.0,0.0
1672944875210606251,150784,1672944875237418047,enu,0.0033,0.0141,-0.0047,0.0,0.0,0.0,0.000225,0.0,0.0,0.0,0.0,0.0,0.0,0.000225,0.0,0.0,0.0,0.0,0.0,0.0,0.0001,0.0,0.0,0.0,0.0,0.0,0.0,0.0,0.0,0.0,0.0,0.0,0.0,0.0,0.0,0.0,0.0,0.0,0.0,0.0,0.0,0.0
1672944875230572750,150785,1672944875257422393,enu,0.0036,0.0142,-0.0047,0.0,0.0,0.0,0.000225,0.0,0.0,0.0,0.0,0.0,0.0,0.000225,0.0,0.0,0.0,0.0,0.0,0.0,0.0001,0.0,0.0,0.0,0.0,0.0,0.0,0.0,0.0,0.0,0.0,0.0,0.0,0.0,0.0,0.0,0.0,0.0,0.0,0.0,0.0,0.0
1672944875250352166,150786,1672944875277351891,enu,0.0042,0.0142,-0.0049,0.0,0.0,0.0,0.000225,0.0,0.0,0.0,0.0,0.0,0.0,0.000225,0.0,0.0,0.0,0.0,0.0,0.0,0.0001,0.0,0.0,0.0,0.0,0.0,0.0,0.0,0.0,0.0,0.0,0.0,0.0,0.0,0.0,0.0,0.0,0.0,0.0,0.0,0.0,0.0
1672944875271226428,150787,1672944875297481420,enu,0.0061,0.0122,-0.0054,0.0,0.0,0.0,0.000225,0.0,0.0,0.0,0.0,0.0,0.0,0.000225,0.0,0.0,0.0,0.0,0.0,0.0,0.0001,0.0,0.0,0.0,0.0,0.0,0.0,0.0,0.0,0.0,0.0,0.0,0.0,0.0,0.0,0.0,0.0,0.0,0.0,0.0,0.0,0.0
1672944875290999280,150788,1672944875317544627,enu,0.0087,0.0095,-0.0061,0.0,0.0,0.0,0.000225,0.0,0.0,0.0,0.0,0.0,0.0,0.000225,0.0,0.0,0.0,0.0,0.0,0.0,0.0001,0.0,0.0,0.0,0.0,0.0,0.0,0.0,0.0,0.0,0.0,0.0,0.0,0.0,0.0,0.0,0.0,0.0,0.0,0.0,0.0,0.0
1672944875311250160,150789,1672944875337566879,enu,0.012,0.0058,-0.0071,0.0,0.0,0.0,0.000225,0.0,0.0,0.0,0.0,0.0,0.0,0.000225,0.0,0.0,0.0,0.0,0.0,0.0,0.0001,0.0,0.0,0.0,0.0,0.0,0.0,0.0,0.0,0.0,0.0,0.0,0.0,0.0,0.0,0.0,0.0,0.0,0.0,0.0,0.0,0.0
1672944875330847034,150790,1672944875357509574,enu,0.0152,0.0012,-0.0075,0.0,0.0,0.0,0.000225,0.0,0.0,0.0,0.0,0.0,0.0,0.000225,0.0,0.0,0.0,0.0,0.0,0.0,0.0001,0.0,0.0,0.0,0.0,0.0,0.0,0.0,0.0,0.0,0.0,0.0,0.0,0.0,0.0,0.0,0.0,0.0,0.0,0.0,0.0,0.0
1672944875350828513,150791,1672944875377462588,enu,0.0188,-0.0041,-0.0079,0.0,0.0,0.0,0.000225,0.0,0.0,0.0,0.0,0.0,0.0,0.000225,0.0,0.0,0.0,0.0,0.0,0.0,0.0001,0.0,0.0,0.0,0.0,0.0,0.0,0.0,0.0,0.0,0.0,0.0,0.0,0.0,0.0,0.0,0.0,0.0,0.0,0.0,0.0,0.0
1672944875370541908,150792,1672944875397451463,enu,0.0229,-0.01,-0.0082,0.0,0.0,0.0,0.000225,0.0,0.0,0.0,0.0,0.0,0.0,0.000225,0.0,0.0,0.0,0.0,0.0,0.0,0.0001,0.0,0.0,0.0,0.0,0.0,0.0,0.0,0.0,0.0,0.0,0.0,0.0,0.0,0.0,0.0,0.0,0.0,0.0,0.0,0.0,0.0
1672944875390529848,150793,1672944875417416002,enu,0.027,-0.0164,-0.0085,0.0,0.0,0.0,0.000225,0.0,0.0,0.0,0.0,0.0,0.0,0.000225,0.0,0.0,0.0,0.0,0.0,0.0,0.0001,0.0,0.0,0.0,0.0,0.0,0.0,0.0,0.0,0.0,0.0,0.0,0.0,0.0,0.0,0.0,0.0,0.0,0.0,0.0,0.0,0.0
1672944875410492079,150794,1672944875437350509,enu,0.0316,-0.0236,-0.0087,0.0,0.0,0.0,0.000225,0.0,0.0,0.0,0.0,0.0,0.0,0.000225,0.0,0.0,0.0,0.0,0.0,0.0,0.0001,0.0,0.0,0.0,0.0,0.0,0.0,0.0,0.0,0.0,0.0,0.0,0.0,0.0,0.0,0.0,0.0,0.0,0.0,0.0,0.0,0.0
1672944875430802302,150795,1672944875457544685,enu,0.0365,-0.0304,-0.0092,0.0,0.0,0.0,0.000225,0.0,0.0,0.0,0.0,0.0,0.0,0.000225,0.0,0.0,0.0,0.0,0.0,0.0,0.0001,0.0,0.0,0.0,0.0,0.0,0.0,0.0,0.0,0.0,0.0,0.0,0.0,0.0,0.0,0.0,0.0,0.0,0.0,0.0,0.0,0.0
1672944875450696523,150796,1672944875477448813,enu,0.0417,-0.0377,-0.0099,0.0,0.0,0.0,0.000225,0.0,0.0,0.0,0.0,0.0,0.0,0.000225,0.0,0.0,0.0,0.0,0.0,0.0,0.0001,0.0,0.0,0.0,0.0,0.0,0.0,0.0,0.0,0.0,0.0,0.0,0.0,0.0,0.0,0.0,0.0,0.0,0.0,0.0,0.0,0.0
1672944875470308354,150797,1672944875497395282,enu,0.0469,-0.0451,-0.0101,0.0,0.0,0.0,0.000225,0.0,0.0,0.0,0.0,0.0,0.0,0.000225,0.0,0.0,0.0,0.0,0.0,0.0,0.0001,0.0,0.0,0.0,0.0,0.0,0.0,0.0,0.0,0.0,0.0,0.0,0.0,0.0,0.0,0.0,0.0,0.0,0.0,0.0,0.0,0.0
1672944875490738212,150798,1672944875517386844,enu,0.0523,-0.0521,-0.0103,0.0,0.0,0.0,0.000225,0.0,0.0,0.0,0.0,0.0,0.0,0.000225,0.0,0.0,0.0,0.0,0.0,0.0,0.0001,0.0,0.0,0.0,0.0,0.0,0.0,0.0,0.0,0.0,0.0,0.0,0.0,0.0,0.0,0.0,0.0,0.0,0.0,0.0,0.0,0.0
1672944875510571142,150799,1672944875537372217,enu,0.0581,-0.0597,-0.0104,0.0,0.0,0.0,0.000225,0.0,0.0,0.0,0.0,0.0,0.0,0.000225,0.0,0.0,0.0,0.0,0.0,0.0,0.0001,0.0,0.0,0.0,0.0,0.0,0.0,0.0,0.0,0.0,0.0,0.0,0.0,0.0,0.0,0.0,0.0,0.0,0.0,0.0,0.0,0.0
1672944875530688638,150800,1672944875557621356,enu,0.0639,-0.0679,-0.0104,0.0,0.0,0.0,0.000225,0.0,0.0,0.0,0.0,0.0,0.0,0.000225,0.0,0.0,0.0,0.0,0.0,0.0,0.0001,0.0,0.0,0.0,0.0,0.0,0.0,0.0,0.0,0.0,0.0,0.0,0.0,0.0,0.0,0.0,0.0,0.0,0.0,0.0,0.0,0.0
1672944875550577662,150801,1672944875577609000,enu,0.07,-0.0765,-0.0103,0.0,0.0,0.0,0.000225,0.0,0.0,0.0,0.0,0.0,0.0,0.000225,0.0,0.0,0.0,0.0,0.0,0.0,0.0001,0.0,0.0,0.0,0.0,0.0,0.0,0.0,0.0,0.0,0.0,0.0,0.0,0.0,0.0,0.0,0.0,0.0,0.0,0.0,0.0,0.0
1672944875570579788,150802,1672944875597432731,enu,0.0773,-0.0865,-0.0106,0.0,0.0,0.0,0.000225,0.0,0.0,0.0,0.0,0.0,0.0,0.000225,0.0,0.0,0.0,0.0,0.0,0.0,0.0001,0.0,0.0,0.0,0.0,0.0,0.0,0.0,0.0,0.0,0.0,0.0,0.0,0.0,0.0,0.0,0.0,0.0,0.0,0.0,0.0,0.0
1672944875590877056,150803,1672944875617463893,enu,0.0838,-0.0961,-0.0108,0.0,0.0,0.0,0.000225,0.0,0.0,0.0,0.0,0.0,0.0,0.000225,0.0,0.0,0.0,0.0,0.0,0.0,0.0001,0.0,0.0,0.0,0.0,0.0,0.0,0.0,0.0,0.0,0.0,0.0,0.0,0.0,0.0,0.0,0.0,0.0,0.0,0.0,0.0,0.0
1672944875610806818,150804,1672944875637572332,enu,0.0911,-0.1062,-0.0109,0.0,0.0,0.0,0.000225,0.0,0.0,0.0,0.0,0.0,0.0,0.000225,0.0,0.0,0.0,0.0,0.0,0.0,0.0001,0.0,0.0,0.0,0.0,0.0,0.0,0.0,0.0,0.0,0.0,0.0,0.0,0.0,0.0,0.0,0.0,0.0,0.0,0.0,0.0,0.0
1672944875631003331,150805,1672944875657460922,enu,0.098,-0.116,-0.0107,0.0,0.0,0.0,0.000225,0.0,0.0,0.0,0.0,0.0,0.0,0.000225,0.0,0.0,0.0,0.0,0.0,0.0,0.0001,0.0,0.0,0.0,0.0,0.0,0.0,0.0,0.0,0.0,0.0,0.0,0.0,0.0,0.0,0.0,0.0,0.0,0.0,0.0,0.0,0.0
1672944875650634247,150806,1672944875677377391,enu,0.105,-0.1253,-0.0105,0.0,0.0,0.0,0.000225,0.0,0.0,0.0,0.0,0.0,0.0,0.000225,0.0,0.0,0.0,0.0,0.0,0.0,0.0001,0.0,0.0,0.0,0.0,0.0,0.0,0.0,0.0,0.0,0.0,0.0,0.0,0.0,0.0,0.0,0.0,0.0,0.0,0.0,0.0,0.0
1672944875670715217,150807,1672944875697470306,enu,0.1128,-0.1356,-0.0106,0.0,0.0,0.0,0.000225,0.0,0.0,0.0,0.0,0.0,0.0,0.000225,0.0,0.0,0.0,0.0,0.0,0.0,0.0001,0.0,0.0,0.0,0.0,0.0,0.0,0.0,0.0,0.0,0.0,0.0,0.0,0.0,0.0,0.0,0.0,0.0,0.0,0.0,0.0,0.0
1672944875690748652,150808,1672944875717464159,enu,0.1203,-0.1447,-0.0103,0.0,0.0,0.0,0.000225,0.0,0.0,0.0,0.0,0.0,0.0,0.000225,0.0,0.0,0.0,0.0,0.0,0.0,0.0001,0.0,0.0,0.0,0.0,0.0,0.0,0.0,0.0,0.0,0.0,0.0,0.0,0.0,0.0,0.0,0.0,0.0,0.0,0.0,0.0,0.0
1672944875710755079,150809,1672944875737387491,enu,0.1285,-0.1541,-0.0102,0.0,0.0,0.0,0.000225,0.0,0.0,0.0,0.0,0.0,0.0,0.000225,0.0,0.0,0.0,0.0,0.0,0.0,0.0001,0.0,0.0,0.0,0.0,0.0,0.0,0.0,0.0,0.0,0.0,0.0,0.0,0.0,0.0,0.0,0.0,0.0,0.0,0.0,0.0,0.0
1672944875730571975,150810,1672944875757463886,enu,0.1372,-0.1642,-0.0104,0.0,0.0,0.0,0.000225,0.0,0.0,0.0,0.0,0.0,0.0,0.000225,0.0,0.0,0.0,0.0,0.0,0.0,0.0001,0.0,0.0,0.0,0.0,0.0,0.0,0.0,0.0,0.0,0.0,0.0,0.0,0.0,0.0,0.0,0.0,0.0,0.0,0.0,0.0,0.0
1672944875750365282,150811,1672944875777459229,enu,0.1458,-0.1739,-0.0103,0.0,0.0,0.0,0.000225,0.0,0.0,0.0,0.0,0.0,0.0,0.000225,0.0,0.0,0.0,0.0,0.0,0.0,0.0001,0.0,0.0,0.0,0.0,0.0,0.0,0.0,0.0,0.0,0.0,0.0,0.0,0.0,0.0,0.0,0.0,0.0,0.0,0.0,0.0,0.0
1672944875770577512,150812,1672944875797401340,enu,0.1551,-0.185,-0.0108,0.0,0.0,0.0,0.000225,0.0,0.0,0.0,0.0,0.0,0.0,0.000225,0.0,0.0,0.0,0.0,0.0,0.0,0.0001,0.0,0.0,0.0,0.0,0.0,0.0,0.0,0.0,0.0,0.0,0.0,0.0,0.0,0.0,0.0,0.0,0.0,0.0,0.0,0.0,0.0
1672944875790658179,150813,1672944875817460568,enu,0.1637,-0.195,-0.0109,0.0,0.0,0.0,0.000196,0.0,0.0,0.0,0.0,0.0,0.0,0.000196,0.0,0.0,0.0,0.0,0.0,0.0,0.0001,0.0,0.0,0.0,0.0,0.0,0.0,0.0,0.0,0.0,0.0,0.0,0.0,0.0,0.0,0.0,0.0,0.0,0.0,0.0,0.0,0.0
1672944875810750240,150814,1672944875837449650,enu,0.1727,-0.2063,-0.0109,0.0,0.0,0.0,0.000196,0.0,0.0,0.0,0.0,0.0,0.0,0.000196,0.0,0.0,0.0,0.0,0.0,0.0,0.0001,0.0,0.0,0.0,0.0,0.0,0.0,0.0,0.0,0.0,0.0,0.0,0.0,0.0,0.0,0.0,0.0,0.0,0.0,0.0,0.0,0.0
1672944875830612372,150815,1672944875857347024,enu,0.1811,-0.2169,-0.011,0.0,0.0,0.0,0.000196,0.0,0.0,0.0,0.0,0.0,0.0,0.000196,0.0,0.0,0.0,0.0,0.0,0.0,0.0001,0.0,0.0,0.0,0.0,0.0,0.0,0.0,0.0,0.0,0.0,0.0,0.0,0.0,0.0,0.0,0.0,0.0,0.0,0.0,0.0,0.0
1672944875850704204,150816,1672944875877576072,enu,0.1898,-0.2277,-0.0111,0.0,0.0,0.0,0.000196,0.0,0.0,0.0,0.0,0.0,0.0,0.000196,0.0,0.0,0.0,0.0,0.0,0.0,0.0001,0.0,0.0,0.0,0.0,0.0,0.0,0.0,0.0,0.0,0.0,0.0,0.0,0.0,0.0,0.0,0.0,0.0,0.0,0.0,0.0,0.0
1672944875870453804,150817,1672944875897422123,enu,0.1982,-0.239,-0.0111,0.0,0.0,0.0,0.000196,0.0,0.0,0.0,0.0,0.0,0.0,0.000196,0.0,0.0,0.0,0.0,0.0,0.0,0.0001,0.0,0.0,0.0,0.0,0.0,0.0,0.0,0.0,0.0,0.0,0.0,0.0,0.0,0.0,0.0,0.0,0.0,0.0,0.0,0.0,0.0
1672944875890526348,150818,1672944875917411892,enu,0.2073,-0.2505,-0.0115,0.0,0.0,0.0,0.000196,0.0,0.0,0.0,0.0,0.0,0.0,0.000196,0.0,0.0,0.0,0.0,0.0,0.0,0.0001,0.0,0.0,0.0,0.0,0.0,0.0,0.0,0.0,0.0,0.0,0.0,0.0,0.0,0.0,0.0,0.0,0.0,0.0,0.0,0.0,0.0
1672944875910571542,150819,1672944875937419236,enu,0.2159,-0.2616,-0.0119,0.0,0.0,0.0,0.000196,0.0,0.0,0.0,0.0,0.0,0.0,0.000196,0.0,0.0,0.0,0.0,0.0,0.0,0.0001,0.0,0.0,0.0,0.0,0.0,0.0,0.0,0.0,0.0,0.0,0.0,0.0,0.0,0.0,0.0,0.0,0.0,0.0,0.0,0.0,0.0
1672944875930719464,150820,1672944875957439834,enu,0.2254,-0.2736,-0.0124,0.0,0.0,0.0,0.000196,0.0,0.0,0.0,0.0,0.0,0.0,0.000196,0.0,0.0,0.0,0.0,0.0,0.0,0.0001,0.0,0.0,0.0,0.0,0.0,0.0,0.0,0.0,0.0,0.0,0.0,0.0,0.0,0.0,0.0,0.0,0.0,0.0,0.0,0.0,0.0
1672944875950619683,150821,1672944875977397681,enu,0.235,-0.2857,-0.0131,0.0,0.0,0.0,0.000196,0.0,0.0,0.0,0.0,0.0,0.0,0.000196,0.0,0.0,0.0,0.0,0.0,0.0,0.0001,0.0,0.0,0.0,0.0,0.0,0.0,0.0,0.0,0.0,0.0,0.0,0.0,0.0,0.0,0.0,0.0,0.0,0.0,0.0,0.0,0.0
1672944875970608115,150822,1672944875997527421,enu,0.2448,-0.2979,-0.0136,0.0,0.0,0.0,0.000196,0.0,0.0,0.0,0.0,0.0,0.0,0.000196,0.0,0.0,0.0,0.0,0.0,0.0,0.0001,0.0,0.0,0.0,0.0,0.0,0.0,0.0,0.0,0.0,0.0,0.0,0.0,0.0,0.0,0.0,0.0,0.0,0.0,0.0,0.0,0.0
1672944875990582975,150823,1672944876017463672,enu,0.2551,-0.3107,-0.0141,0.0,0.0,0.0,0.000196,0.0,0.0,0.0,0.0,0.0,0.0,0.000196,0.0,0.0,0.0,0.0,0.0,0.0,0.0001,0.0,0.0,0.0,0.0,0.0,0.0,0.0,0.0,0.0,0.0,0.0,0.0,0.0,0.0,0.0,0.0,0.0,0.0,0.0,0.0,0.0
1672944876010732663,150824,1672944876037528560,enu,0.2656,-0.3235,-0.0145,0.0,0.0,0.0,0.000196,0.0,0.0,0.0,0.0,0.0,0.0,0.000196,0.0,0.0,0.0,0.0,0.0,0.0,0.0001,0.0,0.0,0.0,0.0,0.0,0.0,0.0,0.0,0.0,0.0,0.0,0.0,0.0,0.0,0.0,0.0,0.0,0.0,0.0,0.0,0.0
1672944876030886526,150825,1672944876057663297,enu,0.2766,-0.3364,-0.0149,0.0,0.0,0.0,0.000196,0.0,0.0,0.0,0.0,0.0,0.0,0.000196,0.0,0.0,0.0,0.0,0.0,0.0,0.0001,0.0,0.0,0.0,0.0,0.0,0.0,0.0,0.0,0.0,0.0,0.0,0.0,0.0,0.0,0.0,0.0,0.0,0.0,0.0,0.0,0.0
1672944876050600988,150826,1672944876077461439,enu,0.2881,-0.3501,-0.0153,0.0,0.0,0.0,0.000196,0.0,0.0,0.0,0.0,0.0,0.0,0.000196,0.0,0.0,0.0,0.0,0.0,0.0,0.0001,0.0,0.0,0.0,0.0,0.0,0.0,0.0,0.0,0.0,0.0,0.0,0.0,0.0,0.0,0.0,0.0,0.0,0.0,0.0,0.0,0.0
1672944876070973190,150827,1672944876097595443,enu,0.3002,-0.3641,-0.016,0.0,0.0,0.0,0.000196,0.0,0.0,0.0,0.0,0.0,0.0,0.000196,0.0,0.0,0.0,0.0,0.0,0.0,0.0001,0.0,0.0,0.0,0.0,0.0,0.0,0.0,0.0,0.0,0.0,0.0,0.0,0.0,0.0,0.0,0.0,0.0,0.0,0.0,0.0,0.0
1672944876090670100,150828,1672944876117555040,enu,0.3129,-0.3781,-0.0167,0.0,0.0,0.0,0.000196,0.0,0.0,0.0,0.0,0.0,0.0,0.000196,0.0,0.0,0.0,0.0,0.0,0.0,0.0001,0.0,0.0,0.0,0.0,0.0,0.0,0.0,0.0,0.0,0.0,0.0,0.0,0.0,0.0,0.0,0.0,0.0,0.0,0.0,0.0,0.0
1672944876110634454,150829,1672944876137427087,enu,0.326,-0.3925,-0.0174,0.0,0.0,0.0,0.000196,0.0,0.0,0.0,0.0,0.0,0.0,0.000196,0.0,0.0,0.0,0.0,0.0,0.0,0.0001,0.0,0.0,0.0,0.0,0.0,0.0,0.0,0.0,0.0,0.0,0.0,0.0,0.0,0.0,0.0,0.0,0.0,0.0,0.0,0.0,0.0
1672944876130625422,150830,1672944876157474709,enu,0.3397,-0.4072,-0.0179,0.0,0.0,0.0,0.000196,0.0,0.0,0.0,0.0,0.0,0.0,0.000196,0.0,0.0,0.0,0.0,0.0,0.0,0.0001,0.0,0.0,0.0,0.0,0.0,0.0,0.0,0.0,0.0,0.0,0.0,0.0,0.0,0.0,0.0,0.0,0.0,0.0,0.0,0.0,0.0
1672944876150593047,150831,1672944876177441533,enu,0.3538,-0.4217,-0.0184,0.0,0.0,0.0,0.000196,0.0,0.0,0.0,0.0,0.0,0.0,0.000196,0.0,0.0,0.0,0.0,0.0,0.0,0.0001,0.0,0.0,0.0,0.0,0.0,0.0,0.0,0.0,0.0,0.0,0.0,0.0,0.0,0.0,0.0,0.0,0.0,0.0,0.0,0.0,0.0
1672944876170635955,150832,1672944876197423252,enu,0.3684,-0.437,-0.0191,0.0,0.0,0.0,0.000196,0.0,0.0,0.0,0.0,0.0,0.0,0.000196,0.0,0.0,0.0,0.0,0.0,0.0,0.0001,0.0,0.0,0.0,0.0,0.0,0.0,0.0,0.0,0.0,0.0,0.0,0.0,0.0,0.0,0.0,0.0,0.0,0.0,0.0,0.0,0.0
1672944876190909802,150833,1672944876217455107,enu,0.3835,-0.4528,-0.0195,0.0,0.0,0.0,0.000196,0.0,0.0,0.0,0.0,0.0,0.0,0.000196,0.0,0.0,0.0,0.0,0.0,0.0,0.0001,0.0,0.0,0.0,0.0,0.0,0.0,0.0,0.0,0.0,0.0,0.0,0.0,0.0,0.0,0.0,0.0,0.0,0.0,0.0,0.0,0.0
1672944876210552142,150834,1672944876237427619,enu,0.3984,-0.468,-0.0199,0.0,0.0,0.0,0.000196,0.0,0.0,0.0,0.0,0.0,0.0,0.000196,0.0,0.0,0.0,0.0,0.0,0.0,0.0001,0.0,0.0,0.0,0.0,0.0,0.0,0.0,0.0,0.0,0.0,0.0,0.0,0.0,0.0,0.0,0.0,0.0,0.0,0.0,0.0,0.0
1672944876230667303,150835,1672944876257437084,enu,0.4134,-0.4836,-0.0204,0.0,0.0,0.0,0.000196,0.0,0.0,0.0,0.0,0.0,0.0,0.000196,0.0,0.0,0.0,0.0,0.0,0.0,0.0001,0.0,0.0,0.0,0.0,0.0,0.0,0.0,0.0,0.0,0.0,0.0,0.0,0.0,0.0,0.0,0.0,0.0,0.0,0.0,0.0,0.0
1672944876250570668,150836,1672944876277409178,enu,0.4291,-0.4997,-0.0206,0.0,0.0,0.0,0.000196,0.0,0.0,0.0,0.0,0.0,0.0,0.000196,0.0,0.0,0.0,0.0,0.0,0.0,0.0001,0.0,0.0,0.0,0.0,0.0,0.0,0.0,0.0,0.0,0.0,0.0,0.0,0.0,0.0,0.0,0.0,0.0,0.0,0.0,0.0,0.0
1672944876270578670,150837,1672944876297460195,enu,0.4452,-0.5158,-0.0209,0.0,0.0,0.0,0.000196,0.0,0.0,0.0,0.0,0.0,0.0,0.000196,0.0,0.0,0.0,0.0,0.0,0.0,0.0001,0.0,0.0,0.0,0.0,0.0,0.0,0.0,0.0,0.0,0.0,0.0,0.0,0.0,0.0,0.0,0.0,0.0,0.0,0.0,0.0,0.0
1672944876290588246,150838,1672944876317439924,enu,0.461,-0.5323,-0.0212,0.0,0.0,0.0,0.000196,0.0,0.0,0.0,0.0,0.0,0.0,0.000196,0.0,0.0,0.0,0.0,0.0,0.0,0.0001,0.0,0.0,0.0,0.0,0.0,0.0,0.0,0.0,0.0,0.0,0.0,0.0,0.0,0.0,0.0,0.0,0.0,0.0,0.0,0.0,0.0
1672944876310716396,150839,1672944876337517503,enu,0.4767,-0.548,-0.0213,0.0,0.0,0.0,0.000196,0.0,0.0,0.0,0.0,0.0,0.0,0.000196,0.0,0.0,0.0,0.0,0.0,0.0,0.0001,0.0,0.0,0.0,0.0,0.0,0.0,0.0,0.0,0.0,0.0,0.0,0.0,0.0,0.0,0.0,0.0,0.0,0.0,0.0,0.0,0.0
1672944876330638872,150840,1672944876357466935,enu,0.4928,-0.5645,-0.0215,0.0,0.0,0.0,0.000196,0.0,0.0,0.0,0.0,0.0,0.0,0.000196,0.0,0.0,0.0,0.0,0.0,0.0,0.0001,0.0,0.0,0.0,0.0,0.0,0.0,0.0,0.0,0.0,0.0,0.0,0.0,0.0,0.0,0.0,0.0,0.0,0.0,0.0,0.0,0.0
1672944876350671233,150841,1672944876377441421,enu,0.5086,-0.5804,-0.0214,0.0,0.0,0.0,0.000196,0.0,0.0,0.0,0.0,0.0,0.0,0.000196,0.0,0.0,0.0,0.0,0.0,0.0,0.0001,0.0,0.0,0.0,0.0,0.0,0.0,0.0,0.0,0.0,0.0,0.0,0.0,0.0,0.0,0.0,0.0,0.0,0.0,0.0,0.0,0.0
1672944876370540090,150842,1672944876397412191,enu,0.525,-0.5965,-0.0214,0.0,0.0,0.0,0.000196,0.0,0.0,0.0,0.0,0.0,0.0,0.000196,0.0,0.0,0.0,0.0,0.0,0.0,0.0001,0.0,0.0,0.0,0.0,0.0,0.0,0.0,0.0,0.0,0.0,0.0,0.0,0.0,0.0,0.0,0.0,0.0,0.0,0.0,0.0,0.0
1672944876390838504,150843,1672944876417540957,enu,0.5416,-0.612,-0.0215,0.0,0.0,0.0,0.000196,0.0,0.0,0.0,0.0,0.0,0.0,0.000196,0.0,0.0,0.0,0.0,0.0,0.0,0.0001,0.0,0.0,0.0,0.0,0.0,0.0,0.0,0.0,0.0,0.0,0.0,0.0,0.0,0.0,0.0,0.0,0.0,0.0,0.0,0.0,0.0
1672944876410659282,150844,1672944876437440982,enu,0.5583,-0.6276,-0.0219,0.0,0.0,0.0,0.000196,0.0,0.0,0.0,0.0,0.0,0.0,0.000196,0.0,0.0,0.0,0.0,0.0,0.0,0.0001,0.0,0.0,0.0,0.0,0.0,0.0,0.0,0.0,0.0,0.0,0.0,0.0,0.0,0.0,0.0,0.0,0.0,0.0,0.0,0.0,0.0
1672944876430486454,150845,1672944876457435098,enu,0.5756,-0.6428,-0.0223,0.0,0.0,0.0,0.000196,0.0,0.0,0.0,0.0,0.0,0.0,0.000196,0.0,0.0,0.0,0.0,0.0,0.0,0.0001,0.0,0.0,0.0,0.0,0.0,0.0,0.0,0.0,0.0,0.0,0.0,0.0,0.0,0.0,0.0,0.0,0.0,0.0,0.0,0.0,0.0
1672944876450814075,150846,1672944876477544786,enu,0.5929,-0.6576,-0.0227,0.0,0.0,0.0,0.000196,0.0,0.0,0.0,0.0,0.0,0.0,0.000196,0.0,0.0,0.0,0.0,0.0,0.0,0.0001,0.0,0.0,0.0,0.0,0.0,0.0,0.0,0.0,0.0,0.0,0.0,0.0,0.0,0.0,0.0,0.0,0.0,0.0,0.0,0.0,0.0
1672944876470535553,150847,1672944876497439175,enu,0.6106,-0.672,-0.0232,0.0,0.0,0.0,0.000196,0.0,0.0,0.0,0.0,0.0,0.0,0.000196,0.0,0.0,0.0,0.0,0.0,0.0,0.0001,0.0,0.0,0.0,0.0,0.0,0.0,0.0,0.0,0.0,0.0,0.0,0.0,0.0,0.0,0.0,0.0,0.0,0.0,0.0,0.0,0.0
1672944876490623050,150848,1672944876517466055,enu,0.629,-0.6872,-0.0239,0.0,0.0,0.0,0.000196,0.0,0.0,0.0,0.0,0.0,0.0,0.000196,0.0,0.0,0.0,0.0,0.0,0.0,0.0001,0.0,0.0,0.0,0.0,0.0,0.0,0.0,0.0,0.0,0.0,0.0,0.0,0.0,0.0,0.0,0.0,0.0,0.0,0.0,0.0,0.0
1672944876510717475,150849,1672944876537543890,enu,0.6479,-0.701,-0.0244,0.0,0.0,0.0,0.000196,0.0,0.0,0.0,0.0,0.0,0.0,0.000196,0.0,0.0,0.0,0.0,0.0,0.0,0.0001,0.0,0.0,0.0,0.0,0.0,0.0,0.0,0.0,0.0,0.0,0.0,0.0,0.0,0.0,0.0,0.0,0.0,0.0,0.0,0.0,0.0
1672944876530485284,150850,1672944876557568427,enu,0.6673,-0.7155,-0.0251,0.0,0.0,0.0,0.000196,0.0,0.0,0.0,0.0,0.0,0.0,0.000196,0.0,0.0,0.0,0.0,0.0,0.0,0.0001,0.0,0.0,0.0,0.0,0.0,0.0,0.0,0.0,0.0,0.0,0.0,0.0,0.0,0.0,0.0,0.0,0.0,0.0,0.0,0.0,0.0
1672944876550610616,150851,1672944876577451187,enu,0.687,-0.7286,-0.0252,0.0,0.0,0.0,0.000196,0.0,0.0,0.0,0.0,0.0,0.0,0.000196,0.0,0.0,0.0,0.0,0.0,0.0,0.0001,0.0,0.0,0.0,0.0,0.0,0.0,0.0,0.0,0.0,0.0,0.0,0.0,0.0,0.0,0.0,0.0,0.0,0.0,0.0,0.0,0.0
1672944876570489462,150852,1672944876597482660,enu,0.7077,-0.7424,-0.0259,0.0,0.0,0.0,0.000196,0.0,0.0,0.0,0.0,0.0,0.0,0.000196,0.0,0.0,0.0,0.0,0.0,0.0,0.0001,0.0,0.0,0.0,0.0,0.0,0.0,0.0,0.0,0.0,0.0,0.0,0.0,0.0,0.0,0.0,0.0,0.0,0.0,0.0,0.0,0.0
1672944876590987652,150853,1672944876617521136,enu,0.7284,-0.7556,-0.0256,0.0,0.0,0.0,0.000196,0.0,0.0,0.0,0.0,0.0,0.0,0.000196,0.0,0.0,0.0,0.0,0.0,0.0,0.0001,0.0,0.0,0.0,0.0,0.0,0.0,0.0,0.0,0.0,0.0,0.0,0.0,0.0,0.0,0.0,0.0,0.0,0.0,0.0,0.0,0.0
1672944876610864733,150854,1672944876637570430,enu,0.75,-0.7693,-0.0267,0.0,0.0,0.0,0.000196,0.0,0.0,0.0,0.0,0.0,0.0,0.000196,0.0,0.0,0.0,0.0,0.0,0.0,0.0001,0.0,0.0,0.0,0.0,0.0,0.0,0.0,0.0,0.0,0.0,0.0,0.0,0.0,0.0,0.0,0.0,0.0,0.0,0.0,0.0,0.0
1672944876630676771,150855,1672944876657521491,enu,0.7715,-0.7824,-0.0274,0.0,0.0,0.0,0.000196,0.0,0.0,0.0,0.0,0.0,0.0,0.000196,0.0,0.0,0.0,0.0,0.0,0.0,0.0001,0.0,0.0,0.0,0.0,0.0,0.0,0.0,0.0,0.0,0.0,0.0,0.0,0.0,0.0,0.0,0.0,0.0,0.0,0.0,0.0,0.0
1672944876650604691,150856,1672944876677438212,enu,0.7924,-0.7962,-0.0279,0.0,0.0,0.0,0.000196,0.0,0.0,0.0,0.0,0.0,0.0,0.000196,0.0,0.0,0.0,0.0,0.0,0.0,0.0001,0.0,0.0,0.0,0.0,0.0,0.0,0.0,0.0,0.0,0.0,0.0,0.0,0.0,0.0,0.0,0.0,0.0,0.0,0.0,0.0,0.0
1672944876670661832,150857,1672944876697468506,enu,0.8139,-0.8095,-0.0278,0.0,0.0,0.0,0.000196,0.0,0.0,0.0,0.0,0.0,0.0,0.000196,0.0,0.0,0.0,0.0,0.0,0.0,0.0001,0.0,0.0,0.0,0.0,0.0,0.0,0.0,0.0,0.0,0.0,0.0,0.0,0.0,0.0,0.0,0.0,0.0,0.0,0.0,0.0,0.0
1672944876690699262,150858,1672944876717461395,enu,0.8349,-0.8228,-0.0283,0.0,0.0,0.0,0.000196,0.0,0.0,0.0,0.0,0.0,0.0,0.000196,0.0,0.0,0.0,0.0,0.0,0.0,0.0001,0.0,0.0,0.0,0.0,0.0,0.0,0.0,0.0,0.0,0.0,0.0,0.0,0.0,0.0,0.0,0.0,0.0,0.0,0.0,0.0,0.0
1672944876710503928,150859,1672944876737430333,enu,0.8567,-0.8373,-0.0288,0.0,0.0,0.0,0.000196,0.0,0.0,0.0,0.0,0.0,0.0,0.000196,0.0,0.0,0.0,0.0,0.0,0.0,0.0001,0.0,0.0,0.0,0.0,0.0,0.0,0.0,0.0,0.0,0.0,0.0,0.0,0.0,0.0,0.0,0.0,0.0,0.0,0.0,0.0,0.0
1672944876730238197,150860,1672944876757461944,enu,0.8779,-0.8513,-0.0294,0.0,0.0,0.0,0.000196,0.0,0.0,0.0,0.0,0.0,0.0,0.000196,0.0,0.0,0.0,0.0,0.0,0.0,0.0001,0.0,0.0,0.0,0.0,0.0,0.0,0.0,0.0,0.0,0.0,0.0,0.0,0.0,0.0,0.0,0.0,0.0,0.0,0.0,0.0,0.0
1672944876750767165,150861,1672944876777536628,enu,0.8994,-0.865,-0.0301,0.0,0.0,0.0,0.000196,0.0,0.0,0.0,0.0,0.0,0.0,0.000196,0.0,0.0,0.0,0.0,0.0,0.0,0.0001,0.0,0.0,0.0,0.0,0.0,0.0,0.0,0.0,0.0,0.0,0.0,0.0,0.0,0.0,0.0,0.0,0.0,0.0,0.0,0.0,0.0
1672944876770316961,150862,1672944876797367393,enu,0.9203,-0.8788,-0.0306,0.0,0.0,0.0,0.000196,0.0,0.0,0.0,0.0,0.0,0.0,0.000196,0.0,0.0,0.0,0.0,0.0,0.0,0.0001,0.0,0.0,0.0,0.0,0.0,0.0,0.0,0.0,0.0,0.0,0.0,0.0,0.0,0.0,0.0,0.0,0.0,0.0,0.0,0.0,0.0
1672944876790325800,150863,1672944876817452654,enu,0.9421,-0.8927,-0.0307,0.0,0.0,0.0,0.000196,0.0,0.0,0.0,0.0,0.0,0.0,0.000196,0.0,0.0,0.0,0.0,0.0,0.0,0.0001,0.0,0.0,0.0,0.0,0.0,0.0,0.0,0.0,0.0,0.0,0.0,0.0,0.0,0.0,0.0,0.0,0.0,0.0,0.0,0.0,0.0
1672944876810700660,150864,1672944876837519990,enu,0.9638,-0.907,-0.0319,0.0,0.0,0.0,0.000196,0.0,0.0,0.0,0.0,0.0,0.0,0.000196,0.0,0.0,0.0,0.0,0.0,0.0,0.0001,0.0,0.0,0.0,0.0,0.0,0.0,0.0,0.0,0.0,0.0,0.0,0.0,0.0,0.0,0.0,0.0,0.0,0.0,0.0,0.0,0.0
1672944876830841627,150865,1672944876857441978,enu,0.9862,-0.9203,-0.0326,0.0,0.0,0.0,0.000196,0.0,0.0,0.0,0.0,0.0,0.0,0.000196,0.0,0.0,0.0,0.0,0.0,0.0,0.0001,0.0,0.0,0.0,0.0,0.0,0.0,0.0,0.0,0.0,0.0,0.0,0.0,0.0,0.0,0.0,0.0,0.0,0.0,0.0,0.0,0.0
1672944876850564949,150866,1672944876877414349,enu,1.0071,-0.9336,-0.0337,0.0,0.0,0.0,0.000196,0.0,0.0,0.0,0.0,0.0,0.0,0.000196,0.0,0.0,0.0,0.0,0.0,0.0,0.0001,0.0,0.0,0.0,0.0,0.0,0.0,0.0,0.0,0.0,0.0,0.0,0.0,0.0,0.0,0.0,0.0,0.0,0.0,0.0,0.0,0.0
1672944876870283731,150867,1672944876897528417,enu,1.0295,-0.9475,-0.0348,0.0,0.0,0.0,0.000196,0.0,0.0,0.0,0.0,0.0,0.0,0.000196,0.0,0.0,0.0,0.0,0.0,0.0,0.0001,0.0,0.0,0.0,0.0,0.0,0.0,0.0,0.0,0.0,0.0,0.0,0.0,0.0,0.0,0.0,0.0,0.0,0.0,0.0,0.0,0.0
1672944876890901116,150868,1672944876917576252,enu,1.0511,-0.9605,-0.0363,0.0,0.0,0.0,0.000196,0.0,0.0,0.0,0.0,0.0,0.0,0.000196,0.0,0.0,0.0,0.0,0.0,0.0,0.0001,0.0,0.0,0.0,0.0,0.0,0.0,0.0,0.0,0.0,0.0,0.0,0.0,0.0,0.0,0.0,0.0,0.0,0.0,0.0,0.0,0.0
1672944876910635832,150869,1672944876937466654,enu,1.0736,-0.9737,-0.0382,0.0,0.0,0.0,0.000196,0.0,0.0,0.0,0.0,0.0,0.0,0.000196,0.0,0.0,0.0,0.0,0.0,0.0,0.0001,0.0,0.0,0.0,0.0,0.0,0.0,0.0,0.0,0.0,0.0,0.0,0.0,0.0,0.0,0.0,0.0,0.0,0.0,0.0,0.0,0.0
1672944876930616272,150870,1672944876957539054,enu,1.0963,-0.9863,-0.0396,0.0,0.0,0.0,0.000196,0.0,0.0,0.0,0.0,0.0,0.0,0.000196,0.0,0.0,0.0,0.0,0.0,0.0,0.0001,0.0,0.0,0.0,0.0,0.0,0.0,0.0,0.0,0.0,0.0,0.0,0.0,0.0,0.0,0.0,0.0,0.0,0.0,0.0,0.0,0.0
1672944876950569352,150871,1672944876977418293,enu,1.1195,-0.9982,-0.0409,0.0,0.0,0.0,0.000196,0.0,0.0,0.0,0.0,0.0,0.0,0.000196,0.0,0.0,0.0,0.0,0.0,0.0,0.0001,0.0,0.0,0.0,0.0,0.0,0.0,0.0,0.0,0.0,0.0,0.0,0.0,0.0,0.0,0.0,0.0,0.0,0.0,0.0,0.0,0.0
1672944876970578435,150872,1672944876997429398,enu,1.1429,-1.0091,-0.043,0.0,0.0,0.0,0.000196,0.0,0.0,0.0,0.0,0.0,0.0,0.000196,0.0,0.0,0.0,0.0,0.0,0.0,0.0001,0.0,0.0,0.0,0.0,0.0,0.0,0.0,0.0,0.0,0.0,0.0,0.0,0.0,0.0,0.0,0.0,0.0,0.0,0.0,0.0,0.0
1672944876990472246,150873,1672944877017481006,enu,1.1675,-1.0203,-0.0449,0.0,0.0,0.0,0.000196,0.0,0.0,0.0,0.0,0.0,0.0,0.000196,0.0,0.0,0.0,0.0,0.0,0.0,0.0001,0.0,0.0,0.0,0.0,0.0,0.0,0.0,0.0,0.0,0.0,0.0,0.0,0.0,0.0,0.0,0.0,0.0,0.0,0.0,0.0,0.0
1672944877010624799,150874,1672944877037478656,enu,1.1925,-1.0311,-0.0464,0.0,0.0,0.0,0.000196,0.0,0.0,0.0,0.0,0.0,0.0,0.000196,0.0,0.0,0.0,0.0,0.0,0.0,0.0001,0.0,0.0,0.0,0.0,0.0,0.0,0.0,0.0,0.0,0.0,0.0,0.0,0.0,0.0,0.0,0.0,0.0,0.0,0.0,0.0,0.0
1672944877030466172,150875,1672944877057650160,enu,1.2172,-1.0398,-0.0473,0.0,0.0,0.0,0.000196,0.0,0.0,0.0,0.0,0.0,0.0,0.000196,0.0,0.0,0.0,0.0,0.0,0.0,0.0001,0.0,0.0,0.0,0.0,0.0,0.0,0.0,0.0,0.0,0.0,0.0,0.0,0.0,0.0,0.0,0.0,0.0,0.0,0.0,0.0,0.0
1672944877050873732,150876,1672944877077653371,enu,1.2431,-1.0489,-0.0483,0.0,0.0,0.0,0.000196,0.0,0.0,0.0,0.0,0.0,0.0,0.000196,0.0,0.0,0.0,0.0,0.0,0.0,0.0001,0.0,0.0,0.0,0.0,0.0,0.0,0.0,0.0,0.0,0.0,0.0,0.0,0.0,0.0,0.0,0.0,0.0,0.0,0.0,0.0,0.0
1672944877070597364,150877,1672944877097518008,enu,1.27,-1.0572,-0.0489,0.0,0.0,0.0,0.000196,0.0,0.0,0.0,0.0,0.0,0.0,0.000196,0.0,0.0,0.0,0.0,0.0,0.0,0.0001,0.0,0.0,0.0,0.0,0.0,0.0,0.0,0.0,0.0,0.0,0.0,0.0,0.0,0.0,0.0,0.0,0.0,0.0,0.0,0.0,0.0
1672944877090601764,150878,1672944877117534606,enu,1.2976,-1.0656,-0.0497,0.0,0.0,0.0,0.000196,0.0,0.0,0.0,0.0,0.0,0.0,0.000196,0.0,0.0,0.0,0.0,0.0,0.0,0.0001,0.0,0.0,0.0,0.0,0.0,0.0,0.0,0.0,0.0,0.0,0.0,0.0,0.0,0.0,0.0,0.0,0.0,0.0,0.0,0.0,0.0
1672944877110601444,150879,1672944877137606333,enu,1.3244,-1.0726,-0.0507,0.0,0.0,0.0,0.000196,0.0,0.0,0.0,0.0,0.0,0.0,0.000196,0.0,0.0,0.0,0.0,0.0,0.0,0.0001,0.0,0.0,0.0,0.0,0.0,0.0,0.0,0.0,0.0,0.0,0.0,0.0,0.0,0.0,0.0,0.0,0.0,0.0,0.0,0.0,0.0
1672944877130617899,150880,1672944877157581194,enu,1.352,-1.0801,-0.0512,0.0,0.0,0.0,0.000196,0.0,0.0,0.0,0.0,0.0,0.0,0.000196,0.0,0.0,0.0,0.0,0.0,0.0,0.0001,0.0,0.0,0.0,0.0,0.0,0.0,0.0,0.0,0.0,0.0,0.0,0.0,0.0,0.0,0.0,0.0,0.0,0.0,0.0,0.0,0.0
1672944877150465039,150881,1672944877177474307,enu,1.3791,-1.0857,-0.0507,0.0,0.0,0.0,0.000196,0.0,0.0,0.0,0.0,0.0,0.0,0.000196,0.0,0.0,0.0,0.0,0.0,0.0,0.0001,0.0,0.0,0.0,0.0,0.0,0.0,0.0,0.0,0.0,0.0,0.0,0.0,0.0,0.0,0.0,0.0,0.0,0.0,0.0,0.0,0.0
1672944877170774838,150882,1672944877197579237,enu,1.4076,-1.093,-0.0508,0.0,0.0,0.0,0.000196,0.0,0.0,0.0,0.0,0.0,0.0,0.000196,0.0,0.0,0.0,0.0,0.0,0.0,0.0001,0.0,0.0,0.0,0.0,0.0,0.0,0.0,0.0,0.0,0.0,0.0,0.0,0.0,0.0,0.0,0.0,0.0,0.0,0.0,0.0,0.0
1672944877190799934,150883,1672944877217570484,enu,1.4354,-1.099,-0.0513,0.0,0.0,0.0,0.000196,0.0,0.0,0.0,0.0,0.0,0.0,0.000196,0.0,0.0,0.0,0.0,0.0,0.0,0.0001,0.0,0.0,0.0,0.0,0.0,0.0,0.0,0.0,0.0,0.0,0.0,0.0,0.0,0.0,0.0,0.0,0.0,0.0,0.0,0.0,0.0
1672944877210646307,150884,1672944877237443071,enu,1.4628,-1.1052,-0.0516,0.0,0.0,0.0,0.000196,0.0,0.0,0.0,0.0,0.0,0.0,0.000196,0.0,0.0,0.0,0.0,0.0,0.0,0.0001,0.0,0.0,0.0,0.0,0.0,0.0,0.0,0.0,0.0,0.0,0.0,0.0,0.0,0.0,0.0,0.0,0.0,0.0,0.0,0.0,0.0
1672944877230438298,150885,1672944877257526174,enu,1.4904,-1.1109,-0.0525,0.0,0.0,0.0,0.000196,0.0,0.0,0.0,0.0,0.0,0.0,0.000196,0.0,0.0,0.0,0.0,0.0,0.0,0.0001,0.0,0.0,0.0,0.0,0.0,0.0,0.0,0.0,0.0,0.0,0.0,0.0,0.0,0.0,0.0,0.0,0.0,0.0,0.0,0.0,0.0
1672944877250577716,150886,1672944877277441946,enu,1.5172,-1.1153,-0.0524,0.0,0.0,0.0,0.000196,0.0,0.0,0.0,0.0,0.0,0.0,0.000196,0.0,0.0,0.0,0.0,0.0,0.0,0.0001,0.0,0.0,0.0,0.0,0.0,0.0,0.0,0.0,0.0,0.0,0.0,0.0,0.0,0.0,0.0,0.0,0.0,0.0,0.0,0.0,0.0
1672944877270536285,150887,1672944877297424775,enu,1.546,-1.1198,-0.0523,0.0,0.0,0.0,0.000196,0.0,0.0,0.0,0.0,0.0,0.0,0.000196,0.0,0.0,0.0,0.0,0.0,0.0,0.0001,0.0,0.0,0.0,0.0,0.0,0.0,0.0,0.0,0.0,0.0,0.0,0.0,0.0,0.0,0.0,0.0,0.0,0.0,0.0,0.0,0.0
1672944877290539471,150888,1672944877317608244,enu,1.5733,-1.1239,-0.052,0.0,0.0,0.0,0.000196,0.0,0.0,0.0,0.0,0.0,0.0,0.000196,0.0,0.0,0.0,0.0,0.0,0.0,0.0001,0.0,0.0,0.0,0.0,0.0,0.0,0.0,0.0,0.0,0.0,0.0,0.0,0.0,0.0,0.0,0.0,0.0,0.0,0.0,0.0,0.0
1672944877310851289,150889,1672944877337439479,enu,1.6026,-1.1278,-0.0517,0.0,0.0,0.0,0.000196,0.0,0.0,0.0,0.0,0.0,0.0,0.000196,0.0,0.0,0.0,0.0,0.0,0.0,0.0001,0.0,0.0,0.0,0.0,0.0,0.0,0.0,0.0,0.0,0.0,0.0,0.0,0.0,0.0,0.0,0.0,0.0,0.0,0.0,0.0,0.0
1672944877330637303,150890,1672944877357439082,enu,1.6305,-1.1309,-0.0512,0.0,0.0,0.0,0.000196,0.0,0.0,0.0,0.0,0.0,0.0,0.000196,0.0,0.0,0.0,0.0,0.0,0.0,0.0001,0.0,0.0,0.0,0.0,0.0,0.0,0.0,0.0,0.0,0.0,0.0,0.0,0.0,0.0,0.0,0.0,0.0,0.0,0.0,0.0,0.0
1672944877350669677,150891,1672944877377581299,enu,1.6598,-1.1325,-0.0517,0.0,0.0,0.0,0.000196,0.0,0.0,0.0,0.0,0.0,0.0,0.000196,0.0,0.0,0.0,0.0,0.0,0.0,0.0001,0.0,0.0,0.0,0.0,0.0,0.0,0.0,0.0,0.0,0.0,0.0,0.0,0.0,0.0,0.0,0.0,0.0,0.0,0.0,0.0,0.0
1672944877370591008,150892,1672944877397386593,enu,1.6885,-1.1343,-0.0511,0.0,0.0,0.0,0.000196,0.0,0.0,0.0,0.0,0.0,0.0,0.000196,0.0,0.0,0.0,0.0,0.0,0.0,0.0001,0.0,0.0,0.0,0.0,0.0,0.0,0.0,0.0,0.0,0.0,0.0,0.0,0.0,0.0,0.0,0.0,0.0,0.0,0.0,0.0,0.0
1672944877390524001,150893,1672944877417434522,enu,1.7176,-1.1361,-0.0495,0.0,0.0,0.0,0.000196,0.0,0.0,0.0,0.0,0.0,0.0,0.000196,0.0,0.0,0.0,0.0,0.0,0.0,0.0001,0.0,0.0,0.0,0.0,0.0,0.0,0.0,0.0,0.0,0.0,0.0,0.0,0.0,0.0,0.0,0.0,0.0,0.0,0.0,0.0,0.0
1672944877410534287,150894,1672944877437526648,enu,1.7465,-1.1366,-0.0489,0.0,0.0,0.0,0.000196,0.0,0.0,0.0,0.0,0.0,0.0,0.000196,0.0,0.0,0.0,0.0,0.0,0.0,0.0001,0.0,0.0,0.0,0.0,0.0,0.0,0.0,0.0,0.0,0.0,0.0,0.0,0.0,0.0,0.0,0.0,0.0,0.0,0.0,0.0,0.0
1672944877430602859,150895,1672944877457428538,enu,1.7747,-1.1358,-0.0482,0.0,0.0,0.0,0.000196,0.0,0.0,0.0,0.0,0.0,0.0,0.000196,0.0,0.0,0.0,0.0,0.0,0.0,0.0001,0.0,0.0,0.0,0.0,0.0,0.0,0.0,0.0,0.0,0.0,0.0,0.0,0.0,0.0,0.0,0.0,0.0,0.0,0.0,0.0,0.0
1672944877450396039,150896,1672944877477440855,enu,1.8024,-1.1359,-0.0461,0.0,0.0,0.0,0.000196,0.0,0.0,0.0,0.0,0.0,0.0,0.000196,0.0,0.0,0.0,0.0,0.0,0.0,0.0001,0.0,0.0,0.0,0.0,0.0,0.0,0.0,0.0,0.0,0.0,0.0,0.0,0.0,0.0,0.0,0.0,0.0,0.0,0.0,0.0,0.0
1672944877470604146,150897,1672944877497521171,enu,1.8303,-1.1357,-0.0444,0.0,0.0,0.0,0.000196,0.0,0.0,0.0,0.0,0.0,0.0,0.000196,0.0,0.0,0.0,0.0,0.0,0.0,0.0001,0.0,0.0,0.0,0.0,0.0,0.0,0.0,0.0,0.0,0.0,0.0,0.0,0.0,0.0,0.0,0.0,0.0,0.0,0.0,0.0,0.0
1672944877490652438,150898,1672944877517447690,enu,1.8574,-1.1344,-0.0439,0.0,0.0,0.0,0.000196,0.0,0.0,0.0,0.0,0.0,0.0,0.000196,0.0,0.0,0.0,0.0,0.0,0.0,0.0001,0.0,0.0,0.0,0.0,0.0,0.0,0.0,0.0,0.0,0.0,0.0,0.0,0.0,0.0,0.0,0.0,0.0,0.0,0.0,0.0,0.0
1672944877510716629,150899,1672944877537530507,enu,1.8835,-1.1333,-0.0433,0.0,0.0,0.0,0.000196,0.0,0.0,0.0,0.0,0.0,0.0,0.000196,0.0,0.0,0.0,0.0,0.0,0.0,0.0001,0.0,0.0,0.0,0.0,0.0,0.0,0.0,0.0,0.0,0.0,0.0,0.0,0.0,0.0,0.0,0.0,0.0,0.0,0.0,0.0,0.0
1672944877530580579,150900,1672944877557659696,enu,1.9107,-1.1335,-0.0431,0.0,0.0,0.0,0.000196,0.0,0.0,0.0,0.0,0.0,0.0,0.000196,0.0,0.0,0.0,0.0,0.0,0.0,0.0001,0.0,0.0,0.0,0.0,0.0,0.0,0.0,0.0,0.0,0.0,0.0,0.0,0.0,0.0,0.0,0.0,0.0,0.0,0.0,0.0,0.0
1672944877550591563,150901,1672944877577577295,enu,1.9375,-1.1327,-0.043,0.0,0.0,0.0,0.000196,0.0,0.0,0.0,0.0,0.0,0.0,0.000196,0.0,0.0,0.0,0.0,0.0,0.0,0.0001,0.0,0.0,0.0,0.0,0.0,0.0,0.0,0.0,0.0,0.0,0.0,0.0,0.0,0.0,0.0,0.0,0.0,0.0,0.0,0.0,0.0
1672944877570588374,150902,1672944877597590226,enu,1.9659,-1.133,-0.0433,0.0,0.0,0.0,0.000196,0.0,0.0,0.0,0.0,0.0,0.0,0.000196,0.0,0.0,0.0,0.0,0.0,0.0,0.0001,0.0,0.0,0.0,0.0,0.0,0.0,0.0,0.0,0.0,0.0,0.0,0.0,0.0,0.0,0.0,0.0,0.0,0.0,0.0,0.0,0.0
1672944877590386039,150903,1672944877617532271,enu,1.993,-1.133,-0.0448,0.0,0.0,0.0,0.000196,0.0,0.0,0.0,0.0,0.0,0.0,0.000196,0.0,0.0,0.0,0.0,0.0,0.0,0.0001,0.0,0.0,0.0,0.0,0.0,0.0,0.0,0.0,0.0,0.0,0.0,0.0,0.0,0.0,0.0,0.0,0.0,0.0,0.0,0.0,0.0
1672944877610282443,150904,1672944877637453173,enu,2.0216,-1.1324,-0.0465,0.0,0.0,0.0,0.000196,0.0,0.0,0.0,0.0,0.0,0.0,0.000196,0.0,0.0,0.0,0.0,0.0,0.0,0.0001,0.0,0.0,0.0,0.0,0.0,0.0,0.0,0.0,0.0,0.0,0.0,0.0,0.0,0.0,0.0,0.0,0.0,0.0,0.0,0.0,0.0
1672944877630611817,150905,1672944877657458109,enu,2.05,-1.1313,-0.0481,0.0,0.0,0.0,0.000196,0.0,0.0,0.0,0.0,0.0,0.0,0.000196,0.0,0.0,0.0,0.0,0.0,0.0,0.0001,0.0,0.0,0.0,0.0,0.0,0.0,0.0,0.0,0.0,0.0,0.0,0.0,0.0,0.0,0.0,0.0,0.0,0.0,0.0,0.0,0.0
1672944877650538814,150906,1672944877677468022,enu,2.0771,-1.1285,-0.0505,0.0,0.0,0.0,0.000196,0.0,0.0,0.0,0.0,0.0,0.0,0.000196,0.0,0.0,0.0,0.0,0.0,0.0,0.0001,0.0,0.0,0.0,0.0,0.0,0.0,0.0,0.0,0.0,0.0,0.0,0.0,0.0,0.0,0.0,0.0,0.0,0.0,0.0,0.0,0.0
1672944877670655606,150907,1672944877697525245,enu,2.1063,-1.127,-0.0541,0.0,0.0,0.0,0.000196,0.0,0.0,0.0,0.0,0.0,0.0,0.000196,0.0,0.0,0.0,0.0,0.0,0.0,0.0001,0.0,0.0,0.0,0.0,0.0,0.0,0.0,0.0,0.0,0.0,0.0,0.0,0.0,0.0,0.0,0.0,0.0,0.0,0.0,0.0,0.0
1672944877690531491,150908,1672944877717448649,enu,2.1358,-1.1248,-0.0578,0.0,0.0,0.0,0.000196,0.0,0.0,0.0,0.0,0.0,0.0,0.000196,0.0,0.0,0.0,0.0,0.0,0.0,0.0001,0.0,0.0,0.0,0.0,0.0,0.0,0.0,0.0,0.0,0.0,0.0,0.0,0.0,0.0,0.0,0.0,0.0,0.0,0.0,0.0,0.0
1672944877710469183,150909,1672944877737532931,enu,2.1669,-1.1214,-0.0628,0.0,0.0,0.0,0.000196,0.0,0.0,0.0,0.0,0.0,0.0,0.000196,0.0,0.0,0.0,0.0,0.0,0.0,0.0001,0.0,0.0,0.0,0.0,0.0,0.0,0.0,0.0,0.0,0.0,0.0,0.0,0.0,0.0,0.0,0.0,0.0,0.0,0.0,0.0,0.0
1672944877730530270,150910,1672944877757440890,enu,2.1972,-1.1175,-0.0676,0.0,0.0,0.0,0.000196,0.0,0.0,0.0,0.0,0.0,0.0,0.000196,0.0,0.0,0.0,0.0,0.0,0.0,0.0001,0.0,0.0,0.0,0.0,0.0,0.0,0.0,0.0,0.0,0.0,0.0,0.0,0.0,0.0,0.0,0.0,0.0,0.0,0.0,0.0,0.0
1672944877750638102,150911,1672944877777447392,enu,2.2277,-1.1132,-0.0723,0.0,0.0,0.0,0.000196,0.0,0.0,0.0,0.0,0.0,0.0,0.000196,0.0,0.0,0.0,0.0,0.0,0.0,0.0001,0.0,0.0,0.0,0.0,0.0,0.0,0.0,0.0,0.0,0.0,0.0,0.0,0.0,0.0,0.0,0.0,0.0,0.0,0.0,0.0,0.0
1672944877770679497,150912,1672944877797448501,enu,2.2573,-1.1082,-0.0751,0.0,0.0,0.0,0.000196,0.0,0.0,0.0,0.0,0.0,0.0,0.000196,0.0,0.0,0.0,0.0,0.0,0.0,0.0001,0.0,0.0,0.0,0.0,0.0,0.0,0.0,0.0,0.0,0.0,0.0,0.0,0.0,0.0,0.0,0.0,0.0,0.0,0.0,0.0,0.0
1672944877790679239,150913,1672944877817440885,enu,2.288,-1.1036,-0.0771,0.0,0.0,0.0,0.000225,0.0,0.0,0.0,0.0,0.0,0.0,0.000225,0.0,0.0,0.0,0.0,0.0,0.0,0.0001,0.0,0.0,0.0,0.0,0.0,0.0,0.0,0.0,0.0,0.0,0.0,0.0,0.0,0.0,0.0,0.0,0.0,0.0,0.0,0.0,0.0
1672944877810657921,150914,1672944877837465781,enu,2.318,-1.0981,-0.078,0.0,0.0,0.0,0.000225,0.0,0.0,0.0,0.0,0.0,0.0,0.000225,0.0,0.0,0.0,0.0,0.0,0.0,0.0001,0.0,0.0,0.0,0.0,0.0,0.0,0.0,0.0,0.0,0.0,0.0,0.0,0.0,0.0,0.0,0.0,0.0,0.0,0.0,0.0,0.0
1672944877830636357,150915,1672944877857448484,enu,2.349,-1.0938,-0.0773,0.0,0.0,0.0,0.000225,0.0,0.0,0.0,0.0,0.0,0.0,0.000225,0.0,0.0,0.0,0.0,0.0,0.0,0.0001,0.0,0.0,0.0,0.0,0.0,0.0,0.0,0.0,0.0,0.0,0.0,0.0,0.0,0.0,0.0,0.0,0.0,0.0,0.0,0.0,0.0
1672944877850667276,150916,1672944877877439617,enu,2.3787,-1.0887,-0.0774,0.0,0.0,0.0,0.000225,0.0,0.0,0.0,0.0,0.0,0.0,0.000225,0.0,0.0,0.0,0.0,0.0,0.0,0.0001,0.0,0.0,0.0,0.0,0.0,0.0,0.0,0.0,0.0,0.0,0.0,0.0,0.0,0.0,0.0,0.0,0.0,0.0,0.0,0.0,0.0
1672944877870768034,150917,1672944877897449923,enu,2.4087,-1.0835,-0.0774,0.0,0.0,0.0,0.000225,0.0,0.0,0.0,0.0,0.0,0.0,0.000225,0.0,0.0,0.0,0.0,0.0,0.0,0.0001,0.0,0.0,0.0,0.0,0.0,0.0,0.0,0.0,0.0,0.0,0.0,0.0,0.0,0.0,0.0,0.0,0.0,0.0,0.0,0.0,0.0
1672944877890678389,150918,1672944877917427987,enu,2.4396,-1.0786,-0.0779,0.0,0.0,0.0,0.000225,0.0,0.0,0.0,0.0,0.0,0.0,0.000225,0.0,0.0,0.0,0.0,0.0,0.0,0.0001,0.0,0.0,0.0,0.0,0.0,0.0,0.0,0.0,0.0,0.0,0.0,0.0,0.0,0.0,0.0,0.0,0.0,0.0,0.0,0.0,0.0
1672944877910284569,150919,1672944877937434787,enu,2.4708,-1.0731,-0.0779,0.0,0.0,0.0,0.000225,0.0,0.0,0.0,0.0,0.0,0.0,0.000225,0.0,0.0,0.0,0.0,0.0,0.0,0.0001,0.0,0.0,0.0,0.0,0.0,0.0,0.0,0.0,0.0,0.0,0.0,0.0,0.0,0.0,0.0,0.0,0.0,0.0,0.0,0.0,0.0
1672944877930613440,150920,1672944877957407834,enu,2.5017,-1.0668,-0.0775,0.0,0.0,0.0,0.000225,0.0,0.0,0.0,0.0,0.0,0.0,0.000225,0.0,0.0,0.0,0.0,0.0,0.0,0.0001,0.0,0.0,0.0,0.0,0.0,0.0,0.0,0.0,0.0,0.0,0.0,0.0,0.0,0.0,0.0,0.0,0.0,0.0,0.0,0.0,0.0
1672944877950670509,150921,1672944877977430088,enu,2.5332,-1.0608,-0.0774,0.0,0.0,0.0,0.000225,0.0,0.0,0.0,0.0,0.0,0.0,0.000225,0.0,0.0,0.0,0.0,0.0,0.0,0.0001,0.0,0.0,0.0,0.0,0.0,0.0,0.0,0.0,0.0,0.0,0.0,0.0,0.0,0.0,0.0,0.0,0.0,0.0,0.0,0.0,0.0
1672944877970569506,150922,1672944877997452351,enu,2.5655,-1.0542,-0.0782,0.0,0.0,0.0,0.000225,0.0,0.0,0.0,0.0,0.0,0.0,0.000225,0.0,0.0,0.0,0.0,0.0,0.0,0.0001,0.0,0.0,0.0,0.0,0.0,0.0,0.0,0.0,0.0,0.0,0.0,0.0,0.0,0.0,0.0,0.0,0.0,0.0,0.0,0.0,0.0
1672944877990629089,150923,1672944878017475891,enu,2.5978,-1.0468,-0.0791,0.0,0.0,0.0,0.000225,0.0,0.0,0.0,0.0,0.0,0.0,0.000225,0.0,0.0,0.0,0.0,0.0,0.0,0.0001,0.0,0.0,0.0,0.0,0.0,0.0,0.0,0.0,0.0,0.0,0.0,0.0,0.0,0.0,0.0,0.0,0.0,0.0,0.0,0.0,0.0
1672944878010974408,150924,1672944878037609939,enu,2.6309,-1.04,-0.082,0.0,0.0,0.0,0.000225,0.0,0.0,0.0,0.0,0.0,0.0,0.000225,0.0,0.0,0.0,0.0,0.0,0.0,0.0001,0.0,0.0,0.0,0.0,0.0,0.0,0.0,0.0,0.0,0.0,0.0,0.0,0.0,0.0,0.0,0.0,0.0,0.0,0.0,0.0,0.0
1672944878030906158,150925,1672944878057631801,enu,2.6624,-1.0313,-0.0862,0.0,0.0,0.0,0.000225,0.0,0.0,0.0,0.0,0.0,0.0,0.000225,0.0,0.0,0.0,0.0,0.0,0.0,0.0001,0.0,0.0,0.0,0.0,0.0,0.0,0.0,0.0,0.0,0.0,0.0,0.0,0.0,0.0,0.0,0.0,0.0,0.0,0.0,0.0,0.0
1672944878050906442,150926,1672944878077538564,enu,2.695,-1.0219,-0.0902,0.0,0.0,0.0,0.000225,0.0,0.0,0.0,0.0,0.0,0.0,0.000225,0.0,0.0,0.0,0.0,0.0,0.0,0.0001,0.0,0.0,0.0,0.0,0.0,0.0,0.0,0.0,0.0,0.0,0.0,0.0,0.0,0.0,0.0,0.0,0.0,0.0,0.0,0.0,0.0
1672944878070727078,150927,1672944878097568239,enu,2.7281,-1.0117,-0.0943,0.0,0.0,0.0,0.000225,0.0,0.0,0.0,0.0,0.0,0.0,0.000225,0.0,0.0,0.0,0.0,0.0,0.0,0.0001,0.0,0.0,0.0,0.0,0.0,0.0,0.0,0.0,0.0,0.0,0.0,0.0,0.0,0.0,0.0,0.0,0.0,0.0,0.0,0.0,0.0
1672944878090806384,150928,1672944878117479065,enu,2.7603,-1.0009,-0.1001,0.0,0.0,0.0,0.000225,0.0,0.0,0.0,0.0,0.0,0.0,0.000225,0.0,0.0,0.0,0.0,0.0,0.0,0.0001,0.0,0.0,0.0,0.0,0.0,0.0,0.0,0.0,0.0,0.0,0.0,0.0,0.0,0.0,0.0,0.0,0.0,0.0,0.0,0.0,0.0
1672944878110629376,150929,1672944878137431485,enu,2.7926,-0.9904,-0.1038,0.0,0.0,0.0,0.000225,0.0,0.0,0.0,0.0,0.0,0.0,0.000225,0.0,0.0,0.0,0.0,0.0,0.0,0.0001,0.0,0.0,0.0,0.0,0.0,0.0,0.0,0.0,0.0,0.0,0.0,0.0,0.0,0.0,0.0,0.0,0.0,0.0,0.0,0.0,0.0
1672944878130434058,150930,1672944878157610532,enu,2.8254,-0.98,-0.1072,0.0,0.0,0.0,0.000225,0.0,0.0,0.0,0.0,0.0,0.0,0.000225,0.0,0.0,0.0,0.0,0.0,0.0,0.0001,0.0,0.0,0.0,0.0,0.0,0.0,0.0,0.0,0.0,0.0,0.0,0.0,0.0,0.0,0.0,0.0,0.0,0.0,0.0,0.0,0.0
1672944878150467202,150931,1672944878177452267,enu,2.8574,-0.9682,-0.1097,0.0,0.0,0.0,0.000225,0.0,0.0,0.0,0.0,0.0,0.0,0.000225,0.0,0.0,0.0,0.0,0.0,0.0,0.0001,0.0,0.0,0.0,0.0,0.0,0.0,0.0,0.0,0.0,0.0,0.0,0.0,0.0,0.0,0.0,0.0,0.0,0.0,0.0,0.0,0.0
1672944878170731144,150932,1672944878197475231,enu,2.8901,-0.9571,-0.1105,0.0,0.0,0.0,0.000225,0.0,0.0,0.0,0.0,0.0,0.0,0.000225,0.0,0.0,0.0,0.0,0.0,0.0,0.0001,0.0,0.0,0.0,0.0,0.0,0.0,0.0,0.0,0.0,0.0,0.0,0.0,0.0,0.0,0.0,0.0,0.0,0.0,0.0,0.0,0.0
1672944878190681626,150933,1672944878217513621,enu,2.9203,-0.945,-0.1097,0.0,0.0,0.0,0.000225,0.0,0.0,0.0,0.0,0.0,0.0,0.000225,0.0,0.0,0.0,0.0,0.0,0.0,0.0001,0.0,0.0,0.0,0.0,0.0,0.0,0.0,0.0,0.0,0.0,0.0,0.0,0.0,0.0,0.0,0.0,0.0,0.0,0.0,0.0,0.0
1672944878210613499,150934,1672944878237456007,enu,2.9506,-0.9332,-0.1079,0.0,0.0,0.0,0.000225,0.0,0.0,0.0,0.0,0.0,0.0,0.000225,0.0,0.0,0.0,0.0,0.0,0.0,0.0001,0.0,0.0,0.0,0.0,0.0,0.0,0.0,0.0,0.0,0.0,0.0,0.0,0.0,0.0,0.0,0.0,0.0,0.0,0.0,0.0,0.0
1672944878230584994,150935,1672944878257466818,enu,2.983,-0.9218,-0.1055,0.0,0.0,0.0,0.000225,0.0,0.0,0.0,0.0,0.0,0.0,0.000225,0.0,0.0,0.0,0.0,0.0,0.0,0.0001,0.0,0.0,0.0,0.0,0.0,0.0,0.0,0.0,0.0,0.0,0.0,0.0,0.0,0.0,0.0,0.0,0.0,0.0,0.0,0.0,0.0
1672944878250542193,150936,1672944878277531210,enu,3.013,-0.9122,-0.1015,0.0,0.0,0.0,0.000225,0.0,0.0,0.0,0.0,0.0,0.0,0.000225,0.0,0.0,0.0,0.0,0.0,0.0,0.0001,0.0,0.0,0.0,0.0,0.0,0.0,0.0,0.0,0.0,0.0,0.0,0.0,0.0,0.0,0.0,0.0,0.0,0.0,0.0,0.0,0.0
1672944878270533747,150937,1672944878297435884,enu,3.0445,-0.9016,-0.0989,0.0,0.0,0.0,0.000225,0.0,0.0,0.0,0.0,0.0,0.0,0.000225,0.0,0.0,0.0,0.0,0.0,0.0,0.0001,0.0,0.0,0.0,0.0,0.0,0.0,0.0,0.0,0.0,0.0,0.0,0.0,0.0,0.0,0.0,0.0,0.0,0.0,0.0,0.0,0.0
1672944878290460192,150938,1672944878317507008,enu,3.0743,-0.89,-0.0958,0.0,0.0,0.0,0.000225,0.0,0.0,0.0,0.0,0.0,0.0,0.000225,0.0,0.0,0.0,0.0,0.0,0.0,0.0001,0.0,0.0,0.0,0.0,0.0,0.0,0.0,0.0,0.0,0.0,0.0,0.0,0.0,0.0,0.0,0.0,0.0,0.0,0.0,0.0,0.0
1672944878310675423,150939,1672944878337521077,enu,3.1047,-0.8787,-0.0917,0.0,0.0,0.0,0.000225,0.0,0.0,0.0,0.0,0.0,0.0,0.000225,0.0,0.0,0.0,0.0,0.0,0.0,0.0001,0.0,0.0,0.0,0.0,0.0,0.0,0.0,0.0,0.0,0.0,0.0,0.0,0.0,0.0,0.0,0.0,0.0,0.0,0.0,0.0,0.0
1672944878330545302,150940,1672944878357428189,enu,3.1362,-0.8668,-0.0884,0.0,0.0,0.0,0.000225,0.0,0.0,0.0,0.0,0.0,0.0,0.000225,0.0,0.0,0.0,0.0,0.0,0.0,0.0001,0.0,0.0,0.0,0.0,0.0,0.0,0.0,0.0,0.0,0.0,0.0,0.0,0.0,0.0,0.0,0.0,0.0,0.0,0.0,0.0,0.0
1672944878350641670,150941,1672944878377425011,enu,3.1664,-0.8535,-0.0853,0.0,0.0,0.0,0.000225,0.0,0.0,0.0,0.0,0.0,0.0,0.000225,0.0,0.0,0.0,0.0,0.0,0.0,0.0001,0.0,0.0,0.0,0.0,0.0,0.0,0.0,0.0,0.0,0.0,0.0,0.0,0.0,0.0,0.0,0.0,0.0,0.0,0.0,0.0,0.0
1672944878370503334,150942,1672944878397452979,enu,3.1971,-0.8401,-0.0843,0.0,0.0,0.0,0.000225,0.0,0.0,0.0,0.0,0.0,0.0,0.000225,0.0,0.0,0.0,0.0,0.0,0.0,0.0001,0.0,0.0,0.0,0.0,0.0,0.0,0.0,0.0,0.0,0.0,0.0,0.0,0.0,0.0,0.0,0.0,0.0,0.0,0.0,0.0,0.0
1672944878390669662,150943,1672944878417518672,enu,3.2275,-0.8255,-0.0844,0.0,0.0,0.0,0.000225,0.0,0.0,0.0,0.0,0.0,0.0,0.000225,0.0,0.0,0.0,0.0,0.0,0.0,0.0001,0.0,0.0,0.0,0.0,0.0,0.0,0.0,0.0,0.0,0.0,0.0,0.0,0.0,0.0,0.0,0.0,0.0,0.0,0.0,0.0,0.0
1672944878410540271,150944,1672944878437470187,enu,3.2603,-0.809,-0.0818,0.0,0.0,0.0,0.000225,0.0,0.0,0.0,0.0,0.0,0.0,0.000225,0.0,0.0,0.0,0.0,0.0,0.0,0.0001,0.0,0.0,0.0,0.0,0.0,0.0,0.0,0.0,0.0,0.0,0.0,0.0,0.0,0.0,0.0,0.0,0.0,0.0,0.0,0.0,0.0
1672944878430755831,150945,1672944878457552761,enu,3.2886,-0.7919,-0.0803,0.0,0.0,0.0,0.000225,0.0,0.0,0.0,0.0,0.0,0.0,0.000225,0.0,0.0,0.0,0.0,0.0,0.0,0.0001,0.0,0.0,0.0,0.0,0.0,0.0,0.0,0.0,0.0,0.0,0.0,0.0,0.0,0.0,0.0,0.0,0.0,0.0,0.0,0.0,0.0
1672944878450509769,150946,1672944878477458940,enu,3.3184,-0.7765,-0.0774,0.0,0.0,0.0,0.000225,0.0,0.0,0.0,0.0,0.0,0.0,0.000225,0.0,0.0,0.0,0.0,0.0,0.0,0.0001,0.0,0.0,0.0,0.0,0.0,0.0,0.0,0.0,0.0,0.0,0.0,0.0,0.0,0.0,0.0,0.0,0.0,0.0,0.0,0.0,0.0
1672944878470585957,150947,1672944878497438584,enu,3.3466,-0.7645,-0.0758,0.0,0.0,0.0,0.000225,0.0,0.0,0.0,0.0,0.0,0.0,0.000225,0.0,0.0,0.0,0.0,0.0,0.0,0.0001,0.0,0.0,0.0,0.0,0.0,0.0,0.0,0.0,0.0,0.0,0.0,0.0,0.0,0.0,0.0,0.0,0.0,0.0,0.0,0.0,0.0
1672944878490805298,150948,1672944878517535104,enu,3.3731,-0.752,-0.0767,0.0,0.0,0.0,0.000225,0.0,0.0,0.0,0.0,0.0,0.0,0.000225,0.0,0.0,0.0,0.0,0.0,0.0,0.0001,0.0,0.0,0.0,0.0,0.0,0.0,0.0,0.0,0.0,0.0,0.0,0.0,0.0,0.0,0.0,0.0,0.0,0.0,0.0,0.0,0.0
1672944878510555156,150949,1672944878537547191,enu,3.4,-0.7492,-0.0766,0.0,0.0,0.0,0.000225,0.0,0.0,0.0,0.0,0.0,0.0,0.000225,0.0,0.0,0.0,0.0,0.0,0.0,0.0001,0.0,0.0,0.0,0.0,0.0,0.0,0.0,0.0,0.0,0.0,0.0,0.0,0.0,0.0,0.0,0.0,0.0,0.0,0.0,0.0,0.0
1672944878530614343,150950,1672944878557612215,enu,3.4246,-0.7365,-0.0759,0.0,0.0,0.0,0.000225,0.0,0.0,0.0,0.0,0.0,0.0,0.000225,0.0,0.0,0.0,0.0,0.0,0.0,0.0001,0.0,0.0,0.0,0.0,0.0,0.0,0.0,0.0,0.0,0.0,0.0,0.0,0.0,0.0,0.0,0.0,0.0,0.0,0.0,0.0,0.0
1672944878550760533,150951,1672944878577601493,enu,3.4416,-0.7272,-0.0664,0.0,0.0,0.0,0.000225,0.0,0.0,0.0,0.0,0.0,0.0,0.000225,0.0,0.0,0.0,0.0,0.0,0.0,0.0001,0.0,0.0,0.0,0.0,0.0,0.0,0.0,0.0,0.0,0.0,0.0,0.0,0.0,0.0,0.0,0.0,0.0,0.0,0.0,0.0,0.0
1672944878570472056,150952,1672944878597532049,enu,3.467,-0.7103,-0.056,0.0,0.0,0.0,0.000225,0.0,0.0,0.0,0.0,0.0,0.0,0.000225,0.0,0.0,0.0,0.0,0.0,0.0,0.0001,0.0,0.0,0.0,0.0,0.0,0.0,0.0,0.0,0.0,0.0,0.0,0.0,0.0,0.0,0.0,0.0,0.0,0.0,0.0,0.0,0.0
1672944878590225205,150953,1672944878617477935,enu,3.4912,-0.6914,-0.0484,0.0,0.0,0.0,0.000225,0.0,0.0,0.0,0.0,0.0,0.0,0.000225,0.0,0.0,0.0,0.0,0.0,0.0,0.0001,0.0,0.0,0.0,0.0,0.0,0.0,0.0,0.0,0.0,0.0,0.0,0.0,0.0,0.0,0.0,0.0,0.0,0.0,0.0,0.0,0.0
1672944878610748481,150954,1672944878637600425,enu,3.5082,-0.6745,-0.0434,0.0,0.0,0.0,0.000225,0.0,0.0,0.0,0.0,0.0,0.0,0.000225,0.0,0.0,0.0,0.0,0.0,0.0,0.0001,0.0,0.0,0.0,0.0,0.0,0.0,0.0,0.0,0.0,0.0,0.0,0.0,0.0,0.0,0.0,0.0,0.0,0.0,0.0,0.0,0.0
1672944878630841039,150955,1672944878657582307,enu,3.5322,-0.6516,-0.0382,0.0,0.0,0.0,0.000225,0.0,0.0,0.0,0.0,0.0,0.0,0.000225,0.0,0.0,0.0,0.0,0.0,0.0,0.0001,0.0,0.0,0.0,0.0,0.0,0.0,0.0,0.0,0.0,0.0,0.0,0.0,0.0,0.0,0.0,0.0,0.0,0.0,0.0,0.0,0.0
1672944878650691791,150956,1672944878677417889,enu,3.5532,-0.6284,-0.0321,0.0,0.0,0.0,0.000225,0.0,0.0,0.0,0.0,0.0,0.0,0.000225,0.0,0.0,0.0,0.0,0.0,0.0,0.0001,0.0,0.0,0.0,0.0,0.0,0.0,0.0,0.0,0.0,0.0,0.0,0.0,0.0,0.0,0.0,0.0,0.0,0.0,0.0,0.0,0.0
1672944878670721756,150957,1672944878697459026,enu,3.571,-0.6057,-0.0265,0.0,0.0,0.0,0.000225,0.0,0.0,0.0,0.0,0.0,0.0,0.000225,0.0,0.0,0.0,0.0,0.0,0.0,0.0001,0.0,0.0,0.0,0.0,0.0,0.0,0.0,0.0,0.0,0.0,0.0,0.0,0.0,0.0,0.0,0.0,0.0,0.0,0.0,0.0,0.0
1672944878690569559,150958,1672944878717544552,enu,3.5888,-0.5826,-0.023,0.0,0.0,0.0,0.000225,0.0,0.0,0.0,0.0,0.0,0.0,0.000225,0.0,0.0,0.0,0.0,0.0,0.0,0.0001,0.0,0.0,0.0,0.0,0.0,0.0,0.0,0.0,0.0,0.0,0.0,0.0,0.0,0.0,0.0,0.0,0.0,0.0,0.0,0.0,0.0
1672944878710485530,150959,1672944878737433657,enu,3.6092,-0.563,-0.0218,0.0,0.0,0.0,0.000225,0.0,0.0,0.0,0.0,0.0,0.0,0.000225,0.0,0.0,0.0,0.0,0.0,0.0,0.0001,0.0,0.0,0.0,0.0,0.0,0.0,0.0,0.0,0.0,0.0,0.0,0.0,0.0,0.0,0.0,0.0,0.0,0.0,0.0,0.0,0.0
1672944878730985333,150960,1672944878757557478,enu,3.6291,-0.547,-0.0192,0.0,0.0,0.0,0.000225,0.0,0.0,0.0,0.0,0.0,0.0,0.000225,0.0,0.0,0.0,0.0,0.0,0.0,0.0001,0.0,0.0,0.0,0.0,0.0,0.0,0.0,0.0,0.0,0.0,0.0,0.0,0.0,0.0,0.0,0.0,0.0,0.0,0.0,0.0,0.0
1672944878750635425,150961,1672944878777481335,enu,3.6473,-0.5309,-0.0187,0.0,0.0,0.0,0.000225,0.0,0.0,0.0,0.0,0.0,0.0,0.000225,0.0,0.0,0.0,0.0,0.0,0.0,0.0001,0.0,0.0,0.0,0.0,0.0,0.0,0.0,0.0,0.0,0.0,0.0,0.0,0.0,0.0,0.0,0.0,0.0,0.0,0.0,0.0,0.0
1672944878770574902,150962,1672944878797525900,enu,3.6657,-0.5195,-0.0218,0.0,0.0,0.0,0.000225,0.0,0.0,0.0,0.0,0.0,0.0,0.000225,0.0,0.0,0.0,0.0,0.0,0.0,0.0001,0.0,0.0,0.0,0.0,0.0,0.0,0.0,0.0,0.0,0.0,0.0,0.0,0.0,0.0,0.0,0.0,0.0,0.0,0.0,0.0,0.0
1672944878790804452,150963,1672944878817482189,enu,3.6834,-0.5075,-0.0263,0.0,0.0,0.0,0.000225,0.0,0.0,0.0,0.0,0.0,0.0,0.000225,0.0,0.0,0.0,0.0,0.0,0.0,0.0001,0.0,0.0,0.0,0.0,0.0,0.0,0.0,0.0,0.0,0.0,0.0,0.0,0.0,0.0,0.0,0.0,0.0,0.0,0.0,0.0,0.0
1672944878810730610,150964,1672944878837529854,enu,3.6999,-0.4954,-0.0311,0.0,0.0,0.0,0.000225,0.0,0.0,0.0,0.0,0.0,0.0,0.000225,0.0,0.0,0.0,0.0,0.0,0.0,0.0001,0.0,0.0,0.0,0.0,0.0,0.0,0.0,0.0,0.0,0.0,0.0,0.0,0.0,0.0,0.0,0.0,0.0,0.0,0.0,0.0,0.0
1672944878830579754,150965,1672944878857437131,enu,3.7177,-0.4854,-0.0355,0.0,0.0,0.0,0.000225,0.0,0.0,0.0,0.0,0.0,0.0,0.000225,0.0,0.0,0.0,0.0,0.0,0.0,0.0001,0.0,0.0,0.0,0.0,0.0,0.0,0.0,0.0,0.0,0.0,0.0,0.0,0.0,0.0,0.0,0.0,0.0,0.0,0.0,0.0,0.0
1672944878850549824,150966,1672944878877518903,enu,3.7348,-0.4754,-0.0409,0.0,0.0,0.0,0.000225,0.0,0.0,0.0,0.0,0.0,0.0,0.000225,0.0,0.0,0.0,0.0,0.0,0.0,0.0001,0.0,0.0,0.0,0.0,0.0,0.0,0.0,0.0,0.0,0.0,0.0,0.0,0.0,0.0,0.0,0.0,0.0,0.0,0.0,0.0,0.0
1672944878870786261,150967,1672944878897405226,enu,3.7518,-0.4662,-0.0467,0.0,0.0,0.0,0.000225,0.0,0.0,0.0,0.0,0.0,0.0,0.000225,0.0,0.0,0.0,0.0,0.0,0.0,0.0001,0.0,0.0,0.0,0.0,0.0,0.0,0.0,0.0,0.0,0.0,0.0,0.0,0.0,0.0,0.0,0.0,0.0,0.0,0.0,0.0,0.0
1672944878890647589,150968,1672944878917425497,enu,3.7667,-0.4581,-0.0512,0.0,0.0,0.0,0.000225,0.0,0.0,0.0,0.0,0.0,0.0,0.000225,0.0,0.0,0.0,0.0,0.0,0.0,0.0001,0.0,0.0,0.0,0.0,0.0,0.0,0.0,0.0,0.0,0.0,0.0,0.0,0.0,0.0,0.0,0.0,0.0,0.0,0.0,0.0,0.0
1672944878910492455,150969,1672944878937351212,enu,3.7823,-0.4486,-0.0588,0.0,0.0,0.0,0.000225,0.0,0.0,0.0,0.0,0.0,0.0,0.000225,0.0,0.0,0.0,0.0,0.0,0.0,0.0001,0.0,0.0,0.0,0.0,0.0,0.0,0.0,0.0,0.0,0.0,0.0,0.0,0.0,0.0,0.0,0.0,0.0,0.0,0.0,0.0,0.0
1672944878930706783,150970,1672944878957465981,enu,3.7977,-0.4397,-0.067,0.0,0.0,0.0,0.000225,0.0,0.0,0.0,0.0,0.0,0.0,0.000225,0.0,0.0,0.0,0.0,0.0,0.0,0.0001,0.0,0.0,0.0,0.0,0.0,0.0,0.0,0.0,0.0,0.0,0.0,0.0,0.0,0.0,0.0,0.0,0.0,0.0,0.0,0.0,0.0
1672944878950470223,150971,1672944878977398273,enu,3.8124,-0.4327,-0.0751,0.0,0.0,0.0,0.000225,0.0,0.0,0.0,0.0,0.0,0.0,0.000225,0.0,0.0,0.0,0.0,0.0,0.0,0.0001,0.0,0.0,0.0,0.0,0.0,0.0,0.0,0.0,0.0,0.0,0.0,0.0,0.0,0.0,0.0,0.0,0.0,0.0,0.0,0.0,0.0
1672944878970479254,150972,1672944878997546045,enu,3.8272,-0.4241,-0.0812,0.0,0.0,0.0,0.000225,0.0,0.0,0.0,0.0,0.0,0.0,0.000225,0.0,0.0,0.0,0.0,0.0,0.0,0.0001,0.0,0.0,0.0,0.0,0.0,0.0,0.0,0.0,0.0,0.0,0.0,0.0,0.0,0.0,0.0,0.0,0.0,0.0,0.0,0.0,0.0
1672944878990517585,150973,1672944879017468829,enu,3.8425,-0.4175,-0.0866,0.0,0.0,0.0,0.000225,0.0,0.0,0.0,0.0,0.0,0.0,0.000225,0.0,0.0,0.0,0.0,0.0,0.0,0.0001,0.0,0.0,0.0,0.0,0.0,0.0,0.0,0.0,0.0,0.0,0.0,0.0,0.0,0.0,0.0,0.0,0.0,0.0,0.0,0.0,0.0
1672944879010691567,150974,1672944879037531932,enu,3.8557,-0.4108,-0.0884,0.0,0.0,0.0,0.000225,0.0,0.0,0.0,0.0,0.0,0.0,0.000225,0.0,0.0,0.0,0.0,0.0,0.0,0.0001,0.0,0.0,0.0,0.0,0.0,0.0,0.0,0.0,0.0,0.0,0.0,0.0,0.0,0.0,0.0,0.0,0.0,0.0,0.0,0.0,0.0
1672944879030840449,150975,1672944879057678342,enu,3.8691,-0.4029,-0.0867,0.0,0.0,0.0,0.000225,0.0,0.0,0.0,0.0,0.0,0.0,0.000225,0.0,0.0,0.0,0.0,0.0,0.0,0.0001,0.0,0.0,0.0,0.0,0.0,0.0,0.0,0.0,0.0,0.0,0.0,0.0,0.0,0.0,0.0,0.0,0.0,0.0,0.0,0.0,0.0
1672944879050878460,150976,1672944879077525393,enu,3.8812,-0.3951,-0.0807,0.0,0.0,0.0,0.000225,0.0,0.0,0.0,0.0,0.0,0.0,0.000225,0.0,0.0,0.0,0.0,0.0,0.0,0.0001,0.0,0.0,0.0,0.0,0.0,0.0,0.0,0.0,0.0,0.0,0.0,0.0,0.0,0.0,0.0,0.0,0.0,0.0,0.0,0.0,0.0
1672944879070598694,150977,1672944879097535196,enu,3.8926,-0.3875,-0.0727,0.0,0.0,0.0,0.000225,0.0,0.0,0.0,0.0,0.0,0.0,0.000225,0.0,0.0,0.0,0.0,0.0,0.0,0.0001,0.0,0.0,0.0,0.0,0.0,0.0,0.0,0.0,0.0,0.0,0.0,0.0,0.0,0.0,0.0,0.0,0.0,0.0,0.0,0.0,0.0
1672944879090664151,150978,1672944879117506456,enu,3.9064,-0.3805,-0.0624,0.0,0.0,0.0,0.000225,0.0,0.0,0.0,0.0,0.0,0.0,0.000225,0.0,0.0,0.0,0.0,0.0,0.0,0.0001,0.0,0.0,0.0,0.0,0.0,0.0,0.0,0.0,0.0,0.0,0.0,0.0,0.0,0.0,0.0,0.0,0.0,0.0,0.0,0.0,0.0
1672944879110479486,150979,1672944879137469579,enu,3.9203,-0.3723,-0.0563,0.0,0.0,0.0,0.000225,0.0,0.0,0.0,0.0,0.0,0.0,0.000225,0.0,0.0,0.0,0.0,0.0,0.0,0.0001,0.0,0.0,0.0,0.0,0.0,0.0,0.0,0.0,0.0,0.0,0.0,0.0,0.0,0.0,0.0,0.0,0.0,0.0,0.0,0.0,0.0
1672944879130455226,150980,1672944879157455802,enu,3.9333,-0.3651,-0.0525,0.0,0.0,0.0,0.000225,0.0,0.0,0.0,0.0,0.0,0.0,0.000225,0.0,0.0,0.0,0.0,0.0,0.0,0.0001,0.0,0.0,0.0,0.0,0.0,0.0,0.0,0.0,0.0,0.0,0.0,0.0,0.0,0.0,0.0,0.0,0.0,0.0,0.0,0.0,0.0
1672944879150618263,150981,1672944879177424229,enu,3.9463,-0.3574,-0.05,0.0,0.0,0.0,0.000225,0.0,0.0,0.0,0.0,0.0,0.0,0.000225,0.0,0.0,0.0,0.0,0.0,0.0,0.0001,0.0,0.0,0.0,0.0,0.0,0.0,0.0,0.0,0.0,0.0,0.0,0.0,0.0,0.0,0.0,0.0,0.0,0.0,0.0,0.0,0.0
1672944879170548896,150982,1672944879197474917,enu,3.9582,-0.3507,-0.0493,0.0,0.0,0.0,0.000225,0.0,0.0,0.0,0.0,0.0,0.0,0.000225,0.0,0.0,0.0,0.0,0.0,0.0,0.0001,0.0,0.0,0.0,0.0,0.0,0.0,0.0,0.0,0.0,0.0,0.0,0.0,0.0,0.0,0.0,0.0,0.0,0.0,0.0,0.0,0.0
1672944879190450785,150983,1672944879217419896,enu,3.9718,-0.3443,-0.0516,0.0,0.0,0.0,0.000225,0.0,0.0,0.0,0.0,0.0,0.0,0.000225,0.0,0.0,0.0,0.0,0.0,0.0,0.0001,0.0,0.0,0.0,0.0,0.0,0.0,0.0,0.0,0.0,0.0,0.0,0.0,0.0,0.0,0.0,0.0,0.0,0.0,0.0,0.0,0.0
1672944879210598930,150984,1672944879237526628,enu,3.9869,-0.3385,-0.0563,0.0,0.0,0.0,0.000225,0.0,0.0,0.0,0.0,0.0,0.0,0.000225,0.0,0.0,0.0,0.0,0.0,0.0,0.0001,0.0,0.0,0.0,0.0,0.0,0.0,0.0,0.0,0.0,0.0,0.0,0.0,0.0,0.0,0.0,0.0,0.0,0.0,0.0,0.0,0.0
1672944879230637821,150985,1672944879257397218,enu,3.9957,-0.3344,-0.0559,0.0,0.0,0.0,0.000225,0.0,0.0,0.0,0.0,0.0,0.0,0.000225,0.0,0.0,0.0,0.0,0.0,0.0,0.0001,0.0,0.0,0.0,0.0,0.0,0.0,0.0,0.0,0.0,0.0,0.0,0.0,0.0,0.0,0.0,0.0,0.0,0.0,0.0,0.0,0.0
1672944879250521047,150986,1672944879277429821,enu,4.0028,-0.3299,-0.0407,0.0,0.0,0.0,0.000225,0.0,0.0,0.0,0.0,0.0,0.0,0.000225,0.0,0.0,0.0,0.0,0.0,0.0,0.0001,0.0,0.0,0.0,0.0,0.0,0.0,0.0,0.0,0.0,0.0,0.0,0.0,0.0,0.0,0.0,0.0,0.0,0.0,0.0,0.0,0.0
1672944879270584130,150987,1672944879297451469,enu,4.0083,-0.3204,-0.0245,0.0,0.0,0.0,0.000225,0.0,0.0,0.0,0.0,0.0,0.0,0.000225,0.0,0.0,0.0,0.0,0.0,0.0,0.0001,0.0,0.0,0.0,0.0,0.0,0.0,0.0,0.0,0.0,0.0,0.0,0.0,0.0,0.0,0.0,0.0,0.0,0.0,0.0,0.0,0.0
1672944879290432189,150988,1672944879317466029,enu,4.0219,-0.3126,-0.0048,0.0,0.0,0.0,0.000225,0.0,0.0,0.0,0.0,0.0,0.0,0.000225,0.0,0.0,0.0,0.0,0.0,0.0,0.0001,0.0,0.0,0.0,0.0,0.0,0.0,0.0,0.0,0.0,0.0,0.0,0.0,0.0,0.0,0.0,0.0,0.0,0.0,0.0,0.0,0.0
1672944879310573494,150989,1672944879337443852,enu,4.0408,-0.302,0.0067,0.0,0.0,0.0,0.000225,0.0,0.0,0.0,0.0,0.0,0.0,0.000225,0.0,0.0,0.0,0.0,0.0,0.0,0.0001,0.0,0.0,0.0,0.0,0.0,0.0,0.0,0.0,0.0,0.0,0.0,0.0,0.0,0.0,0.0,0.0,0.0,0.0,0.0,0.0,0.0
1672944879330531982,150990,1672944879357397194,enu,4.0495,-0.2902,0.0177,0.0,0.0,0.0,0.000225,0.0,0.0,0.0,0.0,0.0,0.0,0.000225,0.0,0.0,0.0,0.0,0.0,0.0,0.0001,0.0,0.0,0.0,0.0,0.0,0.0,0.0,0.0,0.0,0.0,0.0,0.0,0.0,0.0,0.0,0.0,0.0,0.0,0.0,0.0,0.0
1672944879350498018,150991,1672944879377386080,enu,4.055,-0.2812,0.0244,0.0,0.0,0.0,0.000225,0.0,0.0,0.0,0.0,0.0,0.0,0.000225,0.0,0.0,0.0,0.0,0.0,0.0,0.0001,0.0,0.0,0.0,0.0,0.0,0.0,0.0,0.0,0.0,0.0,0.0,0.0,0.0,0.0,0.0,0.0,0.0,0.0,0.0,0.0,0.0
1672944879370508845,150992,1672944879397442247,enu,4.0709,-0.271,0.0301,0.0,0.0,0.0,0.000225,0.0,0.0,0.0,0.0,0.0,0.0,0.000225,0.0,0.0,0.0,0.0,0.0,0.0,0.0001,0.0,0.0,0.0,0.0,0.0,0.0,0.0,0.0,0.0,0.0,0.0,0.0,0.0,0.0,0.0,0.0,0.0,0.0,0.0,0.0,0.0
1672944879390476912,150993,1672944879417531500,enu,4.0867,-0.2596,0.0332,0.0,0.0,0.0,0.000225,0.0,0.0,0.0,0.0,0.0,0.0,0.000225,0.0,0.0,0.0,0.0,0.0,0.0,0.0001,0.0,0.0,0.0,0.0,0.0,0.0,0.0,0.0,0.0,0.0,0.0,0.0,0.0,0.0,0.0,0.0,0.0,0.0,0.0,0.0,0.0
1672944879410427156,150994,1672944879437477136,enu,4.0984,-0.2494,0.034,0.0,0.0,0.0,0.000225,0.0,0.0,0.0,0.0,0.0,0.0,0.000225,0.0,0.0,0.0,0.0,0.0,0.0,0.0001,0.0,0.0,0.0,0.0,0.0,0.0,0.0,0.0,0.0,0.0,0.0,0.0,0.0,0.0,0.0,0.0,0.0,0.0,0.0,0.0,0.0
1672944879430244267,150995,1672944879457443721,enu,4.1093,-0.2417,0.0336,0.0,0.0,0.0,0.000225,0.0,0.0,0.0,0.0,0.0,0.0,0.000225,0.0,0.0,0.0,0.0,0.0,0.0,0.0001,0.0,0.0,0.0,0.0,0.0,0.0,0.0,0.0,0.0,0.0,0.0,0.0,0.0,0.0,0.0,0.0,0.0,0.0,0.0,0.0,0.0
1672944879450458100,150996,1672944879477524165,enu,4.1209,-0.2354,0.0313,0.0,0.0,0.0,0.000225,0.0,0.0,0.0,0.0,0.0,0.0,0.000225,0.0,0.0,0.0,0.0,0.0,0.0,0.0001,0.0,0.0,0.0,0.0,0.0,0.0,0.0,0.0,0.0,0.0,0.0,0.0,0.0,0.0,0.0,0.0,0.0,0.0,0.0,0.0,0.0
1672944879470655077,150997,1672944879497414121,enu,4.1326,-0.2298,0.0279,0.0,0.0,0.0,0.000225,0.0,0.0,0.0,0.0,0.0,0.0,0.000225,0.0,0.0,0.0,0.0,0.0,0.0,0.0001,0.0,0.0,0.0,0.0,0.0,0.0,0.0,0.0,0.0,0.0,0.0,0.0,0.0,0.0,0.0,0.0,0.0,0.0,0.0,0.0,0.0
1672944879490649037,150998,1672944879517527541,enu,4.147,-0.2256,0.0224,0.0,0.0,0.0,0.000225,0.0,0.0,0.0,0.0,0.0,0.0,0.000225,0.0,0.0,0.0,0.0,0.0,0.0,0.0001,0.0,0.0,0.0,0.0,0.0,0.0,0.0,0.0,0.0,0.0,0.0,0.0,0.0,0.0,0.0,0.0,0.0,0.0,0.0,0.0,0.0
1672944879510625526,150999,1672944879537564866,enu,4.1615,-0.2217,0.0161,0.0,0.0,0.0,0.000225,0.0,0.0,0.0,0.0,0.0,0.0,0.000225,0.0,0.0,0.0,0.0,0.0,0.0,0.0001,0.0,0.0,0.0,0.0,0.0,0.0,0.0,0.0,0.0,0.0,0.0,0.0,0.0,0.0,0.0,0.0,0.0,0.0,0.0,0.0,0.0
1672944879530738412,151000,1672944879557626606,enu,4.1729,-0.2186,0.0106,0.0,0.0,0.0,0.000225,0.0,0.0,0.0,0.0,0.0,0.0,0.000225,0.0,0.0,0.0,0.0,0.0,0.0,0.0001,0.0,0.0,0.0,0.0,0.0,0.0,0.0,0.0,0.0,0.0,0.0,0.0,0.0,0.0,0.0,0.0,0.0,0.0,0.0,0.0,0.0
1672944879550466339,151001,1672944879577547639,enu,4.184,-0.2158,0.0055,0.0,0.0,0.0,0.000225,0.0,0.0,0.0,0.0,0.0,0.0,0.000225,0.0,0.0,0.0,0.0,0.0,0.0,0.0001,0.0,0.0,0.0,0.0,0.0,0.0,0.0,0.0,0.0,0.0,0.0,0.0,0.0,0.0,0.0,0.0,0.0,0.0,0.0,0.0,0.0
1672944879570810437,151002,1672944879597569462,enu,4.1972,-0.2117,-0.0003,0.0,0.0,0.0,0.000225,0.0,0.0,0.0,0.0,0.0,0.0,0.000225,0.0,0.0,0.0,0.0,0.0,0.0,0.0001,0.0,0.0,0.0,0.0,0.0,0.0,0.0,0.0,0.0,0.0,0.0,0.0,0.0,0.0,0.0,0.0,0.0,0.0,0.0,0.0,0.0
1672944879591001734,151003,1672944879617603827,enu,4.2081,-0.2084,-0.0047,0.0,0.0,0.0,0.000225,0.0,0.0,0.0,0.0,0.0,0.0,0.000225,0.0,0.0,0.0,0.0,0.0,0.0,0.0001,0.0,0.0,0.0,0.0,0.0,0.0,0.0,0.0,0.0,0.0,0.0,0.0,0.0,0.0,0.0,0.0,0.0,0.0,0.0,0.0,0.0
1672944879610670309,151004,1672944879637446473,enu,4.2199,-0.2057,-0.0096,0.0,0.0,0.0,0.000225,0.0,0.0,0.0,0.0,0.0,0.0,0.000225,0.0,0.0,0.0,0.0,0.0,0.0,0.0001,0.0,0.0,0.0,0.0,0.0,0.0,0.0,0.0,0.0,0.0,0.0,0.0,0.0,0.0,0.0,0.0,0.0,0.0,0.0,0.0,0.0
1672944879630780574,151005,1672944879657512495,enu,4.2311,-0.2031,-0.0144,0.0,0.0,0.0,0.000225,0.0,0.0,0.0,0.0,0.0,0.0,0.000225,0.0,0.0,0.0,0.0,0.0,0.0,0.0001,0.0,0.0,0.0,0.0,0.0,0.0,0.0,0.0,0.0,0.0,0.0,0.0,0.0,0.0,0.0,0.0,0.0,0.0,0.0,0.0,0.0
1672944879650617378,151006,1672944879677394030,enu,4.241,-0.201,-0.019,0.0,0.0,0.0,0.000225,0.0,0.0,0.0,0.0,0.0,0.0,0.000225,0.0,0.0,0.0,0.0,0.0,0.0,0.0001,0.0,0.0,0.0,0.0,0.0,0.0,0.0,0.0,0.0,0.0,0.0,0.0,0.0,0.0,0.0,0.0,0.0,0.0,0.0,0.0,0.0
1672944879670607447,151007,1672944879697469102,enu,4.2508,-0.1988,-0.0229,0.0,0.0,0.0,0.000225,0.0,0.0,0.0,0.0,0.0,0.0,0.000225,0.0,0.0,0.0,0.0,0.0,0.0,0.0001,0.0,0.0,0.0,0.0,0.0,0.0,0.0,0.0,0.0,0.0,0.0,0.0,0.0,0.0,0.0,0.0,0.0,0.0,0.0,0.0,0.0
1672944879690502839,151008,1672944879717538541,enu,4.2607,-0.198,-0.0268,0.0,0.0,0.0,0.000225,0.0,0.0,0.0,0.0,0.0,0.0,0.000225,0.0,0.0,0.0,0.0,0.0,0.0,0.0001,0.0,0.0,0.0,0.0,0.0,0.0,0.0,0.0,0.0,0.0,0.0,0.0,0.0,0.0,0.0,0.0,0.0,0.0,0.0,0.0,0.0
1672944879710415311,151009,1672944879737445211,enu,4.2727,-0.197,-0.0283,0.0,0.0,0.0,0.000225,0.0,0.0,0.0,0.0,0.0,0.0,0.000225,0.0,0.0,0.0,0.0,0.0,0.0,0.0001,0.0,0.0,0.0,0.0,0.0,0.0,0.0,0.0,0.0,0.0,0.0,0.0,0.0,0.0,0.0,0.0,0.0,0.0,0.0,0.0,0.0
1672944879730752007,151010,1672944879757455856,enu,4.2827,-0.1943,-0.0244,0.0,0.0,0.0,0.000225,0.0,0.0,0.0,0.0,0.0,0.0,0.000225,0.0,0.0,0.0,0.0,0.0,0.0,0.0001,0.0,0.0,0.0,0.0,0.0,0.0,0.0,0.0,0.0,0.0,0.0,0.0,0.0,0.0,0.0,0.0,0.0,0.0,0.0,0.0,0.0
1672944879750552048,151011,1672944879777530260,enu,4.2913,-0.1921,-0.0178,0.0,0.0,0.0,0.000225,0.0,0.0,0.0,0.0,0.0,0.0,0.000225,0.0,0.0,0.0,0.0,0.0,0.0,0.0001,0.0,0.0,0.0,0.0,0.0,0.0,0.0,0.0,0.0,0.0,0.0,0.0,0.0,0.0,0.0,0.0,0.0,0.0,0.0,0.0,0.0
1672944879770245495,151012,1672944879797429848,enu,4.3036,-0.1901,-0.0114,0.0,0.0,0.0,0.000225,0.0,0.0,0.0,0.0,0.0,0.0,0.000225,0.0,0.0,0.0,0.0,0.0,0.0,0.0001,0.0,0.0,0.0,0.0,0.0,0.0,0.0,0.0,0.0,0.0,0.0,0.0,0.0,0.0,0.0,0.0,0.0,0.0,0.0,0.0,0.0
1672944879790634098,151013,1672944879817478915,enu,4.3145,-0.1874,-0.0057,0.0,0.0,0.0,0.000196,0.0,0.0,0.0,0.0,0.0,0.0,0.000225,0.0,0.0,0.0,0.0,0.0,0.0,0.0001,0.0,0.0,0.0,0.0,0.0,0.0,0.0,0.0,0.0,0.0,0.0,0.0,0.0,0.0,0.0,0.0,0.0,0.0,0.0,0.0,0.0
1672944879810575203,151014,1672944879837447822,enu,4.3269,-0.1835,-0.0016,0.0,0.0,0.0,0.000196,0.0,0.0,0.0,0.0,0.0,0.0,0.000225,0.0,0.0,0.0,0.0,0.0,0.0,0.0001,0.0,0.0,0.0,0.0,0.0,0.0,0.0,0.0,0.0,0.0,0.0,0.0,0.0,0.0,0.0,0.0,0.0,0.0,0.0,0.0,0.0
1672944879830683538,151015,1672944879857443187,enu,4.34,-0.1799,0.0016,0.0,0.0,0.0,0.000196,0.0,0.0,0.0,0.0,0.0,0.0,0.000225,0.0,0.0,0.0,0.0,0.0,0.0,0.0001,0.0,0.0,0.0,0.0,0.0,0.0,0.0,0.0,0.0,0.0,0.0,0.0,0.0,0.0,0.0,0.0,0.0,0.0,0.0,0.0,0.0
1672944879850352687,151016,1672944879877450072,enu,4.3519,-0.175,0.0025,0.0,0.0,0.0,0.000196,0.0,0.0,0.0,0.0,0.0,0.0,0.000225,0.0,0.0,0.0,0.0,0.0,0.0,0.0001,0.0,0.0,0.0,0.0,0.0,0.0,0.0,0.0,0.0,0.0,0.0,0.0,0.0,0.0,0.0,0.0,0.0,0.0,0.0,0.0,0.0
1672944879870618147,151017,1672944879897536349,enu,4.3634,-0.1715,0.0038,0.0,0.0,0.0,0.000196,0.0,0.0,0.0,0.0,0.0,0.0,0.000225,0.0,0.0,0.0,0.0,0.0,0.0,0.0001,0.0,0.0,0.0,0.0,0.0,0.0,0.0,0.0,0.0,0.0,0.0,0.0,0.0,0.0,0.0,0.0,0.0,0.0,0.0,0.0,0.0
1672944879890792993,151018,1672944879917463156,enu,4.3762,-0.1659,0.002,0.0,0.0,0.0,0.000196,0.0,0.0,0.0,0.0,0.0,0.0,0.000225,0.0,0.0,0.0,0.0,0.0,0.0,0.0001,0.0,0.0,0.0,0.0,0.0,0.0,0.0,0.0,0.0,0.0,0.0,0.0,0.0,0.0,0.0,0.0,0.0,0.0,0.0,0.0,0.0
