%time,field.header.seq,field.header.stamp,field.header.frame_id,field.twist.twist.linear.x,field.twist.twist.linear.y,field.twist.twist.linear.z,field.twist.twist.angular.x,field.twist.twist.angular.y,field.twist.twist.angular.z,field.twist.covariance0,field.twist.covariance1,field.twist.covariance2,field.twist.covariance3,field.twist.covariance4,field.twist.covariance5,field.twist.covariance6,field.twist.covariance7,field.twist.covariance8,field.twist.covariance9,field.twist.covariance10,field.twist.covariance11,field.twist.covariance12,field.twist.covariance13,field.twist.covariance14,field.twist.covariance15,field.twist.covariance16,field.twist.covariance17,field.twist.covariance18,field.twist.covariance19,field.twist.covariance20,field.twist.covariance21,field.twist.covariance22,field.twist.covariance23,field.twist.covariance24,field.twist.covariance25,field.twist.covariance26,field.twist.covariance27,field.twist.covariance28,field.twist.covariance29,field.twist.covariance30,field.twist.covariance31,field.twist.covariance32,field.twist.covariance33,field.twist.covariance34,field.twist.covariance35
1672947011675539063,53114,1672947011675286245,enu,0.0013,0.002,-0.002,0.0,0.0,0.0,0.0001,0.0,0.0,0.0,0.0,0.0,0.0,0.0001,0.0,0.0,0.0,0.0,0.0,0.0,8.1e-05,0.0,0.0,0.0,0.0,0.0,0.0,0.0,0.0,0.0,0.0,0.0,0.0,0.0,0.0,0.0,0.0,0.0,0.0,0.0,0.0,0.0
1672947011685511139,53115,1672947011685226770,enu,0.0011,0.002,-0.002,0.0,0.0,0.0,0.0001,0.0,0.0,0.0,0.0,0.0,0.0,0.0001,0.0,0.0,0.0,0.0,0.0,0.0,8.1e-05,0.0,0.0,0.0,0.0,0.0,0.0,0.0,0.0,0.0,0.0,0.0,0.0,0.0,0.0,0.0,0.0,0.0,0.0,0.0,0.0,0.0
1672947011695468065,53116,1672947011695217507,enu,0.001,0.002,-0.0021,0.0,0.0,0.0,0.0001,0.0,0.0,0.0,0.0,0.0,0.0,0.0001,0.0,0.0,0.0,0.0,0.0,0.0,8.1e-05,0.0,0.0,0.0,0.0,0.0,0.0,0.0,0.0,0.0,0.0,0.0,0.0,0.0,0.0,0.0,0.0,0.0,0.0,0.0,0.0,0.0
1672947011705516614,53117,1672947011705257198,enu,0.0006,0.002,-0.0021,0.0,0.0,0.0,0.0001,0.0,0.0,0.0,0.0,0.0,0.0,0.0001,0.0,0.0,0.0,0.0,0.0,0.0,8.1e-05,0.0,0.0,0.0,0.0,0.0,0.0,0.0,0.0,0.0,0.0,0.0,0.0,0.0,0.0,0.0,0.0,0.0,0.0,0.0,0.0,0.0
1672947011715458626,53118,1672947011715212324,enu,0.0002,0.002,-0.0021,0.0,0.0,0.0,0.0001,0.0,0.0,0.0,0.0,0.0,0.0,0.0001,0.0,0.0,0.0,0.0,0.0,0.0,8.1e-05,0.0,0.0,0.0,0.0,0.0,0.0,0.0,0.0,0.0,0.0,0.0,0.0,0.0,0.0,0.0,0.0,0.0,0.0,0.0,0.0,0.0
1672947011725469632,53119,1672947011725208061,enu,-0.0002,0.002,-0.0021,0.0,0.0,0.0,0.0001,0.0,0.0,0.0,0.0,0.0,0.0,0.0001,0.0,0.0,0.0,0.0,0.0,0.0,8.1e-05,0.0,0.0,0.0,0.0,0.0,0.0,0.0,0.0,0.0,0.0,0.0,0.0,0.0,0.0,0.0,0.0,0.0,0.0,0.0,0.0,0.0
1672947011735448715,53120,1672947011735203671,enu,-0.001,0.0019,-0.0023,0.0,0.0,0.0,0.0001,0.0,0.0,0.0,0.0,0.0,0.0,0.0001,0.0,0.0,0.0,0.0,0.0,0.0,8.1e-05,0.0,0.0,0.0,0.0,0.0,0.0,0.0,0.0,0.0,0.0,0.0,0.0,0.0,0.0,0.0,0.0,0.0,0.0,0.0,0.0,0.0
1672947011745549452,53121,1672947011745307842,enu,-0.0022,0.0018,-0.0025,0.0,0.0,0.0,0.0001,0.0,0.0,0.0,0.0,0.0,0.0,0.0001,0.0,0.0,0.0,0.0,0.0,0.0,8.1e-05,0.0,0.0,0.0,0.0,0.0,0.0,0.0,0.0,0.0,0.0,0.0,0.0,0.0,0.0,0.0,0.0,0.0,0.0,0.0,0.0,0.0
1672947011755486280,53122,1672947011755220574,enu,-0.0038,0.0019,-0.0028,0.0,0.0,0.0,0.0001,0.0,0.0,0.0,0.0,0.0,0.0,0.0001,0.0,0.0,0.0,0.0,0.0,0.0,8.1e-05,0.0,0.0,0.0,0.0,0.0,0.0,0.0,0.0,0.0,0.0,0.0,0.0,0.0,0.0,0.0,0.0,0.0,0.0,0.0,0.0,0.0
1672947011765584044,53123,1672947011765325382,enu,-0.0054,0.0017,-0.003,0.0,0.0,0.0,0.0001,0.0,0.0,0.0,0.0,0.0,0.0,0.0001,0.0,0.0,0.0,0.0,0.0,0.0,8.1e-05,0.0,0.0,0.0,0.0,0.0,0.0,0.0,0.0,0.0,0.0,0.0,0.0,0.0,0.0,0.0,0.0,0.0,0.0,0.0,0.0,0.0
1672947011775515291,53124,1672947011775264034,enu,-0.0073,0.0018,-0.0033,0.0,0.0,0.0,0.0001,0.0,0.0,0.0,0.0,0.0,0.0,0.0001,0.0,0.0,0.0,0.0,0.0,0.0,8.1e-05,0.0,0.0,0.0,0.0,0.0,0.0,0.0,0.0,0.0,0.0,0.0,0.0,0.0,0.0,0.0,0.0,0.0,0.0,0.0,0.0,0.0
1672947011785503999,53125,1672947011785228418,enu,-0.0096,0.0017,-0.0037,0.0,0.0,0.0,0.0001,0.0,0.0,0.0,0.0,0.0,0.0,0.0001,0.0,0.0,0.0,0.0,0.0,0.0,8.1e-05,0.0,0.0,0.0,0.0,0.0,0.0,0.0,0.0,0.0,0.0,0.0,0.0,0.0,0.0,0.0,0.0,0.0,0.0,0.0,0.0,0.0
1672947011795469155,53126,1672947011795214721,enu,-0.0121,0.0018,-0.004,0.0,0.0,0.0,0.0001,0.0,0.0,0.0,0.0,0.0,0.0,0.0001,0.0,0.0,0.0,0.0,0.0,0.0,8.1e-05,0.0,0.0,0.0,0.0,0.0,0.0,0.0,0.0,0.0,0.0,0.0,0.0,0.0,0.0,0.0,0.0,0.0,0.0,0.0,0.0,0.0
1672947011805551044,53127,1672947011805269560,enu,-0.0151,0.0019,-0.0041,0.0,0.0,0.0,0.0001,0.0,0.0,0.0,0.0,0.0,0.0,0.0001,0.0,0.0,0.0,0.0,0.0,0.0,8.1e-05,0.0,0.0,0.0,0.0,0.0,0.0,0.0,0.0,0.0,0.0,0.0,0.0,0.0,0.0,0.0,0.0,0.0,0.0,0.0,0.0,0.0
1672947011815582399,53128,1672947011815317060,enu,-0.0179,0.0019,-0.0042,0.0,0.0,0.0,0.0001,0.0,0.0,0.0,0.0,0.0,0.0,0.0001,0.0,0.0,0.0,0.0,0.0,0.0,8.1e-05,0.0,0.0,0.0,0.0,0.0,0.0,0.0,0.0,0.0,0.0,0.0,0.0,0.0,0.0,0.0,0.0,0.0,0.0,0.0,0.0,0.0
1672947011825523041,53129,1672947011825267788,enu,-0.0211,0.0019,-0.0045,0.0,0.0,0.0,0.0001,0.0,0.0,0.0,0.0,0.0,0.0,0.0001,0.0,0.0,0.0,0.0,0.0,0.0,8.1e-05,0.0,0.0,0.0,0.0,0.0,0.0,0.0,0.0,0.0,0.0,0.0,0.0,0.0,0.0,0.0,0.0,0.0,0.0,0.0,0.0,0.0
1672947011835467927,53130,1672947011835214604,enu,-0.0244,0.0018,-0.0046,0.0,0.0,0.0,0.0001,0.0,0.0,0.0,0.0,0.0,0.0,0.0001,0.0,0.0,0.0,0.0,0.0,0.0,8.1e-05,0.0,0.0,0.0,0.0,0.0,0.0,0.0,0.0,0.0,0.0,0.0,0.0,0.0,0.0,0.0,0.0,0.0,0.0,0.0,0.0,0.0
1672947011845483421,53131,1672947011845241411,enu,-0.0281,0.0019,-0.0047,0.0,0.0,0.0,0.0001,0.0,0.0,0.0,0.0,0.0,0.0,0.0001,0.0,0.0,0.0,0.0,0.0,0.0,8.1e-05,0.0,0.0,0.0,0.0,0.0,0.0,0.0,0.0,0.0,0.0,0.0,0.0,0.0,0.0,0.0,0.0,0.0,0.0,0.0,0.0,0.0
1672947011855501254,53132,1672947011855258868,enu,-0.0315,0.0018,-0.0046,0.0,0.0,0.0,0.0001,0.0,0.0,0.0,0.0,0.0,0.0,0.0001,0.0,0.0,0.0,0.0,0.0,0.0,8.1e-05,0.0,0.0,0.0,0.0,0.0,0.0,0.0,0.0,0.0,0.0,0.0,0.0,0.0,0.0,0.0,0.0,0.0,0.0,0.0,0.0,0.0
1672947011865419269,53133,1672947011865190765,enu,-0.0352,0.0017,-0.0046,0.0,0.0,0.0,0.0001,0.0,0.0,0.0,0.0,0.0,0.0,0.0001,0.0,0.0,0.0,0.0,0.0,0.0,8.1e-05,0.0,0.0,0.0,0.0,0.0,0.0,0.0,0.0,0.0,0.0,0.0,0.0,0.0,0.0,0.0,0.0,0.0,0.0,0.0,0.0,0.0
1672947011875427257,53134,1672947011875189633,enu,-0.0389,0.0016,-0.0047,0.0,0.0,0.0,0.0001,0.0,0.0,0.0,0.0,0.0,0.0,0.0001,0.0,0.0,0.0,0.0,0.0,0.0,8.1e-05,0.0,0.0,0.0,0.0,0.0,0.0,0.0,0.0,0.0,0.0,0.0,0.0,0.0,0.0,0.0,0.0,0.0,0.0,0.0,0.0,0.0
1672947011885524902,53135,1672947011885289363,enu,-0.0428,0.0016,-0.0049,0.0,0.0,0.0,0.0001,0.0,0.0,0.0,0.0,0.0,0.0,0.0001,0.0,0.0,0.0,0.0,0.0,0.0,8.1e-05,0.0,0.0,0.0,0.0,0.0,0.0,0.0,0.0,0.0,0.0,0.0,0.0,0.0,0.0,0.0,0.0,0.0,0.0,0.0,0.0,0.0
1672947011895423898,53136,1672947011895197649,enu,-0.0465,0.0015,-0.005,0.0,0.0,0.0,0.0001,0.0,0.0,0.0,0.0,0.0,0.0,0.0001,0.0,0.0,0.0,0.0,0.0,0.0,8.1e-05,0.0,0.0,0.0,0.0,0.0,0.0,0.0,0.0,0.0,0.0,0.0,0.0,0.0,0.0,0.0,0.0,0.0,0.0,0.0,0.0,0.0
1672947011905433826,53137,1672947011905197951,enu,-0.0501,0.0014,-0.0053,0.0,0.0,0.0,0.0001,0.0,0.0,0.0,0.0,0.0,0.0,0.0001,0.0,0.0,0.0,0.0,0.0,0.0,8.1e-05,0.0,0.0,0.0,0.0,0.0,0.0,0.0,0.0,0.0,0.0,0.0,0.0,0.0,0.0,0.0,0.0,0.0,0.0,0.0,0.0,0.0
1672947011915449608,53138,1672947011915205855,enu,-0.0538,0.0014,-0.0054,0.0,0.0,0.0,0.0001,0.0,0.0,0.0,0.0,0.0,0.0,0.0001,0.0,0.0,0.0,0.0,0.0,0.0,8.1e-05,0.0,0.0,0.0,0.0,0.0,0.0,0.0,0.0,0.0,0.0,0.0,0.0,0.0,0.0,0.0,0.0,0.0,0.0,0.0,0.0,0.0
1672947011925496257,53139,1672947011925269923,enu,-0.0579,0.0012,-0.006,0.0,0.0,0.0,0.0001,0.0,0.0,0.0,0.0,0.0,0.0,0.0001,0.0,0.0,0.0,0.0,0.0,0.0,8.1e-05,0.0,0.0,0.0,0.0,0.0,0.0,0.0,0.0,0.0,0.0,0.0,0.0,0.0,0.0,0.0,0.0,0.0,0.0,0.0,0.0,0.0
1672947011935422960,53140,1672947011935198984,enu,-0.062,0.0012,-0.0062,0.0,0.0,0.0,0.0001,0.0,0.0,0.0,0.0,0.0,0.0,0.0001,0.0,0.0,0.0,0.0,0.0,0.0,8.1e-05,0.0,0.0,0.0,0.0,0.0,0.0,0.0,0.0,0.0,0.0,0.0,0.0,0.0,0.0,0.0,0.0,0.0,0.0,0.0,0.0,0.0
1672947011945499372,53141,1672947011945261176,enu,-0.066,0.0013,-0.0065,0.0,0.0,0.0,0.0001,0.0,0.0,0.0,0.0,0.0,0.0,0.0001,0.0,0.0,0.0,0.0,0.0,0.0,8.1e-05,0.0,0.0,0.0,0.0,0.0,0.0,0.0,0.0,0.0,0.0,0.0,0.0,0.0,0.0,0.0,0.0,0.0,0.0,0.0,0.0,0.0
1672947011955428969,53142,1672947011955204505,enu,-0.0698,0.0013,-0.0066,0.0,0.0,0.0,0.0001,0.0,0.0,0.0,0.0,0.0,0.0,0.0001,0.0,0.0,0.0,0.0,0.0,0.0,8.1e-05,0.0,0.0,0.0,0.0,0.0,0.0,0.0,0.0,0.0,0.0,0.0,0.0,0.0,0.0,0.0,0.0,0.0,0.0,0.0,0.0,0.0
1672947011965403051,53143,1672947011965199916,enu,-0.0737,0.0013,-0.0068,0.0,0.0,0.0,0.0001,0.0,0.0,0.0,0.0,0.0,0.0,0.0001,0.0,0.0,0.0,0.0,0.0,0.0,8.1e-05,0.0,0.0,0.0,0.0,0.0,0.0,0.0,0.0,0.0,0.0,0.0,0.0,0.0,0.0,0.0,0.0,0.0,0.0,0.0,0.0,0.0
1672947011975416790,53144,1672947011975194923,enu,-0.0777,0.0015,-0.007,0.0,0.0,0.0,0.0001,0.0,0.0,0.0,0.0,0.0,0.0,0.0001,0.0,0.0,0.0,0.0,0.0,0.0,8.1e-05,0.0,0.0,0.0,0.0,0.0,0.0,0.0,0.0,0.0,0.0,0.0,0.0,0.0,0.0,0.0,0.0,0.0,0.0,0.0,0.0,0.0
1672947011985490330,53145,1672947011985254547,enu,-0.082,0.0016,-0.0071,0.0,0.0,0.0,0.0001,0.0,0.0,0.0,0.0,0.0,0.0,0.0001,0.0,0.0,0.0,0.0,0.0,0.0,8.1e-05,0.0,0.0,0.0,0.0,0.0,0.0,0.0,0.0,0.0,0.0,0.0,0.0,0.0,0.0,0.0,0.0,0.0,0.0,0.0,0.0,0.0
1672947011995415851,53146,1672947011995221111,enu,-0.086,0.0018,-0.0073,0.0,0.0,0.0,0.0001,0.0,0.0,0.0,0.0,0.0,0.0,0.0001,0.0,0.0,0.0,0.0,0.0,0.0,8.1e-05,0.0,0.0,0.0,0.0,0.0,0.0,0.0,0.0,0.0,0.0,0.0,0.0,0.0,0.0,0.0,0.0,0.0,0.0,0.0,0.0,0.0
1672947012005498012,53147,1672947012005263960,enu,-0.0901,0.0019,-0.0073,0.0,0.0,0.0,0.0001,0.0,0.0,0.0,0.0,0.0,0.0,0.0001,0.0,0.0,0.0,0.0,0.0,0.0,8.1e-05,0.0,0.0,0.0,0.0,0.0,0.0,0.0,0.0,0.0,0.0,0.0,0.0,0.0,0.0,0.0,0.0,0.0,0.0,0.0,0.0,0.0
1672947012015413958,53148,1672947012015187417,enu,-0.0943,0.0021,-0.0075,0.0,0.0,0.0,0.0001,0.0,0.0,0.0,0.0,0.0,0.0,0.0001,0.0,0.0,0.0,0.0,0.0,0.0,8.1e-05,0.0,0.0,0.0,0.0,0.0,0.0,0.0,0.0,0.0,0.0,0.0,0.0,0.0,0.0,0.0,0.0,0.0,0.0,0.0,0.0,0.0
1672947012025479385,53149,1672947012025263427,enu,-0.0984,0.0022,-0.0075,0.0,0.0,0.0,0.0001,0.0,0.0,0.0,0.0,0.0,0.0,0.0001,0.0,0.0,0.0,0.0,0.0,0.0,8.1e-05,0.0,0.0,0.0,0.0,0.0,0.0,0.0,0.0,0.0,0.0,0.0,0.0,0.0,0.0,0.0,0.0,0.0,0.0,0.0,0.0,0.0
1672947012035521002,53150,1672947012035285776,enu,-0.1028,0.0024,-0.0076,0.0,0.0,0.0,0.0001,0.0,0.0,0.0,0.0,0.0,0.0,0.0001,0.0,0.0,0.0,0.0,0.0,0.0,8.1e-05,0.0,0.0,0.0,0.0,0.0,0.0,0.0,0.0,0.0,0.0,0.0,0.0,0.0,0.0,0.0,0.0,0.0,0.0,0.0,0.0,0.0
1672947012045486961,53151,1672947012045278656,enu,-0.107,0.0026,-0.0075,0.0,0.0,0.0,0.0001,0.0,0.0,0.0,0.0,0.0,0.0,0.0001,0.0,0.0,0.0,0.0,0.0,0.0,8.1e-05,0.0,0.0,0.0,0.0,0.0,0.0,0.0,0.0,0.0,0.0,0.0,0.0,0.0,0.0,0.0,0.0,0.0,0.0,0.0,0.0,0.0
1672947012055499695,53152,1672947012055246272,enu,-0.1114,0.0027,-0.0076,0.0,0.0,0.0,0.0001,0.0,0.0,0.0,0.0,0.0,0.0,0.0001,0.0,0.0,0.0,0.0,0.0,0.0,8.1e-05,0.0,0.0,0.0,0.0,0.0,0.0,0.0,0.0,0.0,0.0,0.0,0.0,0.0,0.0,0.0,0.0,0.0,0.0,0.0,0.0,0.0
1672947012065714554,53153,1672947012065454424,enu,-0.1159,0.0029,-0.0076,0.0,0.0,0.0,0.0001,0.0,0.0,0.0,0.0,0.0,0.0,0.0001,0.0,0.0,0.0,0.0,0.0,0.0,8.1e-05,0.0,0.0,0.0,0.0,0.0,0.0,0.0,0.0,0.0,0.0,0.0,0.0,0.0,0.0,0.0,0.0,0.0,0.0,0.0,0.0,0.0
1672947012075497007,53154,1672947012075274078,enu,-0.1206,0.0031,-0.0076,0.0,0.0,0.0,0.0001,0.0,0.0,0.0,0.0,0.0,0.0,0.0001,0.0,0.0,0.0,0.0,0.0,0.0,8.1e-05,0.0,0.0,0.0,0.0,0.0,0.0,0.0,0.0,0.0,0.0,0.0,0.0,0.0,0.0,0.0,0.0,0.0,0.0,0.0,0.0,0.0
1672947012085478086,53155,1672947012085237053,enu,-0.1251,0.0032,-0.0075,0.0,0.0,0.0,0.0001,0.0,0.0,0.0,0.0,0.0,0.0,0.0001,0.0,0.0,0.0,0.0,0.0,0.0,8.1e-05,0.0,0.0,0.0,0.0,0.0,0.0,0.0,0.0,0.0,0.0,0.0,0.0,0.0,0.0,0.0,0.0,0.0,0.0,0.0,0.0,0.0
1672947012095472722,53156,1672947012095266548,enu,-0.1296,0.0033,-0.0077,0.0,0.0,0.0,0.0001,0.0,0.0,0.0,0.0,0.0,0.0,0.0001,0.0,0.0,0.0,0.0,0.0,0.0,8.1e-05,0.0,0.0,0.0,0.0,0.0,0.0,0.0,0.0,0.0,0.0,0.0,0.0,0.0,0.0,0.0,0.0,0.0,0.0,0.0,0.0,0.0
1672947012105479949,53157,1672947012105253494,enu,-0.1343,0.0034,-0.0077,0.0,0.0,0.0,0.0001,0.0,0.0,0.0,0.0,0.0,0.0,0.0001,0.0,0.0,0.0,0.0,0.0,0.0,8.1e-05,0.0,0.0,0.0,0.0,0.0,0.0,0.0,0.0,0.0,0.0,0.0,0.0,0.0,0.0,0.0,0.0,0.0,0.0,0.0,0.0,0.0
1672947012115434253,53158,1672947012115232632,enu,-0.139,0.0034,-0.0079,0.0,0.0,0.0,0.0001,0.0,0.0,0.0,0.0,0.0,0.0,0.0001,0.0,0.0,0.0,0.0,0.0,0.0,8.1e-05,0.0,0.0,0.0,0.0,0.0,0.0,0.0,0.0,0.0,0.0,0.0,0.0,0.0,0.0,0.0,0.0,0.0,0.0,0.0,0.0,0.0
1672947012125505886,53159,1672947012125281636,enu,-0.1438,0.0035,-0.0077,0.0,0.0,0.0,0.0001,0.0,0.0,0.0,0.0,0.0,0.0,0.0001,0.0,0.0,0.0,0.0,0.0,0.0,8.1e-05,0.0,0.0,0.0,0.0,0.0,0.0,0.0,0.0,0.0,0.0,0.0,0.0,0.0,0.0,0.0,0.0,0.0,0.0,0.0,0.0,0.0
1672947012135483032,53160,1672947012135254384,enu,-0.1486,0.0036,-0.0079,0.0,0.0,0.0,0.0001,0.0,0.0,0.0,0.0,0.0,0.0,0.0001,0.0,0.0,0.0,0.0,0.0,0.0,8.1e-05,0.0,0.0,0.0,0.0,0.0,0.0,0.0,0.0,0.0,0.0,0.0,0.0,0.0,0.0,0.0,0.0,0.0,0.0,0.0,0.0,0.0
1672947012145475883,53161,1672947012145261228,enu,-0.153,0.0035,-0.0076,0.0,0.0,0.0,0.0001,0.0,0.0,0.0,0.0,0.0,0.0,0.0001,0.0,0.0,0.0,0.0,0.0,0.0,8.1e-05,0.0,0.0,0.0,0.0,0.0,0.0,0.0,0.0,0.0,0.0,0.0,0.0,0.0,0.0,0.0,0.0,0.0,0.0,0.0,0.0,0.0
1672947012155483187,53162,1672947012155244271,enu,-0.1574,0.0034,-0.0077,0.0,0.0,0.0,0.0001,0.0,0.0,0.0,0.0,0.0,0.0,0.0001,0.0,0.0,0.0,0.0,0.0,0.0,8.1e-05,0.0,0.0,0.0,0.0,0.0,0.0,0.0,0.0,0.0,0.0,0.0,0.0,0.0,0.0,0.0,0.0,0.0,0.0,0.0,0.0,0.0
1672947012165488234,53163,1672947012165229226,enu,-0.1621,0.0034,-0.0076,0.0,0.0,0.0,0.0001,0.0,0.0,0.0,0.0,0.0,0.0,0.0001,0.0,0.0,0.0,0.0,0.0,0.0,8.1e-05,0.0,0.0,0.0,0.0,0.0,0.0,0.0,0.0,0.0,0.0,0.0,0.0,0.0,0.0,0.0,0.0,0.0,0.0,0.0,0.0,0.0
1672947012175449085,53164,1672947012175232261,enu,-0.167,0.0034,-0.0077,0.0,0.0,0.0,0.0001,0.0,0.0,0.0,0.0,0.0,0.0,0.0001,0.0,0.0,0.0,0.0,0.0,0.0,8.1e-05,0.0,0.0,0.0,0.0,0.0,0.0,0.0,0.0,0.0,0.0,0.0,0.0,0.0,0.0,0.0,0.0,0.0,0.0,0.0,0.0,0.0
1672947012185457385,53165,1672947012185232740,enu,-0.1721,0.0033,-0.0076,0.0,0.0,0.0,0.0001,0.0,0.0,0.0,0.0,0.0,0.0,0.0001,0.0,0.0,0.0,0.0,0.0,0.0,8.1e-05,0.0,0.0,0.0,0.0,0.0,0.0,0.0,0.0,0.0,0.0,0.0,0.0,0.0,0.0,0.0,0.0,0.0,0.0,0.0,0.0,0.0
1672947012195488793,53166,1672947012195259589,enu,-0.177,0.0033,-0.0078,0.0,0.0,0.0,0.0001,0.0,0.0,0.0,0.0,0.0,0.0,0.0001,0.0,0.0,0.0,0.0,0.0,0.0,8.1e-05,0.0,0.0,0.0,0.0,0.0,0.0,0.0,0.0,0.0,0.0,0.0,0.0,0.0,0.0,0.0,0.0,0.0,0.0,0.0,0.0,0.0
1672947012205467135,53167,1672947012205248456,enu,-0.1814,0.0031,-0.0075,0.0,0.0,0.0,0.0001,0.0,0.0,0.0,0.0,0.0,0.0,0.0001,0.0,0.0,0.0,0.0,0.0,0.0,8.1e-05,0.0,0.0,0.0,0.0,0.0,0.0,0.0,0.0,0.0,0.0,0.0,0.0,0.0,0.0,0.0,0.0,0.0,0.0,0.0,0.0,0.0
1672947012215474154,53168,1672947012215249620,enu,-0.1863,0.003,-0.0076,0.0,0.0,0.0,0.0001,0.0,0.0,0.0,0.0,0.0,0.0,0.0001,0.0,0.0,0.0,0.0,0.0,0.0,8.1e-05,0.0,0.0,0.0,0.0,0.0,0.0,0.0,0.0,0.0,0.0,0.0,0.0,0.0,0.0,0.0,0.0,0.0,0.0,0.0,0.0,0.0
1672947012225479855,53169,1672947012225250983,enu,-0.1914,0.003,-0.0078,0.0,0.0,0.0,0.0001,0.0,0.0,0.0,0.0,0.0,0.0,0.0001,0.0,0.0,0.0,0.0,0.0,0.0,8.1e-05,0.0,0.0,0.0,0.0,0.0,0.0,0.0,0.0,0.0,0.0,0.0,0.0,0.0,0.0,0.0,0.0,0.0,0.0,0.0,0.0,0.0
1672947012235410593,53170,1672947012235194855,enu,-0.1966,0.0029,-0.0078,0.0,0.0,0.0,0.0001,0.0,0.0,0.0,0.0,0.0,0.0,0.0001,0.0,0.0,0.0,0.0,0.0,0.0,8.1e-05,0.0,0.0,0.0,0.0,0.0,0.0,0.0,0.0,0.0,0.0,0.0,0.0,0.0,0.0,0.0,0.0,0.0,0.0,0.0,0.0,0.0
1672947012245443452,53171,1672947012245219744,enu,-0.2016,0.0029,-0.0076,0.0,0.0,0.0,0.0001,0.0,0.0,0.0,0.0,0.0,0.0,0.0001,0.0,0.0,0.0,0.0,0.0,0.0,8.1e-05,0.0,0.0,0.0,0.0,0.0,0.0,0.0,0.0,0.0,0.0,0.0,0.0,0.0,0.0,0.0,0.0,0.0,0.0,0.0,0.0,0.0
1672947012255460021,53172,1672947012255232261,enu,-0.2062,0.0028,-0.0075,0.0,0.0,0.0,0.0001,0.0,0.0,0.0,0.0,0.0,0.0,0.0001,0.0,0.0,0.0,0.0,0.0,0.0,8.1e-05,0.0,0.0,0.0,0.0,0.0,0.0,0.0,0.0,0.0,0.0,0.0,0.0,0.0,0.0,0.0,0.0,0.0,0.0,0.0,0.0,0.0
1672947012265391376,53173,1672947012265176344,enu,-0.2112,0.0027,-0.0075,0.0,0.0,0.0,0.0001,0.0,0.0,0.0,0.0,0.0,0.0,0.0001,0.0,0.0,0.0,0.0,0.0,0.0,8.1e-05,0.0,0.0,0.0,0.0,0.0,0.0,0.0,0.0,0.0,0.0,0.0,0.0,0.0,0.0,0.0,0.0,0.0,0.0,0.0,0.0,0.0
1672947012275433249,53174,1672947012275187178,enu,-0.2167,0.0027,-0.0077,0.0,0.0,0.0,0.0001,0.0,0.0,0.0,0.0,0.0,0.0,0.0001,0.0,0.0,0.0,0.0,0.0,0.0,8.1e-05,0.0,0.0,0.0,0.0,0.0,0.0,0.0,0.0,0.0,0.0,0.0,0.0,0.0,0.0,0.0,0.0,0.0,0.0,0.0,0.0,0.0
1672947012285472618,53175,1672947012285235993,enu,-0.2222,0.0028,-0.0076,0.0,0.0,0.0,0.0001,0.0,0.0,0.0,0.0,0.0,0.0,0.0001,0.0,0.0,0.0,0.0,0.0,0.0,8.1e-05,0.0,0.0,0.0,0.0,0.0,0.0,0.0,0.0,0.0,0.0,0.0,0.0,0.0,0.0,0.0,0.0,0.0,0.0,0.0,0.0,0.0
1672947012295397897,53176,1672947012295158575,enu,-0.2271,0.0029,-0.0076,0.0,0.0,0.0,0.0001,0.0,0.0,0.0,0.0,0.0,0.0,0.0001,0.0,0.0,0.0,0.0,0.0,0.0,8.1e-05,0.0,0.0,0.0,0.0,0.0,0.0,0.0,0.0,0.0,0.0,0.0,0.0,0.0,0.0,0.0,0.0,0.0,0.0,0.0,0.0,0.0
1672947012305433921,53177,1672947012305195897,enu,-0.2318,0.0026,-0.0075,0.0,0.0,0.0,0.0001,0.0,0.0,0.0,0.0,0.0,0.0,0.0001,0.0,0.0,0.0,0.0,0.0,0.0,8.1e-05,0.0,0.0,0.0,0.0,0.0,0.0,0.0,0.0,0.0,0.0,0.0,0.0,0.0,0.0,0.0,0.0,0.0,0.0,0.0,0.0,0.0
1672947012315593967,53178,1672947012315363167,enu,-0.2372,0.0027,-0.0078,0.0,0.0,0.0,0.0001,0.0,0.0,0.0,0.0,0.0,0.0,0.0001,0.0,0.0,0.0,0.0,0.0,0.0,8.1e-05,0.0,0.0,0.0,0.0,0.0,0.0,0.0,0.0,0.0,0.0,0.0,0.0,0.0,0.0,0.0,0.0,0.0,0.0,0.0,0.0,0.0
1672947012325416384,53179,1672947012325191282,enu,-0.2426,0.0027,-0.0077,0.0,0.0,0.0,0.0001,0.0,0.0,0.0,0.0,0.0,0.0,0.0001,0.0,0.0,0.0,0.0,0.0,0.0,8.1e-05,0.0,0.0,0.0,0.0,0.0,0.0,0.0,0.0,0.0,0.0,0.0,0.0,0.0,0.0,0.0,0.0,0.0,0.0,0.0,0.0,0.0
1672947012335414329,53180,1672947012335179270,enu,-0.248,0.0028,-0.0077,0.0,0.0,0.0,0.0001,0.0,0.0,0.0,0.0,0.0,0.0,0.0001,0.0,0.0,0.0,0.0,0.0,0.0,8.1e-05,0.0,0.0,0.0,0.0,0.0,0.0,0.0,0.0,0.0,0.0,0.0,0.0,0.0,0.0,0.0,0.0,0.0,0.0,0.0,0.0,0.0
1672947012345456422,53181,1672947012345231637,enu,-0.2527,0.0026,-0.0075,0.0,0.0,0.0,0.0001,0.0,0.0,0.0,0.0,0.0,0.0,0.0001,0.0,0.0,0.0,0.0,0.0,0.0,8.1e-05,0.0,0.0,0.0,0.0,0.0,0.0,0.0,0.0,0.0,0.0,0.0,0.0,0.0,0.0,0.0,0.0,0.0,0.0,0.0,0.0,0.0
1672947012355399864,53182,1672947012355173756,enu,-0.2575,0.0025,-0.0078,0.0,0.0,0.0,0.0001,0.0,0.0,0.0,0.0,0.0,0.0,0.0001,0.0,0.0,0.0,0.0,0.0,0.0,8.1e-05,0.0,0.0,0.0,0.0,0.0,0.0,0.0,0.0,0.0,0.0,0.0,0.0,0.0,0.0,0.0,0.0,0.0,0.0,0.0,0.0,0.0
1672947012365386535,53183,1672947012365177455,enu,-0.2626,0.0024,-0.0078,0.0,0.0,0.0,0.0001,0.0,0.0,0.0,0.0,0.0,0.0,0.0001,0.0,0.0,0.0,0.0,0.0,0.0,8.1e-05,0.0,0.0,0.0,0.0,0.0,0.0,0.0,0.0,0.0,0.0,0.0,0.0,0.0,0.0,0.0,0.0,0.0,0.0,0.0,0.0,0.0
1672947012375468567,53184,1672947012375231400,enu,-0.268,0.0025,-0.0078,0.0,0.0,0.0,0.0001,0.0,0.0,0.0,0.0,0.0,0.0,0.0001,0.0,0.0,0.0,0.0,0.0,0.0,8.1e-05,0.0,0.0,0.0,0.0,0.0,0.0,0.0,0.0,0.0,0.0,0.0,0.0,0.0,0.0,0.0,0.0,0.0,0.0,0.0,0.0,0.0
1672947012385380188,53185,1672947012385169200,enu,-0.2729,0.0025,-0.0078,0.0,0.0,0.0,0.0001,0.0,0.0,0.0,0.0,0.0,0.0,0.0001,0.0,0.0,0.0,0.0,0.0,0.0,8.1e-05,0.0,0.0,0.0,0.0,0.0,0.0,0.0,0.0,0.0,0.0,0.0,0.0,0.0,0.0,0.0,0.0,0.0,0.0,0.0,0.0,0.0
1672947012395393549,53186,1672947012395177972,enu,-0.2776,0.0024,-0.0079,0.0,0.0,0.0,0.0001,0.0,0.0,0.0,0.0,0.0,0.0,0.0001,0.0,0.0,0.0,0.0,0.0,0.0,8.1e-05,0.0,0.0,0.0,0.0,0.0,0.0,0.0,0.0,0.0,0.0,0.0,0.0,0.0,0.0,0.0,0.0,0.0,0.0,0.0,0.0,0.0
1672947012405483378,53187,1672947012405261015,enu,-0.2827,0.0023,-0.0079,0.0,0.0,0.0,0.0001,0.0,0.0,0.0,0.0,0.0,0.0,0.0001,0.0,0.0,0.0,0.0,0.0,0.0,8.1e-05,0.0,0.0,0.0,0.0,0.0,0.0,0.0,0.0,0.0,0.0,0.0,0.0,0.0,0.0,0.0,0.0,0.0,0.0,0.0,0.0,0.0
1672947012415459313,53188,1672947012415238419,enu,-0.288,0.0025,-0.008,0.0,0.0,0.0,0.0001,0.0,0.0,0.0,0.0,0.0,0.0,0.0001,0.0,0.0,0.0,0.0,0.0,0.0,8.1e-05,0.0,0.0,0.0,0.0,0.0,0.0,0.0,0.0,0.0,0.0,0.0,0.0,0.0,0.0,0.0,0.0,0.0,0.0,0.0,0.0,0.0
1672947012425401324,53189,1672947012425181466,enu,-0.2933,0.0026,-0.0079,0.0,0.0,0.0,0.0001,0.0,0.0,0.0,0.0,0.0,0.0,0.0001,0.0,0.0,0.0,0.0,0.0,0.0,8.1e-05,0.0,0.0,0.0,0.0,0.0,0.0,0.0,0.0,0.0,0.0,0.0,0.0,0.0,0.0,0.0,0.0,0.0,0.0,0.0,0.0,0.0
1672947012435464334,53190,1672947012435224155,enu,-0.2982,0.0026,-0.0078,0.0,0.0,0.0,0.0001,0.0,0.0,0.0,0.0,0.0,0.0,0.0001,0.0,0.0,0.0,0.0,0.0,0.0,8.1e-05,0.0,0.0,0.0,0.0,0.0,0.0,0.0,0.0,0.0,0.0,0.0,0.0,0.0,0.0,0.0,0.0,0.0,0.0,0.0,0.0,0.0
1672947012445406970,53191,1672947012445155419,enu,-0.3032,0.0026,-0.008,0.0,0.0,0.0,0.0001,0.0,0.0,0.0,0.0,0.0,0.0,0.0001,0.0,0.0,0.0,0.0,0.0,0.0,8.1e-05,0.0,0.0,0.0,0.0,0.0,0.0,0.0,0.0,0.0,0.0,0.0,0.0,0.0,0.0,0.0,0.0,0.0,0.0,0.0,0.0,0.0
1672947012455408478,53192,1672947012455165240,enu,-0.3088,0.0027,-0.008,0.0,0.0,0.0,0.0001,0.0,0.0,0.0,0.0,0.0,0.0,0.0001,0.0,0.0,0.0,0.0,0.0,0.0,8.1e-05,0.0,0.0,0.0,0.0,0.0,0.0,0.0,0.0,0.0,0.0,0.0,0.0,0.0,0.0,0.0,0.0,0.0,0.0,0.0,0.0,0.0
1672947012465453687,53193,1672947012465225296,enu,-0.3142,0.0028,-0.008,0.0,0.0,0.0,0.0001,0.0,0.0,0.0,0.0,0.0,0.0,0.0001,0.0,0.0,0.0,0.0,0.0,0.0,8.1e-05,0.0,0.0,0.0,0.0,0.0,0.0,0.0,0.0,0.0,0.0,0.0,0.0,0.0,0.0,0.0,0.0,0.0,0.0,0.0,0.0,0.0
1672947012475388270,53194,1672947012475168698,enu,-0.3194,0.0029,-0.0081,0.0,0.0,0.0,0.0001,0.0,0.0,0.0,0.0,0.0,0.0,0.0001,0.0,0.0,0.0,0.0,0.0,0.0,8.1e-05,0.0,0.0,0.0,0.0,0.0,0.0,0.0,0.0,0.0,0.0,0.0,0.0,0.0,0.0,0.0,0.0,0.0,0.0,0.0,0.0,0.0
1672947012485392390,53195,1672947012485185151,enu,-0.3246,0.0029,-0.0082,0.0,0.0,0.0,0.0001,0.0,0.0,0.0,0.0,0.0,0.0,0.0001,0.0,0.0,0.0,0.0,0.0,0.0,8.1e-05,0.0,0.0,0.0,0.0,0.0,0.0,0.0,0.0,0.0,0.0,0.0,0.0,0.0,0.0,0.0,0.0,0.0,0.0,0.0,0.0,0.0
1672947012495478986,53196,1672947012495277165,enu,-0.3298,0.0032,-0.0083,0.0,0.0,0.0,0.0001,0.0,0.0,0.0,0.0,0.0,0.0,0.0001,0.0,0.0,0.0,0.0,0.0,0.0,8.1e-05,0.0,0.0,0.0,0.0,0.0,0.0,0.0,0.0,0.0,0.0,0.0,0.0,0.0,0.0,0.0,0.0,0.0,0.0,0.0,0.0,0.0
1672947012505380336,53197,1672947012505161224,enu,-0.3354,0.0033,-0.0083,0.0,0.0,0.0,0.0001,0.0,0.0,0.0,0.0,0.0,0.0,0.0001,0.0,0.0,0.0,0.0,0.0,0.0,8.1e-05,0.0,0.0,0.0,0.0,0.0,0.0,0.0,0.0,0.0,0.0,0.0,0.0,0.0,0.0,0.0,0.0,0.0,0.0,0.0,0.0,0.0
1672947012515439423,53198,1672947012515199722,enu,-0.3406,0.0034,-0.0085,0.0,0.0,0.0,0.0001,0.0,0.0,0.0,0.0,0.0,0.0,0.0001,0.0,0.0,0.0,0.0,0.0,0.0,8.1e-05,0.0,0.0,0.0,0.0,0.0,0.0,0.0,0.0,0.0,0.0,0.0,0.0,0.0,0.0,0.0,0.0,0.0,0.0,0.0,0.0,0.0
1672947012525516863,53199,1672947012525291385,enu,-0.3457,0.0035,-0.0087,0.0,0.0,0.0,0.0001,0.0,0.0,0.0,0.0,0.0,0.0,0.0001,0.0,0.0,0.0,0.0,0.0,0.0,8.1e-05,0.0,0.0,0.0,0.0,0.0,0.0,0.0,0.0,0.0,0.0,0.0,0.0,0.0,0.0,0.0,0.0,0.0,0.0,0.0,0.0,0.0
1672947012535438492,53200,1672947012535195778,enu,-0.3508,0.0035,-0.0088,0.0,0.0,0.0,0.0001,0.0,0.0,0.0,0.0,0.0,0.0,0.0001,0.0,0.0,0.0,0.0,0.0,0.0,8.1e-05,0.0,0.0,0.0,0.0,0.0,0.0,0.0,0.0,0.0,0.0,0.0,0.0,0.0,0.0,0.0,0.0,0.0,0.0,0.0,0.0,0.0
1672947012545467446,53201,1672947012545215249,enu,-0.3559,0.0036,-0.0089,0.0,0.0,0.0,0.0001,0.0,0.0,0.0,0.0,0.0,0.0,0.0001,0.0,0.0,0.0,0.0,0.0,0.0,8.1e-05,0.0,0.0,0.0,0.0,0.0,0.0,0.0,0.0,0.0,0.0,0.0,0.0,0.0,0.0,0.0,0.0,0.0,0.0,0.0,0.0,0.0
1672947012555537360,53202,1672947012555302881,enu,-0.3613,0.0036,-0.0091,0.0,0.0,0.0,6.4e-05,0.0,0.0,0.0,0.0,0.0,0.0,6.4e-05,0.0,0.0,0.0,0.0,0.0,0.0,6.4e-05,0.0,0.0,0.0,0.0,0.0,0.0,0.0,0.0,0.0,0.0,0.0,0.0,0.0,0.0,0.0,0.0,0.0,0.0,0.0,0.0,0.0
1672947012565502944,53203,1672947012565276246,enu,-0.3663,0.0035,-0.0091,0.0,0.0,0.0,6.4e-05,0.0,0.0,0.0,0.0,0.0,0.0,6.4e-05,0.0,0.0,0.0,0.0,0.0,0.0,6.4e-05,0.0,0.0,0.0,0.0,0.0,0.0,0.0,0.0,0.0,0.0,0.0,0.0,0.0,0.0,0.0,0.0,0.0,0.0,0.0,0.0,0.0
1672947012575376286,53204,1672947012575149950,enu,-0.3714,0.0036,-0.0094,0.0,0.0,0.0,6.4e-05,0.0,0.0,0.0,0.0,0.0,0.0,6.4e-05,0.0,0.0,0.0,0.0,0.0,0.0,6.4e-05,0.0,0.0,0.0,0.0,0.0,0.0,0.0,0.0,0.0,0.0,0.0,0.0,0.0,0.0,0.0,0.0,0.0,0.0,0.0,0.0,0.0
1672947012585423554,53205,1672947012585203162,enu,-0.3766,0.0037,-0.0096,0.0,0.0,0.0,6.4e-05,0.0,0.0,0.0,0.0,0.0,0.0,6.4e-05,0.0,0.0,0.0,0.0,0.0,0.0,6.4e-05,0.0,0.0,0.0,0.0,0.0,0.0,0.0,0.0,0.0,0.0,0.0,0.0,0.0,0.0,0.0,0.0,0.0,0.0,0.0,0.0,0.0
1672947012595390022,53206,1672947012595162829,enu,-0.3818,0.0038,-0.0098,0.0,0.0,0.0,6.4e-05,0.0,0.0,0.0,0.0,0.0,0.0,6.4e-05,0.0,0.0,0.0,0.0,0.0,0.0,6.4e-05,0.0,0.0,0.0,0.0,0.0,0.0,0.0,0.0,0.0,0.0,0.0,0.0,0.0,0.0,0.0,0.0,0.0,0.0,0.0,0.0,0.0
1672947012605372319,53207,1672947012605161679,enu,-0.3871,0.0041,-0.0099,0.0,0.0,0.0,6.4e-05,0.0,0.0,0.0,0.0,0.0,0.0,6.4e-05,0.0,0.0,0.0,0.0,0.0,0.0,6.4e-05,0.0,0.0,0.0,0.0,0.0,0.0,0.0,0.0,0.0,0.0,0.0,0.0,0.0,0.0,0.0,0.0,0.0,0.0,0.0,0.0,0.0
1672947012615433923,53208,1672947012615215126,enu,-0.3923,0.0043,-0.0103,0.0,0.0,0.0,6.4e-05,0.0,0.0,0.0,0.0,0.0,0.0,6.4e-05,0.0,0.0,0.0,0.0,0.0,0.0,6.4e-05,0.0,0.0,0.0,0.0,0.0,0.0,0.0,0.0,0.0,0.0,0.0,0.0,0.0,0.0,0.0,0.0,0.0,0.0,0.0,0.0,0.0
1672947012625381860,53209,1672947012625167771,enu,-0.3978,0.0045,-0.0105,0.0,0.0,0.0,6.4e-05,0.0,0.0,0.0,0.0,0.0,0.0,6.4e-05,0.0,0.0,0.0,0.0,0.0,0.0,6.4e-05,0.0,0.0,0.0,0.0,0.0,0.0,0.0,0.0,0.0,0.0,0.0,0.0,0.0,0.0,0.0,0.0,0.0,0.0,0.0,0.0,0.0
1672947012635386818,53210,1672947012635159813,enu,-0.4028,0.0046,-0.0107,0.0,0.0,0.0,6.4e-05,0.0,0.0,0.0,0.0,0.0,0.0,6.4e-05,0.0,0.0,0.0,0.0,0.0,0.0,6.4e-05,0.0,0.0,0.0,0.0,0.0,0.0,0.0,0.0,0.0,0.0,0.0,0.0,0.0,0.0,0.0,0.0,0.0,0.0,0.0,0.0,0.0
1672947012645456044,53211,1672947012645234166,enu,-0.4082,0.0049,-0.011,0.0,0.0,0.0,6.4e-05,0.0,0.0,0.0,0.0,0.0,0.0,6.4e-05,0.0,0.0,0.0,0.0,0.0,0.0,6.4e-05,0.0,0.0,0.0,0.0,0.0,0.0,0.0,0.0,0.0,0.0,0.0,0.0,0.0,0.0,0.0,0.0,0.0,0.0,0.0,0.0,0.0
1672947012655410884,53212,1672947012655176325,enu,-0.4134,0.0049,-0.0112,0.0,0.0,0.0,6.4e-05,0.0,0.0,0.0,0.0,0.0,0.0,6.4e-05,0.0,0.0,0.0,0.0,0.0,0.0,6.4e-05,0.0,0.0,0.0,0.0,0.0,0.0,0.0,0.0,0.0,0.0,0.0,0.0,0.0,0.0,0.0,0.0,0.0,0.0,0.0,0.0,0.0
1672947012665416756,53213,1672947012665155394,enu,-0.4188,0.005,-0.0114,0.0,0.0,0.0,6.4e-05,0.0,0.0,0.0,0.0,0.0,0.0,6.4e-05,0.0,0.0,0.0,0.0,0.0,0.0,6.4e-05,0.0,0.0,0.0,0.0,0.0,0.0,0.0,0.0,0.0,0.0,0.0,0.0,0.0,0.0,0.0,0.0,0.0,0.0,0.0,0.0,0.0
1672947012675464000,53214,1672947012675217310,enu,-0.4241,0.0051,-0.0117,0.0,0.0,0.0,6.4e-05,0.0,0.0,0.0,0.0,0.0,0.0,6.4e-05,0.0,0.0,0.0,0.0,0.0,0.0,6.4e-05,0.0,0.0,0.0,0.0,0.0,0.0,0.0,0.0,0.0,0.0,0.0,0.0,0.0,0.0,0.0,0.0,0.0,0.0,0.0,0.0,0.0
1672947012685411078,53215,1672947012685153255,enu,-0.4292,0.0051,-0.0119,0.0,0.0,0.0,6.4e-05,0.0,0.0,0.0,0.0,0.0,0.0,6.4e-05,0.0,0.0,0.0,0.0,0.0,0.0,6.4e-05,0.0,0.0,0.0,0.0,0.0,0.0,0.0,0.0,0.0,0.0,0.0,0.0,0.0,0.0,0.0,0.0,0.0,0.0,0.0,0.0,0.0
1672947012695402168,53216,1672947012695152267,enu,-0.4347,0.0051,-0.0122,0.0,0.0,0.0,6.4e-05,0.0,0.0,0.0,0.0,0.0,0.0,6.4e-05,0.0,0.0,0.0,0.0,0.0,0.0,6.4e-05,0.0,0.0,0.0,0.0,0.0,0.0,0.0,0.0,0.0,0.0,0.0,0.0,0.0,0.0,0.0,0.0,0.0,0.0,0.0,0.0,0.0
1672947012705440915,53217,1672947012705196169,enu,-0.44,0.0051,-0.0124,0.0,0.0,0.0,6.4e-05,0.0,0.0,0.0,0.0,0.0,0.0,6.4e-05,0.0,0.0,0.0,0.0,0.0,0.0,6.4e-05,0.0,0.0,0.0,0.0,0.0,0.0,0.0,0.0,0.0,0.0,0.0,0.0,0.0,0.0,0.0,0.0,0.0,0.0,0.0,0.0,0.0
1672947012715402989,53218,1672947012715136837,enu,-0.4456,0.0053,-0.0127,0.0,0.0,0.0,6.4e-05,0.0,0.0,0.0,0.0,0.0,0.0,6.4e-05,0.0,0.0,0.0,0.0,0.0,0.0,6.4e-05,0.0,0.0,0.0,0.0,0.0,0.0,0.0,0.0,0.0,0.0,0.0,0.0,0.0,0.0,0.0,0.0,0.0,0.0,0.0,0.0,0.0
1672947012725401167,53219,1672947012725149328,enu,-0.4513,0.0055,-0.013,0.0,0.0,0.0,6.4e-05,0.0,0.0,0.0,0.0,0.0,0.0,6.4e-05,0.0,0.0,0.0,0.0,0.0,0.0,6.4e-05,0.0,0.0,0.0,0.0,0.0,0.0,0.0,0.0,0.0,0.0,0.0,0.0,0.0,0.0,0.0,0.0,0.0,0.0,0.0,0.0,0.0
1672947012735459965,53220,1672947012735201053,enu,-0.4569,0.0057,-0.0133,0.0,0.0,0.0,6.4e-05,0.0,0.0,0.0,0.0,0.0,0.0,6.4e-05,0.0,0.0,0.0,0.0,0.0,0.0,6.4e-05,0.0,0.0,0.0,0.0,0.0,0.0,0.0,0.0,0.0,0.0,0.0,0.0,0.0,0.0,0.0,0.0,0.0,0.0,0.0,0.0,0.0
1672947012745461274,53221,1672947012745201491,enu,-0.4627,0.006,-0.0137,0.0,0.0,0.0,6.4e-05,0.0,0.0,0.0,0.0,0.0,0.0,6.4e-05,0.0,0.0,0.0,0.0,0.0,0.0,6.4e-05,0.0,0.0,0.0,0.0,0.0,0.0,0.0,0.0,0.0,0.0,0.0,0.0,0.0,0.0,0.0,0.0,0.0,0.0,0.0,0.0,0.0
1672947012755413923,53222,1672947012755159574,enu,-0.4685,0.0065,-0.0144,0.0,0.0,0.0,6.4e-05,0.0,0.0,0.0,0.0,0.0,0.0,6.4e-05,0.0,0.0,0.0,0.0,0.0,0.0,6.4e-05,0.0,0.0,0.0,0.0,0.0,0.0,0.0,0.0,0.0,0.0,0.0,0.0,0.0,0.0,0.0,0.0,0.0,0.0,0.0,0.0,0.0
1672947012765462240,53223,1672947012765207227,enu,-0.4741,0.0069,-0.0147,0.0,0.0,0.0,6.4e-05,0.0,0.0,0.0,0.0,0.0,0.0,6.4e-05,0.0,0.0,0.0,0.0,0.0,0.0,6.4e-05,0.0,0.0,0.0,0.0,0.0,0.0,0.0,0.0,0.0,0.0,0.0,0.0,0.0,0.0,0.0,0.0,0.0,0.0,0.0,0.0,0.0
1672947012775446526,53224,1672947012775167184,enu,-0.4798,0.0071,-0.015,0.0,0.0,0.0,6.4e-05,0.0,0.0,0.0,0.0,0.0,0.0,6.4e-05,0.0,0.0,0.0,0.0,0.0,0.0,6.4e-05,0.0,0.0,0.0,0.0,0.0,0.0,0.0,0.0,0.0,0.0,0.0,0.0,0.0,0.0,0.0,0.0,0.0,0.0,0.0,0.0,0.0
1672947012785433849,53225,1672947012785146442,enu,-0.4852,0.0073,-0.0152,0.0,0.0,0.0,6.4e-05,0.0,0.0,0.0,0.0,0.0,0.0,6.4e-05,0.0,0.0,0.0,0.0,0.0,0.0,6.4e-05,0.0,0.0,0.0,0.0,0.0,0.0,0.0,0.0,0.0,0.0,0.0,0.0,0.0,0.0,0.0,0.0,0.0,0.0,0.0,0.0,0.0
1672947012795459476,53226,1672947012795206856,enu,-0.4902,0.0074,-0.0152,0.0,0.0,0.0,6.4e-05,0.0,0.0,0.0,0.0,0.0,0.0,6.4e-05,0.0,0.0,0.0,0.0,0.0,0.0,6.4e-05,0.0,0.0,0.0,0.0,0.0,0.0,0.0,0.0,0.0,0.0,0.0,0.0,0.0,0.0,0.0,0.0,0.0,0.0,0.0,0.0,0.0
1672947012805434738,53227,1672947012805169978,enu,-0.4949,0.0074,-0.0151,0.0,0.0,0.0,6.4e-05,0.0,0.0,0.0,0.0,0.0,0.0,6.4e-05,0.0,0.0,0.0,0.0,0.0,0.0,6.4e-05,0.0,0.0,0.0,0.0,0.0,0.0,0.0,0.0,0.0,0.0,0.0,0.0,0.0,0.0,0.0,0.0,0.0,0.0,0.0,0.0,0.0
1672947012815494217,53228,1672947012815237913,enu,-0.4994,0.0071,-0.0152,0.0,0.0,0.0,6.4e-05,0.0,0.0,0.0,0.0,0.0,0.0,6.4e-05,0.0,0.0,0.0,0.0,0.0,0.0,6.4e-05,0.0,0.0,0.0,0.0,0.0,0.0,0.0,0.0,0.0,0.0,0.0,0.0,0.0,0.0,0.0,0.0,0.0,0.0,0.0,0.0,0.0
1672947012825457929,53229,1672947012825200748,enu,-0.5045,0.0068,-0.0154,0.0,0.0,0.0,6.4e-05,0.0,0.0,0.0,0.0,0.0,0.0,6.4e-05,0.0,0.0,0.0,0.0,0.0,0.0,6.4e-05,0.0,0.0,0.0,0.0,0.0,0.0,0.0,0.0,0.0,0.0,0.0,0.0,0.0,0.0,0.0,0.0,0.0,0.0,0.0,0.0,0.0
1672947012835400137,53230,1672947012835142349,enu,-0.5099,0.0065,-0.0156,0.0,0.0,0.0,6.4e-05,0.0,0.0,0.0,0.0,0.0,0.0,6.4e-05,0.0,0.0,0.0,0.0,0.0,0.0,6.4e-05,0.0,0.0,0.0,0.0,0.0,0.0,0.0,0.0,0.0,0.0,0.0,0.0,0.0,0.0,0.0,0.0,0.0,0.0,0.0,0.0,0.0
1672947012845394068,53231,1672947012845143237,enu,-0.5154,0.0063,-0.0157,0.0,0.0,0.0,6.4e-05,0.0,0.0,0.0,0.0,0.0,0.0,6.4e-05,0.0,0.0,0.0,0.0,0.0,0.0,6.4e-05,0.0,0.0,0.0,0.0,0.0,0.0,0.0,0.0,0.0,0.0,0.0,0.0,0.0,0.0,0.0,0.0,0.0,0.0,0.0,0.0,0.0
1672947012855441311,53232,1672947012855193234,enu,-0.5203,0.0061,-0.0156,0.0,0.0,0.0,6.4e-05,0.0,0.0,0.0,0.0,0.0,0.0,6.4e-05,0.0,0.0,0.0,0.0,0.0,0.0,6.4e-05,0.0,0.0,0.0,0.0,0.0,0.0,0.0,0.0,0.0,0.0,0.0,0.0,0.0,0.0,0.0,0.0,0.0,0.0,0.0,0.0,0.0
1672947012865340541,53233,1672947012865121103,enu,-0.5248,0.0059,-0.016,0.0,0.0,0.0,6.4e-05,0.0,0.0,0.0,0.0,0.0,0.0,6.4e-05,0.0,0.0,0.0,0.0,0.0,0.0,6.4e-05,0.0,0.0,0.0,0.0,0.0,0.0,0.0,0.0,0.0,0.0,0.0,0.0,0.0,0.0,0.0,0.0,0.0,0.0,0.0,0.0,0.0
1672947012875366416,53234,1672947012875133139,enu,-0.5293,0.0057,-0.016,0.0,0.0,0.0,6.4e-05,0.0,0.0,0.0,0.0,0.0,0.0,6.4e-05,0.0,0.0,0.0,0.0,0.0,0.0,6.4e-05,0.0,0.0,0.0,0.0,0.0,0.0,0.0,0.0,0.0,0.0,0.0,0.0,0.0,0.0,0.0,0.0,0.0,0.0,0.0,0.0,0.0
1672947012885441677,53235,1672947012885214820,enu,-0.5342,0.0057,-0.016,0.0,0.0,0.0,6.4e-05,0.0,0.0,0.0,0.0,0.0,0.0,6.4e-05,0.0,0.0,0.0,0.0,0.0,0.0,6.4e-05,0.0,0.0,0.0,0.0,0.0,0.0,0.0,0.0,0.0,0.0,0.0,0.0,0.0,0.0,0.0,0.0,0.0,0.0,0.0,0.0,0.0
1672947012895360873,53236,1672947012895138711,enu,-0.5393,0.0057,-0.016,0.0,0.0,0.0,6.4e-05,0.0,0.0,0.0,0.0,0.0,0.0,6.4e-05,0.0,0.0,0.0,0.0,0.0,0.0,6.4e-05,0.0,0.0,0.0,0.0,0.0,0.0,0.0,0.0,0.0,0.0,0.0,0.0,0.0,0.0,0.0,0.0,0.0,0.0,0.0,0.0,0.0
1672947012905375011,53237,1672947012905134799,enu,-0.5439,0.0056,-0.0161,0.0,0.0,0.0,6.4e-05,0.0,0.0,0.0,0.0,0.0,0.0,6.4e-05,0.0,0.0,0.0,0.0,0.0,0.0,6.4e-05,0.0,0.0,0.0,0.0,0.0,0.0,0.0,0.0,0.0,0.0,0.0,0.0,0.0,0.0,0.0,0.0,0.0,0.0,0.0,0.0,0.0
1672947012915406954,53238,1672947012915196037,enu,-0.5483,0.0056,-0.0161,0.0,0.0,0.0,6.4e-05,0.0,0.0,0.0,0.0,0.0,0.0,6.4e-05,0.0,0.0,0.0,0.0,0.0,0.0,6.4e-05,0.0,0.0,0.0,0.0,0.0,0.0,0.0,0.0,0.0,0.0,0.0,0.0,0.0,0.0,0.0,0.0,0.0,0.0,0.0,0.0,0.0
1672947012925371850,53239,1672947012925140997,enu,-0.5529,0.0058,-0.0164,0.0,0.0,0.0,6.4e-05,0.0,0.0,0.0,0.0,0.0,0.0,6.4e-05,0.0,0.0,0.0,0.0,0.0,0.0,6.4e-05,0.0,0.0,0.0,0.0,0.0,0.0,0.0,0.0,0.0,0.0,0.0,0.0,0.0,0.0,0.0,0.0,0.0,0.0,0.0,0.0,0.0
1672947012935361457,53240,1672947012935137459,enu,-0.5575,0.006,-0.0167,0.0,0.0,0.0,6.4e-05,0.0,0.0,0.0,0.0,0.0,0.0,6.4e-05,0.0,0.0,0.0,0.0,0.0,0.0,6.4e-05,0.0,0.0,0.0,0.0,0.0,0.0,0.0,0.0,0.0,0.0,0.0,0.0,0.0,0.0,0.0,0.0,0.0,0.0,0.0,0.0,0.0
1672947012945400105,53241,1672947012945192458,enu,-0.5618,0.0064,-0.017,0.0,0.0,0.0,6.4e-05,0.0,0.0,0.0,0.0,0.0,0.0,6.4e-05,0.0,0.0,0.0,0.0,0.0,0.0,6.4e-05,0.0,0.0,0.0,0.0,0.0,0.0,0.0,0.0,0.0,0.0,0.0,0.0,0.0,0.0,0.0,0.0,0.0,0.0,0.0,0.0,0.0
1672947012955331486,53242,1672947012955135890,enu,-0.566,0.0067,-0.0174,0.0,0.0,0.0,6.4e-05,0.0,0.0,0.0,0.0,0.0,0.0,6.4e-05,0.0,0.0,0.0,0.0,0.0,0.0,6.4e-05,0.0,0.0,0.0,0.0,0.0,0.0,0.0,0.0,0.0,0.0,0.0,0.0,0.0,0.0,0.0,0.0,0.0,0.0,0.0,0.0,0.0
1672947012965342468,53243,1672947012965139047,enu,-0.57,0.0072,-0.0178,0.0,0.0,0.0,6.4e-05,0.0,0.0,0.0,0.0,0.0,0.0,6.4e-05,0.0,0.0,0.0,0.0,0.0,0.0,6.4e-05,0.0,0.0,0.0,0.0,0.0,0.0,0.0,0.0,0.0,0.0,0.0,0.0,0.0,0.0,0.0,0.0,0.0,0.0,0.0,0.0,0.0
1672947012975413305,53244,1672947012975191878,enu,-0.574,0.0074,-0.0181,0.0,0.0,0.0,6.4e-05,0.0,0.0,0.0,0.0,0.0,0.0,6.4e-05,0.0,0.0,0.0,0.0,0.0,0.0,6.4e-05,0.0,0.0,0.0,0.0,0.0,0.0,0.0,0.0,0.0,0.0,0.0,0.0,0.0,0.0,0.0,0.0,0.0,0.0,0.0,0.0,0.0
1672947012985324385,53245,1672947012985127884,enu,-0.5774,0.0079,-0.0182,0.0,0.0,0.0,6.4e-05,0.0,0.0,0.0,0.0,0.0,0.0,6.4e-05,0.0,0.0,0.0,0.0,0.0,0.0,6.4e-05,0.0,0.0,0.0,0.0,0.0,0.0,0.0,0.0,0.0,0.0,0.0,0.0,0.0,0.0,0.0,0.0,0.0,0.0,0.0,0.0,0.0
1672947012995412716,53246,1672947012995188951,enu,-0.5807,0.0078,-0.0183,0.0,0.0,0.0,6.4e-05,0.0,0.0,0.0,0.0,0.0,0.0,6.4e-05,0.0,0.0,0.0,0.0,0.0,0.0,6.4e-05,0.0,0.0,0.0,0.0,0.0,0.0,0.0,0.0,0.0,0.0,0.0,0.0,0.0,0.0,0.0,0.0,0.0,0.0,0.0,0.0,0.0
1672947013005417835,53247,1672947013005185008,enu,-0.584,0.0078,-0.0186,0.0,0.0,0.0,6.4e-05,0.0,0.0,0.0,0.0,0.0,0.0,6.4e-05,0.0,0.0,0.0,0.0,0.0,0.0,6.4e-05,0.0,0.0,0.0,0.0,0.0,0.0,0.0,0.0,0.0,0.0,0.0,0.0,0.0,0.0,0.0,0.0,0.0,0.0,0.0,0.0,0.0
1672947013015414591,53248,1672947013015165069,enu,-0.5875,0.0078,-0.0188,0.0,0.0,0.0,6.4e-05,0.0,0.0,0.0,0.0,0.0,0.0,6.4e-05,0.0,0.0,0.0,0.0,0.0,0.0,6.4e-05,0.0,0.0,0.0,0.0,0.0,0.0,0.0,0.0,0.0,0.0,0.0,0.0,0.0,0.0,0.0,0.0,0.0,0.0,0.0,0.0,0.0
1672947013025480710,53249,1672947013025242701,enu,-0.5912,0.0077,-0.0192,0.0,0.0,0.0,6.4e-05,0.0,0.0,0.0,0.0,0.0,0.0,6.4e-05,0.0,0.0,0.0,0.0,0.0,0.0,6.4e-05,0.0,0.0,0.0,0.0,0.0,0.0,0.0,0.0,0.0,0.0,0.0,0.0,0.0,0.0,0.0,0.0,0.0,0.0,0.0,0.0,0.0
1672947013035400588,53250,1672947013035182000,enu,-0.5944,0.0077,-0.0193,0.0,0.0,0.0,6.4e-05,0.0,0.0,0.0,0.0,0.0,0.0,6.4e-05,0.0,0.0,0.0,0.0,0.0,0.0,6.4e-05,0.0,0.0,0.0,0.0,0.0,0.0,0.0,0.0,0.0,0.0,0.0,0.0,0.0,0.0,0.0,0.0,0.0,0.0,0.0,0.0,0.0
1672947013045406928,53251,1672947013045188316,enu,-0.5974,0.0072,-0.0195,0.0,0.0,0.0,6.4e-05,0.0,0.0,0.0,0.0,0.0,0.0,6.4e-05,0.0,0.0,0.0,0.0,0.0,0.0,6.4e-05,0.0,0.0,0.0,0.0,0.0,0.0,0.0,0.0,0.0,0.0,0.0,0.0,0.0,0.0,0.0,0.0,0.0,0.0,0.0,0.0,0.0
1672947013055419633,53252,1672947013055205079,enu,-0.6007,0.007,-0.0198,0.0,0.0,0.0,6.4e-05,0.0,0.0,0.0,0.0,0.0,0.0,6.4e-05,0.0,0.0,0.0,0.0,0.0,0.0,6.4e-05,0.0,0.0,0.0,0.0,0.0,0.0,0.0,0.0,0.0,0.0,0.0,0.0,0.0,0.0,0.0,0.0,0.0,0.0,0.0,0.0,0.0
1672947013065542219,53253,1672947013065323467,enu,-0.6035,0.0066,-0.0195,0.0,0.0,0.0,6.4e-05,0.0,0.0,0.0,0.0,0.0,0.0,6.4e-05,0.0,0.0,0.0,0.0,0.0,0.0,6.4e-05,0.0,0.0,0.0,0.0,0.0,0.0,0.0,0.0,0.0,0.0,0.0,0.0,0.0,0.0,0.0,0.0,0.0,0.0,0.0,0.0,0.0
1672947013075438408,53254,1672947013075208932,enu,-0.6064,0.0061,-0.0193,0.0,0.0,0.0,6.4e-05,0.0,0.0,0.0,0.0,0.0,0.0,6.4e-05,0.0,0.0,0.0,0.0,0.0,0.0,6.4e-05,0.0,0.0,0.0,0.0,0.0,0.0,0.0,0.0,0.0,0.0,0.0,0.0,0.0,0.0,0.0,0.0,0.0,0.0,0.0,0.0,0.0
1672947013085455979,53255,1672947013085218783,enu,-0.6088,0.006,-0.0193,0.0,0.0,0.0,6.4e-05,0.0,0.0,0.0,0.0,0.0,0.0,6.4e-05,0.0,0.0,0.0,0.0,0.0,0.0,6.4e-05,0.0,0.0,0.0,0.0,0.0,0.0,0.0,0.0,0.0,0.0,0.0,0.0,0.0,0.0,0.0,0.0,0.0,0.0,0.0,0.0,0.0
1672947013095419647,53256,1672947013095195173,enu,-0.6114,0.0056,-0.0193,0.0,0.0,0.0,6.4e-05,0.0,0.0,0.0,0.0,0.0,0.0,6.4e-05,0.0,0.0,0.0,0.0,0.0,0.0,6.4e-05,0.0,0.0,0.0,0.0,0.0,0.0,0.0,0.0,0.0,0.0,0.0,0.0,0.0,0.0,0.0,0.0,0.0,0.0,0.0,0.0,0.0
1672947013105374974,53257,1672947013105144753,enu,-0.6143,0.0055,-0.0194,0.0,0.0,0.0,6.4e-05,0.0,0.0,0.0,0.0,0.0,0.0,6.4e-05,0.0,0.0,0.0,0.0,0.0,0.0,6.4e-05,0.0,0.0,0.0,0.0,0.0,0.0,0.0,0.0,0.0,0.0,0.0,0.0,0.0,0.0,0.0,0.0,0.0,0.0,0.0,0.0,0.0
1672947013115355124,53258,1672947013115127536,enu,-0.6169,0.0053,-0.0195,0.0,0.0,0.0,6.4e-05,0.0,0.0,0.0,0.0,0.0,0.0,6.4e-05,0.0,0.0,0.0,0.0,0.0,0.0,6.4e-05,0.0,0.0,0.0,0.0,0.0,0.0,0.0,0.0,0.0,0.0,0.0,0.0,0.0,0.0,0.0,0.0,0.0,0.0,0.0,0.0,0.0
1672947013125402551,53259,1672947013125187499,enu,-0.6195,0.0049,-0.02,0.0,0.0,0.0,6.4e-05,0.0,0.0,0.0,0.0,0.0,0.0,6.4e-05,0.0,0.0,0.0,0.0,0.0,0.0,6.4e-05,0.0,0.0,0.0,0.0,0.0,0.0,0.0,0.0,0.0,0.0,0.0,0.0,0.0,0.0,0.0,0.0,0.0,0.0,0.0,0.0,0.0
1672947013135372266,53260,1672947013135130930,enu,-0.6226,0.0048,-0.0209,0.0,0.0,0.0,6.4e-05,0.0,0.0,0.0,0.0,0.0,0.0,6.4e-05,0.0,0.0,0.0,0.0,0.0,0.0,6.4e-05,0.0,0.0,0.0,0.0,0.0,0.0,0.0,0.0,0.0,0.0,0.0,0.0,0.0,0.0,0.0,0.0,0.0,0.0,0.0,0.0,0.0
1672947013145324739,53261,1672947013145114460,enu,-0.6259,0.0047,-0.0218,0.0,0.0,0.0,6.4e-05,0.0,0.0,0.0,0.0,0.0,0.0,6.4e-05,0.0,0.0,0.0,0.0,0.0,0.0,6.4e-05,0.0,0.0,0.0,0.0,0.0,0.0,0.0,0.0,0.0,0.0,0.0,0.0,0.0,0.0,0.0,0.0,0.0,0.0,0.0,0.0,0.0
1672947013155399528,53262,1672947013155183614,enu,-0.6294,0.0046,-0.0224,0.0,0.0,0.0,6.4e-05,0.0,0.0,0.0,0.0,0.0,0.0,6.4e-05,0.0,0.0,0.0,0.0,0.0,0.0,6.4e-05,0.0,0.0,0.0,0.0,0.0,0.0,0.0,0.0,0.0,0.0,0.0,0.0,0.0,0.0,0.0,0.0,0.0,0.0,0.0,0.0,0.0
1672947013165338872,53263,1672947013165125150,enu,-0.6323,0.0047,-0.0231,0.0,0.0,0.0,6.4e-05,0.0,0.0,0.0,0.0,0.0,0.0,6.4e-05,0.0,0.0,0.0,0.0,0.0,0.0,6.4e-05,0.0,0.0,0.0,0.0,0.0,0.0,0.0,0.0,0.0,0.0,0.0,0.0,0.0,0.0,0.0,0.0,0.0,0.0,0.0,0.0,0.0
1672947013175394809,53264,1672947013175174716,enu,-0.6351,0.0045,-0.0241,0.0,0.0,0.0,6.4e-05,0.0,0.0,0.0,0.0,0.0,0.0,6.4e-05,0.0,0.0,0.0,0.0,0.0,0.0,6.4e-05,0.0,0.0,0.0,0.0,0.0,0.0,0.0,0.0,0.0,0.0,0.0,0.0,0.0,0.0,0.0,0.0,0.0,0.0,0.0,0.0,0.0
1672947013185328219,53265,1672947013185119883,enu,-0.6382,0.0045,-0.0251,0.0,0.0,0.0,6.4e-05,0.0,0.0,0.0,0.0,0.0,0.0,6.4e-05,0.0,0.0,0.0,0.0,0.0,0.0,6.4e-05,0.0,0.0,0.0,0.0,0.0,0.0,0.0,0.0,0.0,0.0,0.0,0.0,0.0,0.0,0.0,0.0,0.0,0.0,0.0,0.0,0.0
1672947013195312134,53266,1672947013195118314,enu,-0.6418,0.0046,-0.026,0.0,0.0,0.0,6.4e-05,0.0,0.0,0.0,0.0,0.0,0.0,6.4e-05,0.0,0.0,0.0,0.0,0.0,0.0,6.4e-05,0.0,0.0,0.0,0.0,0.0,0.0,0.0,0.0,0.0,0.0,0.0,0.0,0.0,0.0,0.0,0.0,0.0,0.0,0.0,0.0,0.0
1672947013205352305,53267,1672947013205122037,enu,-0.6454,0.005,-0.027,0.0,0.0,0.0,6.4e-05,0.0,0.0,0.0,0.0,0.0,0.0,6.4e-05,0.0,0.0,0.0,0.0,0.0,0.0,6.4e-05,0.0,0.0,0.0,0.0,0.0,0.0,0.0,0.0,0.0,0.0,0.0,0.0,0.0,0.0,0.0,0.0,0.0,0.0,0.0,0.0,0.0
1672947013215403389,53268,1672947013215176007,enu,-0.6489,0.0051,-0.0276,0.0,0.0,0.0,6.4e-05,0.0,0.0,0.0,0.0,0.0,0.0,6.4e-05,0.0,0.0,0.0,0.0,0.0,0.0,6.4e-05,0.0,0.0,0.0,0.0,0.0,0.0,0.0,0.0,0.0,0.0,0.0,0.0,0.0,0.0,0.0,0.0,0.0,0.0,0.0,0.0,0.0
1672947013225346648,53269,1672947013225118256,enu,-0.6518,0.0047,-0.027,0.0,0.0,0.0,6.4e-05,0.0,0.0,0.0,0.0,0.0,0.0,6.4e-05,0.0,0.0,0.0,0.0,0.0,0.0,6.4e-05,0.0,0.0,0.0,0.0,0.0,0.0,0.0,0.0,0.0,0.0,0.0,0.0,0.0,0.0,0.0,0.0,0.0,0.0,0.0,0.0,0.0
1672947013235371494,53270,1672947013235128827,enu,-0.6546,0.0041,-0.0266,0.0,0.0,0.0,6.4e-05,0.0,0.0,0.0,0.0,0.0,0.0,6.4e-05,0.0,0.0,0.0,0.0,0.0,0.0,6.4e-05,0.0,0.0,0.0,0.0,0.0,0.0,0.0,0.0,0.0,0.0,0.0,0.0,0.0,0.0,0.0,0.0,0.0,0.0,0.0,0.0,0.0
1672947013245475052,53271,1672947013245252917,enu,-0.6568,0.0036,-0.0265,0.0,0.0,0.0,6.4e-05,0.0,0.0,0.0,0.0,0.0,0.0,6.4e-05,0.0,0.0,0.0,0.0,0.0,0.0,6.4e-05,0.0,0.0,0.0,0.0,0.0,0.0,0.0,0.0,0.0,0.0,0.0,0.0,0.0,0.0,0.0,0.0,0.0,0.0,0.0,0.0,0.0
1672947013255330465,53272,1672947013255113095,enu,-0.6595,0.0029,-0.0266,0.0,0.0,0.0,6.4e-05,0.0,0.0,0.0,0.0,0.0,0.0,6.4e-05,0.0,0.0,0.0,0.0,0.0,0.0,6.4e-05,0.0,0.0,0.0,0.0,0.0,0.0,0.0,0.0,0.0,0.0,0.0,0.0,0.0,0.0,0.0,0.0,0.0,0.0,0.0,0.0,0.0
1672947013265317425,53273,1672947013265106480,enu,-0.6617,0.0025,-0.0256,0.0,0.0,0.0,6.4e-05,0.0,0.0,0.0,0.0,0.0,0.0,6.4e-05,0.0,0.0,0.0,0.0,0.0,0.0,6.4e-05,0.0,0.0,0.0,0.0,0.0,0.0,0.0,0.0,0.0,0.0,0.0,0.0,0.0,0.0,0.0,0.0,0.0,0.0,0.0,0.0,0.0
1672947013275395635,53274,1672947013275168639,enu,-0.6636,0.0024,-0.025,0.0,0.0,0.0,6.4e-05,0.0,0.0,0.0,0.0,0.0,0.0,6.4e-05,0.0,0.0,0.0,0.0,0.0,0.0,6.4e-05,0.0,0.0,0.0,0.0,0.0,0.0,0.0,0.0,0.0,0.0,0.0,0.0,0.0,0.0,0.0,0.0,0.0,0.0,0.0,0.0,0.0
1672947013285316428,53275,1672947013285093560,enu,-0.6652,0.0021,-0.0245,0.0,0.0,0.0,6.4e-05,0.0,0.0,0.0,0.0,0.0,0.0,6.4e-05,0.0,0.0,0.0,0.0,0.0,0.0,6.4e-05,0.0,0.0,0.0,0.0,0.0,0.0,0.0,0.0,0.0,0.0,0.0,0.0,0.0,0.0,0.0,0.0,0.0,0.0,0.0,0.0,0.0
1672947013295323001,53276,1672947013295102296,enu,-0.6667,0.0024,-0.0245,0.0,0.0,0.0,6.4e-05,0.0,0.0,0.0,0.0,0.0,0.0,6.4e-05,0.0,0.0,0.0,0.0,0.0,0.0,6.4e-05,0.0,0.0,0.0,0.0,0.0,0.0,0.0,0.0,0.0,0.0,0.0,0.0,0.0,0.0,0.0,0.0,0.0,0.0,0.0,0.0,0.0
1672947013305406159,53277,1672947013305177198,enu,-0.668,0.0032,-0.0235,0.0,0.0,0.0,6.4e-05,0.0,0.0,0.0,0.0,0.0,0.0,6.4e-05,0.0,0.0,0.0,0.0,0.0,0.0,6.4e-05,0.0,0.0,0.0,0.0,0.0,0.0,0.0,0.0,0.0,0.0,0.0,0.0,0.0,0.0,0.0,0.0,0.0,0.0,0.0,0.0,0.0
1672947013315414069,53278,1672947013315202171,enu,-0.6687,0.0038,-0.0227,0.0,0.0,0.0,6.4e-05,0.0,0.0,0.0,0.0,0.0,0.0,6.4e-05,0.0,0.0,0.0,0.0,0.0,0.0,6.4e-05,0.0,0.0,0.0,0.0,0.0,0.0,0.0,0.0,0.0,0.0,0.0,0.0,0.0,0.0,0.0,0.0,0.0,0.0,0.0,0.0,0.0
1672947013325336495,53279,1672947013325109844,enu,-0.6694,0.0049,-0.0219,0.0,0.0,0.0,6.4e-05,0.0,0.0,0.0,0.0,0.0,0.0,6.4e-05,0.0,0.0,0.0,0.0,0.0,0.0,6.4e-05,0.0,0.0,0.0,0.0,0.0,0.0,0.0,0.0,0.0,0.0,0.0,0.0,0.0,0.0,0.0,0.0,0.0,0.0,0.0,0.0,0.0
1672947013335406562,53280,1672947013335165097,enu,-0.6701,0.0059,-0.0213,0.0,0.0,0.0,6.4e-05,0.0,0.0,0.0,0.0,0.0,0.0,6.4e-05,0.0,0.0,0.0,0.0,0.0,0.0,6.4e-05,0.0,0.0,0.0,0.0,0.0,0.0,0.0,0.0,0.0,0.0,0.0,0.0,0.0,0.0,0.0,0.0,0.0,0.0,0.0,0.0,0.0
1672947013345347146,53281,1672947013345115958,enu,-0.6707,0.007,-0.0205,0.0,0.0,0.0,6.4e-05,0.0,0.0,0.0,0.0,0.0,0.0,6.4e-05,0.0,0.0,0.0,0.0,0.0,0.0,6.4e-05,0.0,0.0,0.0,0.0,0.0,0.0,0.0,0.0,0.0,0.0,0.0,0.0,0.0,0.0,0.0,0.0,0.0,0.0,0.0,0.0,0.0
1672947013355391671,53282,1672947013355131466,enu,-0.6707,0.0081,-0.02,0.0,0.0,0.0,6.4e-05,0.0,0.0,0.0,0.0,0.0,0.0,6.4e-05,0.0,0.0,0.0,0.0,0.0,0.0,6.4e-05,0.0,0.0,0.0,0.0,0.0,0.0,0.0,0.0,0.0,0.0,0.0,0.0,0.0,0.0,0.0,0.0,0.0,0.0,0.0,0.0,0.0
1672947013365433473,53283,1672947013365168589,enu,-0.6708,0.0088,-0.0199,0.0,0.0,0.0,6.4e-05,0.0,0.0,0.0,0.0,0.0,0.0,6.4e-05,0.0,0.0,0.0,0.0,0.0,0.0,6.4e-05,0.0,0.0,0.0,0.0,0.0,0.0,0.0,0.0,0.0,0.0,0.0,0.0,0.0,0.0,0.0,0.0,0.0,0.0,0.0,0.0,0.0
1672947013375354532,53284,1672947013375101385,enu,-0.6709,0.0097,-0.0196,0.0,0.0,0.0,6.4e-05,0.0,0.0,0.0,0.0,0.0,0.0,6.4e-05,0.0,0.0,0.0,0.0,0.0,0.0,6.4e-05,0.0,0.0,0.0,0.0,0.0,0.0,0.0,0.0,0.0,0.0,0.0,0.0,0.0,0.0,0.0,0.0,0.0,0.0,0.0,0.0,0.0
1672947013385370097,53285,1672947013385109343,enu,-0.671,0.0103,-0.0187,0.0,0.0,0.0,6.4e-05,0.0,0.0,0.0,0.0,0.0,0.0,6.4e-05,0.0,0.0,0.0,0.0,0.0,0.0,6.4e-05,0.0,0.0,0.0,0.0,0.0,0.0,0.0,0.0,0.0,0.0,0.0,0.0,0.0,0.0,0.0,0.0,0.0,0.0,0.0,0.0,0.0
1672947013395465420,53286,1672947013395187484,enu,-0.6708,0.0102,-0.0181,0.0,0.0,0.0,6.4e-05,0.0,0.0,0.0,0.0,0.0,0.0,6.4e-05,0.0,0.0,0.0,0.0,0.0,0.0,6.4e-05,0.0,0.0,0.0,0.0,0.0,0.0,0.0,0.0,0.0,0.0,0.0,0.0,0.0,0.0,0.0,0.0,0.0,0.0,0.0,0.0,0.0
1672947013405379450,53287,1672947013405111315,enu,-0.6706,0.0103,-0.0179,0.0,0.0,0.0,6.4e-05,0.0,0.0,0.0,0.0,0.0,0.0,6.4e-05,0.0,0.0,0.0,0.0,0.0,0.0,6.4e-05,0.0,0.0,0.0,0.0,0.0,0.0,0.0,0.0,0.0,0.0,0.0,0.0,0.0,0.0,0.0,0.0,0.0,0.0,0.0,0.0,0.0
1672947013415363917,53288,1672947013415097240,enu,-0.6703,0.0096,-0.0176,0.0,0.0,0.0,6.4e-05,0.0,0.0,0.0,0.0,0.0,0.0,6.4e-05,0.0,0.0,0.0,0.0,0.0,0.0,6.4e-05,0.0,0.0,0.0,0.0,0.0,0.0,0.0,0.0,0.0,0.0,0.0,0.0,0.0,0.0,0.0,0.0,0.0,0.0,0.0,0.0,0.0
1672947013425418881,53289,1672947013425160051,enu,-0.6699,0.0094,-0.017,0.0,0.0,0.0,6.4e-05,0.0,0.0,0.0,0.0,0.0,0.0,6.4e-05,0.0,0.0,0.0,0.0,0.0,0.0,6.4e-05,0.0,0.0,0.0,0.0,0.0,0.0,0.0,0.0,0.0,0.0,0.0,0.0,0.0,0.0,0.0,0.0,0.0,0.0,0.0,0.0,0.0
1672947013435361502,53290,1672947013435093005,enu,-0.6693,0.0088,-0.0164,0.0,0.0,0.0,6.4e-05,0.0,0.0,0.0,0.0,0.0,0.0,6.4e-05,0.0,0.0,0.0,0.0,0.0,0.0,6.4e-05,0.0,0.0,0.0,0.0,0.0,0.0,0.0,0.0,0.0,0.0,0.0,0.0,0.0,0.0,0.0,0.0,0.0,0.0,0.0,0.0,0.0
1672947013445341647,53291,1672947013445091269,enu,-0.6691,0.0084,-0.0163,0.0,0.0,0.0,6.4e-05,0.0,0.0,0.0,0.0,0.0,0.0,6.4e-05,0.0,0.0,0.0,0.0,0.0,0.0,6.4e-05,0.0,0.0,0.0,0.0,0.0,0.0,0.0,0.0,0.0,0.0,0.0,0.0,0.0,0.0,0.0,0.0,0.0,0.0,0.0,0.0,0.0
1672947013455430723,53292,1672947013455160819,enu,-0.6685,0.008,-0.0161,0.0,0.0,0.0,6.4e-05,0.0,0.0,0.0,0.0,0.0,0.0,6.4e-05,0.0,0.0,0.0,0.0,0.0,0.0,6.4e-05,0.0,0.0,0.0,0.0,0.0,0.0,0.0,0.0,0.0,0.0,0.0,0.0,0.0,0.0,0.0,0.0,0.0,0.0,0.0,0.0,0.0
1672947013465395725,53293,1672947013465116980,enu,-0.6681,0.0074,-0.0159,0.0,0.0,0.0,6.4e-05,0.0,0.0,0.0,0.0,0.0,0.0,6.4e-05,0.0,0.0,0.0,0.0,0.0,0.0,6.4e-05,0.0,0.0,0.0,0.0,0.0,0.0,0.0,0.0,0.0,0.0,0.0,0.0,0.0,0.0,0.0,0.0,0.0,0.0,0.0,0.0,0.0
1672947013475350534,53294,1672947013475111668,enu,-0.6679,0.0075,-0.016,0.0,0.0,0.0,6.4e-05,0.0,0.0,0.0,0.0,0.0,0.0,6.4e-05,0.0,0.0,0.0,0.0,0.0,0.0,6.4e-05,0.0,0.0,0.0,0.0,0.0,0.0,0.0,0.0,0.0,0.0,0.0,0.0,0.0,0.0,0.0,0.0,0.0,0.0,0.0,0.0,0.0
1672947013485421916,53295,1672947013485155941,enu,-0.6677,0.0074,-0.0164,0.0,0.0,0.0,6.4e-05,0.0,0.0,0.0,0.0,0.0,0.0,6.4e-05,0.0,0.0,0.0,0.0,0.0,0.0,6.4e-05,0.0,0.0,0.0,0.0,0.0,0.0,0.0,0.0,0.0,0.0,0.0,0.0,0.0,0.0,0.0,0.0,0.0,0.0,0.0,0.0,0.0
1672947013495452743,53296,1672947013495190331,enu,-0.6678,0.0076,-0.0165,0.0,0.0,0.0,6.4e-05,0.0,0.0,0.0,0.0,0.0,0.0,6.4e-05,0.0,0.0,0.0,0.0,0.0,0.0,6.4e-05,0.0,0.0,0.0,0.0,0.0,0.0,0.0,0.0,0.0,0.0,0.0,0.0,0.0,0.0,0.0,0.0,0.0,0.0,0.0,0.0,0.0
1672947013505378583,53297,1672947013505110014,enu,-0.6672,0.0079,-0.0166,0.0,0.0,0.0,6.4e-05,0.0,0.0,0.0,0.0,0.0,0.0,6.4e-05,0.0,0.0,0.0,0.0,0.0,0.0,6.4e-05,0.0,0.0,0.0,0.0,0.0,0.0,0.0,0.0,0.0,0.0,0.0,0.0,0.0,0.0,0.0,0.0,0.0,0.0,0.0,0.0,0.0
1672947013515502273,53298,1672947013515239168,enu,-0.6667,0.0081,-0.0169,0.0,0.0,0.0,6.4e-05,0.0,0.0,0.0,0.0,0.0,0.0,6.4e-05,0.0,0.0,0.0,0.0,0.0,0.0,6.4e-05,0.0,0.0,0.0,0.0,0.0,0.0,0.0,0.0,0.0,0.0,0.0,0.0,0.0,0.0,0.0,0.0,0.0,0.0,0.0,0.0,0.0
1672947013525384445,53299,1672947013525121641,enu,-0.6668,0.0087,-0.0171,0.0,0.0,0.0,6.4e-05,0.0,0.0,0.0,0.0,0.0,0.0,6.4e-05,0.0,0.0,0.0,0.0,0.0,0.0,6.4e-05,0.0,0.0,0.0,0.0,0.0,0.0,0.0,0.0,0.0,0.0,0.0,0.0,0.0,0.0,0.0,0.0,0.0,0.0,0.0,0.0,0.0
1672947013535415033,53300,1672947013535148751,enu,-0.6666,0.0091,-0.0172,0.0,0.0,0.0,6.4e-05,0.0,0.0,0.0,0.0,0.0,0.0,6.4e-05,0.0,0.0,0.0,0.0,0.0,0.0,6.4e-05,0.0,0.0,0.0,0.0,0.0,0.0,0.0,0.0,0.0,0.0,0.0,0.0,0.0,0.0,0.0,0.0,0.0,0.0,0.0,0.0,0.0
1672947013545488461,53301,1672947013545238056,enu,-0.6666,0.0099,-0.0174,0.0,0.0,0.0,6.4e-05,0.0,0.0,0.0,0.0,0.0,0.0,6.4e-05,0.0,0.0,0.0,0.0,0.0,0.0,6.4e-05,0.0,0.0,0.0,0.0,0.0,0.0,0.0,0.0,0.0,0.0,0.0,0.0,0.0,0.0,0.0,0.0,0.0,0.0,0.0,0.0,0.0
1672947013555404866,53302,1672947013555140831,enu,-0.6665,0.0106,-0.0177,0.0,0.0,0.0,0.0001,0.0,0.0,0.0,0.0,0.0,0.0,0.0001,0.0,0.0,0.0,0.0,0.0,0.0,8.1e-05,0.0,0.0,0.0,0.0,0.0,0.0,0.0,0.0,0.0,0.0,0.0,0.0,0.0,0.0,0.0,0.0,0.0,0.0,0.0,0.0,0.0
1672947013565449867,53303,1672947013565207578,enu,-0.6662,0.0111,-0.0184,0.0,0.0,0.0,0.0001,0.0,0.0,0.0,0.0,0.0,0.0,0.0001,0.0,0.0,0.0,0.0,0.0,0.0,8.1e-05,0.0,0.0,0.0,0.0,0.0,0.0,0.0,0.0,0.0,0.0,0.0,0.0,0.0,0.0,0.0,0.0,0.0,0.0,0.0,0.0,0.0
1672947013575396079,53304,1672947013575139203,enu,-0.6659,0.0117,-0.019,0.0,0.0,0.0,0.0001,0.0,0.0,0.0,0.0,0.0,0.0,0.0001,0.0,0.0,0.0,0.0,0.0,0.0,8.1e-05,0.0,0.0,0.0,0.0,0.0,0.0,0.0,0.0,0.0,0.0,0.0,0.0,0.0,0.0,0.0,0.0,0.0,0.0,0.0,0.0,0.0
1672947013585353047,53305,1672947013585084248,enu,-0.666,0.0121,-0.019,0.0,0.0,0.0,0.0001,0.0,0.0,0.0,0.0,0.0,0.0,0.0001,0.0,0.0,0.0,0.0,0.0,0.0,8.1e-05,0.0,0.0,0.0,0.0,0.0,0.0,0.0,0.0,0.0,0.0,0.0,0.0,0.0,0.0,0.0,0.0,0.0,0.0,0.0,0.0,0.0
1672947013595342116,53306,1672947013595093349,enu,-0.6656,0.0122,-0.0193,0.0,0.0,0.0,0.0001,0.0,0.0,0.0,0.0,0.0,0.0,0.0001,0.0,0.0,0.0,0.0,0.0,0.0,8.1e-05,0.0,0.0,0.0,0.0,0.0,0.0,0.0,0.0,0.0,0.0,0.0,0.0,0.0,0.0,0.0,0.0,0.0,0.0,0.0,0.0,0.0
1672947013605451314,53307,1672947013605181516,enu,-0.6652,0.0122,-0.0198,0.0,0.0,0.0,0.0001,0.0,0.0,0.0,0.0,0.0,0.0,0.0001,0.0,0.0,0.0,0.0,0.0,0.0,8.1e-05,0.0,0.0,0.0,0.0,0.0,0.0,0.0,0.0,0.0,0.0,0.0,0.0,0.0,0.0,0.0,0.0,0.0,0.0,0.0,0.0,0.0
1672947013615354096,53308,1672947013615088472,enu,-0.6652,0.012,-0.0202,0.0,0.0,0.0,0.0001,0.0,0.0,0.0,0.0,0.0,0.0,0.0001,0.0,0.0,0.0,0.0,0.0,0.0,8.1e-05,0.0,0.0,0.0,0.0,0.0,0.0,0.0,0.0,0.0,0.0,0.0,0.0,0.0,0.0,0.0,0.0,0.0,0.0,0.0,0.0,0.0
1672947013625366181,53309,1672947013625112113,enu,-0.6647,0.0119,-0.02,0.0,0.0,0.0,0.0001,0.0,0.0,0.0,0.0,0.0,0.0,0.0001,0.0,0.0,0.0,0.0,0.0,0.0,8.1e-05,0.0,0.0,0.0,0.0,0.0,0.0,0.0,0.0,0.0,0.0,0.0,0.0,0.0,0.0,0.0,0.0,0.0,0.0,0.0,0.0,0.0
1672947013635443485,53310,1672947013635174367,enu,-0.6644,0.0117,-0.0199,0.0,0.0,0.0,0.0001,0.0,0.0,0.0,0.0,0.0,0.0,0.0001,0.0,0.0,0.0,0.0,0.0,0.0,8.1e-05,0.0,0.0,0.0,0.0,0.0,0.0,0.0,0.0,0.0,0.0,0.0,0.0,0.0,0.0,0.0,0.0,0.0,0.0,0.0,0.0,0.0
1672947013645368422,53311,1672947013645095883,enu,-0.664,0.0113,-0.0198,0.0,0.0,0.0,0.0001,0.0,0.0,0.0,0.0,0.0,0.0,0.0001,0.0,0.0,0.0,0.0,0.0,0.0,8.1e-05,0.0,0.0,0.0,0.0,0.0,0.0,0.0,0.0,0.0,0.0,0.0,0.0,0.0,0.0,0.0,0.0,0.0,0.0,0.0,0.0,0.0
1672947013655352017,53312,1672947013655102330,enu,-0.6633,0.0107,-0.0194,0.0,0.0,0.0,0.0001,0.0,0.0,0.0,0.0,0.0,0.0,0.0001,0.0,0.0,0.0,0.0,0.0,0.0,8.1e-05,0.0,0.0,0.0,0.0,0.0,0.0,0.0,0.0,0.0,0.0,0.0,0.0,0.0,0.0,0.0,0.0,0.0,0.0,0.0,0.0,0.0
1672947013665394218,53313,1672947013665165934,enu,-0.663,0.0101,-0.0187,0.0,0.0,0.0,0.0001,0.0,0.0,0.0,0.0,0.0,0.0,0.0001,0.0,0.0,0.0,0.0,0.0,0.0,8.1e-05,0.0,0.0,0.0,0.0,0.0,0.0,0.0,0.0,0.0,0.0,0.0,0.0,0.0,0.0,0.0,0.0,0.0,0.0,0.0,0.0,0.0
1672947013675356990,53314,1672947013675094078,enu,-0.6625,0.0094,-0.018,0.0,0.0,0.0,0.0001,0.0,0.0,0.0,0.0,0.0,0.0,0.0001,0.0,0.0,0.0,0.0,0.0,0.0,8.1e-05,0.0,0.0,0.0,0.0,0.0,0.0,0.0,0.0,0.0,0.0,0.0,0.0,0.0,0.0,0.0,0.0,0.0,0.0,0.0,0.0,0.0
1672947013685344569,53315,1672947013685091799,enu,-0.6618,0.0087,-0.0176,0.0,0.0,0.0,0.0001,0.0,0.0,0.0,0.0,0.0,0.0,0.0001,0.0,0.0,0.0,0.0,0.0,0.0,8.1e-05,0.0,0.0,0.0,0.0,0.0,0.0,0.0,0.0,0.0,0.0,0.0,0.0,0.0,0.0,0.0,0.0,0.0,0.0,0.0,0.0,0.0
1672947013695446883,53316,1672947013695188806,enu,-0.6611,0.0081,-0.0168,0.0,0.0,0.0,0.0001,0.0,0.0,0.0,0.0,0.0,0.0,0.0001,0.0,0.0,0.0,0.0,0.0,0.0,8.1e-05,0.0,0.0,0.0,0.0,0.0,0.0,0.0,0.0,0.0,0.0,0.0,0.0,0.0,0.0,0.0,0.0,0.0,0.0,0.0,0.0,0.0
1672947013705349137,53317,1672947013705087538,enu,-0.6599,0.0075,-0.016,0.0,0.0,0.0,0.0001,0.0,0.0,0.0,0.0,0.0,0.0,0.0001,0.0,0.0,0.0,0.0,0.0,0.0,8.1e-05,0.0,0.0,0.0,0.0,0.0,0.0,0.0,0.0,0.0,0.0,0.0,0.0,0.0,0.0,0.0,0.0,0.0,0.0,0.0,0.0,0.0
1672947013715357881,53318,1672947013715096064,enu,-0.6591,0.0068,-0.0153,0.0,0.0,0.0,0.0001,0.0,0.0,0.0,0.0,0.0,0.0,0.0001,0.0,0.0,0.0,0.0,0.0,0.0,8.1e-05,0.0,0.0,0.0,0.0,0.0,0.0,0.0,0.0,0.0,0.0,0.0,0.0,0.0,0.0,0.0,0.0,0.0,0.0,0.0,0.0,0.0
1672947013725393374,53319,1672947013725133545,enu,-0.6581,0.0063,-0.0148,0.0,0.0,0.0,0.0001,0.0,0.0,0.0,0.0,0.0,0.0,0.0001,0.0,0.0,0.0,0.0,0.0,0.0,8.1e-05,0.0,0.0,0.0,0.0,0.0,0.0,0.0,0.0,0.0,0.0,0.0,0.0,0.0,0.0,0.0,0.0,0.0,0.0,0.0,0.0,0.0
1672947013735354190,53320,1672947013735074726,enu,-0.6571,0.0058,-0.014,0.0,0.0,0.0,0.0001,0.0,0.0,0.0,0.0,0.0,0.0,0.0001,0.0,0.0,0.0,0.0,0.0,0.0,8.1e-05,0.0,0.0,0.0,0.0,0.0,0.0,0.0,0.0,0.0,0.0,0.0,0.0,0.0,0.0,0.0,0.0,0.0,0.0,0.0,0.0,0.0
1672947013745420305,53321,1672947013745166155,enu,-0.6561,0.0054,-0.0139,0.0,0.0,0.0,0.0001,0.0,0.0,0.0,0.0,0.0,0.0,0.0001,0.0,0.0,0.0,0.0,0.0,0.0,8.1e-05,0.0,0.0,0.0,0.0,0.0,0.0,0.0,0.0,0.0,0.0,0.0,0.0,0.0,0.0,0.0,0.0,0.0,0.0,0.0,0.0,0.0
1672947013755396282,53322,1672947013755136688,enu,-0.655,0.005,-0.0135,0.0,0.0,0.0,0.0001,0.0,0.0,0.0,0.0,0.0,0.0,0.0001,0.0,0.0,0.0,0.0,0.0,0.0,8.1e-05,0.0,0.0,0.0,0.0,0.0,0.0,0.0,0.0,0.0,0.0,0.0,0.0,0.0,0.0,0.0,0.0,0.0,0.0,0.0,0.0,0.0
1672947013765371802,53323,1672947013765105647,enu,-0.6539,0.0043,-0.013,0.0,0.0,0.0,0.0001,0.0,0.0,0.0,0.0,0.0,0.0,0.0001,0.0,0.0,0.0,0.0,0.0,0.0,8.1e-05,0.0,0.0,0.0,0.0,0.0,0.0,0.0,0.0,0.0,0.0,0.0,0.0,0.0,0.0,0.0,0.0,0.0,0.0,0.0,0.0,0.0
1672947013775383481,53324,1672947013775131650,enu,-0.6529,0.0041,-0.0127,0.0,0.0,0.0,0.0001,0.0,0.0,0.0,0.0,0.0,0.0,0.0001,0.0,0.0,0.0,0.0,0.0,0.0,8.1e-05,0.0,0.0,0.0,0.0,0.0,0.0,0.0,0.0,0.0,0.0,0.0,0.0,0.0,0.0,0.0,0.0,0.0,0.0,0.0,0.0,0.0
1672947013785317814,53325,1672947013785048404,enu,-0.6517,0.0038,-0.0126,0.0,0.0,0.0,0.0001,0.0,0.0,0.0,0.0,0.0,0.0,0.0001,0.0,0.0,0.0,0.0,0.0,0.0,8.1e-05,0.0,0.0,0.0,0.0,0.0,0.0,0.0,0.0,0.0,0.0,0.0,0.0,0.0,0.0,0.0,0.0,0.0,0.0,0.0,0.0,0.0
1672947013795286493,53326,1672947013795022050,enu,-0.6505,0.0033,-0.0126,0.0,0.0,0.0,0.0001,0.0,0.0,0.0,0.0,0.0,0.0,0.0001,0.0,0.0,0.0,0.0,0.0,0.0,8.1e-05,0.0,0.0,0.0,0.0,0.0,0.0,0.0,0.0,0.0,0.0,0.0,0.0,0.0,0.0,0.0,0.0,0.0,0.0,0.0,0.0,0.0
1672947013805363547,53327,1672947013805095996,enu,-0.6494,0.0029,-0.0123,0.0,0.0,0.0,0.0001,0.0,0.0,0.0,0.0,0.0,0.0,0.0001,0.0,0.0,0.0,0.0,0.0,0.0,8.1e-05,0.0,0.0,0.0,0.0,0.0,0.0,0.0,0.0,0.0,0.0,0.0,0.0,0.0,0.0,0.0,0.0,0.0,0.0,0.0,0.0,0.0
1672947013815502177,53328,1672947013815246018,enu,-0.6482,0.0028,-0.0121,0.0,0.0,0.0,0.0001,0.0,0.0,0.0,0.0,0.0,0.0,0.0001,0.0,0.0,0.0,0.0,0.0,0.0,8.1e-05,0.0,0.0,0.0,0.0,0.0,0.0,0.0,0.0,0.0,0.0,0.0,0.0,0.0,0.0,0.0,0.0,0.0,0.0,0.0,0.0,0.0
1672947013825345043,53329,1672947013825093203,enu,-0.6471,0.0029,-0.0121,0.0,0.0,0.0,0.0001,0.0,0.0,0.0,0.0,0.0,0.0,0.0001,0.0,0.0,0.0,0.0,0.0,0.0,8.1e-05,0.0,0.0,0.0,0.0,0.0,0.0,0.0,0.0,0.0,0.0,0.0,0.0,0.0,0.0,0.0,0.0,0.0,0.0,0.0,0.0,0.0
1672947013835382053,53330,1672947013835090138,enu,-0.6457,0.0031,-0.0121,0.0,0.0,0.0,0.0001,0.0,0.0,0.0,0.0,0.0,0.0,0.0001,0.0,0.0,0.0,0.0,0.0,0.0,8.1e-05,0.0,0.0,0.0,0.0,0.0,0.0,0.0,0.0,0.0,0.0,0.0,0.0,0.0,0.0,0.0,0.0,0.0,0.0,0.0,0.0,0.0
1672947013845334231,53331,1672947013845119976,enu,-0.6444,0.0033,-0.0121,0.0,0.0,0.0,0.0001,0.0,0.0,0.0,0.0,0.0,0.0,0.0001,0.0,0.0,0.0,0.0,0.0,0.0,8.1e-05,0.0,0.0,0.0,0.0,0.0,0.0,0.0,0.0,0.0,0.0,0.0,0.0,0.0,0.0,0.0,0.0,0.0,0.0,0.0,0.0,0.0
1672947013855368403,53332,1672947013855091371,enu,-0.6434,0.0036,-0.0125,0.0,0.0,0.0,0.0001,0.0,0.0,0.0,0.0,0.0,0.0,0.0001,0.0,0.0,0.0,0.0,0.0,0.0,8.1e-05,0.0,0.0,0.0,0.0,0.0,0.0,0.0,0.0,0.0,0.0,0.0,0.0,0.0,0.0,0.0,0.0,0.0,0.0,0.0,0.0,0.0
1672947013865291003,53333,1672947013865081819,enu,-0.6423,0.004,-0.0122,0.0,0.0,0.0,0.0001,0.0,0.0,0.0,0.0,0.0,0.0,0.0001,0.0,0.0,0.0,0.0,0.0,0.0,8.1e-05,0.0,0.0,0.0,0.0,0.0,0.0,0.0,0.0,0.0,0.0,0.0,0.0,0.0,0.0,0.0,0.0,0.0,0.0,0.0,0.0,0.0
1672947013875355985,53334,1672947013875132539,enu,-0.6411,0.0045,-0.0123,0.0,0.0,0.0,0.0001,0.0,0.0,0.0,0.0,0.0,0.0,0.0001,0.0,0.0,0.0,0.0,0.0,0.0,8.1e-05,0.0,0.0,0.0,0.0,0.0,0.0,0.0,0.0,0.0,0.0,0.0,0.0,0.0,0.0,0.0,0.0,0.0,0.0,0.0,0.0,0.0
1672947013885268013,53335,1672947013885061219,enu,-0.6397,0.0049,-0.0121,0.0,0.0,0.0,0.0001,0.0,0.0,0.0,0.0,0.0,0.0,0.0001,0.0,0.0,0.0,0.0,0.0,0.0,8.1e-05,0.0,0.0,0.0,0.0,0.0,0.0,0.0,0.0,0.0,0.0,0.0,0.0,0.0,0.0,0.0,0.0,0.0,0.0,0.0,0.0,0.0
1672947013895293746,53336,1672947013895088843,enu,-0.6383,0.0052,-0.0124,0.0,0.0,0.0,0.0001,0.0,0.0,0.0,0.0,0.0,0.0,0.0001,0.0,0.0,0.0,0.0,0.0,0.0,8.1e-05,0.0,0.0,0.0,0.0,0.0,0.0,0.0,0.0,0.0,0.0,0.0,0.0,0.0,0.0,0.0,0.0,0.0,0.0,0.0,0.0,0.0
1672947013905367383,53337,1672947013905126699,enu,-0.637,0.0055,-0.0125,0.0,0.0,0.0,0.0001,0.0,0.0,0.0,0.0,0.0,0.0,0.0001,0.0,0.0,0.0,0.0,0.0,0.0,8.1e-05,0.0,0.0,0.0,0.0,0.0,0.0,0.0,0.0,0.0,0.0,0.0,0.0,0.0,0.0,0.0,0.0,0.0,0.0,0.0,0.0,0.0
1672947013915302596,53338,1672947013915084592,enu,-0.636,0.0058,-0.0129,0.0,0.0,0.0,0.0001,0.0,0.0,0.0,0.0,0.0,0.0,0.0001,0.0,0.0,0.0,0.0,0.0,0.0,8.1e-05,0.0,0.0,0.0,0.0,0.0,0.0,0.0,0.0,0.0,0.0,0.0,0.0,0.0,0.0,0.0,0.0,0.0,0.0,0.0,0.0,0.0
1672947013925342190,53339,1672947013925087153,enu,-0.6346,0.006,-0.0133,0.0,0.0,0.0,0.0001,0.0,0.0,0.0,0.0,0.0,0.0,0.0001,0.0,0.0,0.0,0.0,0.0,0.0,8.1e-05,0.0,0.0,0.0,0.0,0.0,0.0,0.0,0.0,0.0,0.0,0.0,0.0,0.0,0.0,0.0,0.0,0.0,0.0,0.0,0.0,0.0
1672947013935386357,53340,1672947013935127515,enu,-0.6333,0.0061,-0.0137,0.0,0.0,0.0,0.0001,0.0,0.0,0.0,0.0,0.0,0.0,0.0001,0.0,0.0,0.0,0.0,0.0,0.0,8.1e-05,0.0,0.0,0.0,0.0,0.0,0.0,0.0,0.0,0.0,0.0,0.0,0.0,0.0,0.0,0.0,0.0,0.0,0.0,0.0,0.0,0.0
1672947013945328989,53341,1672947013945067370,enu,-0.6322,0.0065,-0.0141,0.0,0.0,0.0,0.0001,0.0,0.0,0.0,0.0,0.0,0.0,0.0001,0.0,0.0,0.0,0.0,0.0,0.0,8.1e-05,0.0,0.0,0.0,0.0,0.0,0.0,0.0,0.0,0.0,0.0,0.0,0.0,0.0,0.0,0.0,0.0,0.0,0.0,0.0,0.0,0.0
1672947013955345699,53342,1672947013955076690,enu,-0.6309,0.0067,-0.0149,0.0,0.0,0.0,0.0001,0.0,0.0,0.0,0.0,0.0,0.0,0.0001,0.0,0.0,0.0,0.0,0.0,0.0,8.1e-05,0.0,0.0,0.0,0.0,0.0,0.0,0.0,0.0,0.0,0.0,0.0,0.0,0.0,0.0,0.0,0.0,0.0,0.0,0.0,0.0,0.0
1672947013965346636,53343,1672947013965130097,enu,-0.6297,0.0069,-0.0155,0.0,0.0,0.0,0.0001,0.0,0.0,0.0,0.0,0.0,0.0,0.0001,0.0,0.0,0.0,0.0,0.0,0.0,8.1e-05,0.0,0.0,0.0,0.0,0.0,0.0,0.0,0.0,0.0,0.0,0.0,0.0,0.0,0.0,0.0,0.0,0.0,0.0,0.0,0.0,0.0
1672947013975263063,53344,1672947013975054875,enu,-0.6285,0.0071,-0.0157,0.0,0.0,0.0,0.0001,0.0,0.0,0.0,0.0,0.0,0.0,0.0001,0.0,0.0,0.0,0.0,0.0,0.0,8.1e-05,0.0,0.0,0.0,0.0,0.0,0.0,0.0,0.0,0.0,0.0,0.0,0.0,0.0,0.0,0.0,0.0,0.0,0.0,0.0,0.0,0.0
1672947013985367335,53345,1672947013985109947,enu,-0.6272,0.0072,-0.0158,0.0,0.0,0.0,0.0001,0.0,0.0,0.0,0.0,0.0,0.0,0.0001,0.0,0.0,0.0,0.0,0.0,0.0,8.1e-05,0.0,0.0,0.0,0.0,0.0,0.0,0.0,0.0,0.0,0.0,0.0,0.0,0.0,0.0,0.0,0.0,0.0,0.0,0.0,0.0,0.0
1672947013995479861,53346,1672947013995251391,enu,-0.6261,0.0076,-0.0164,0.0,0.0,0.0,0.0001,0.0,0.0,0.0,0.0,0.0,0.0,0.0001,0.0,0.0,0.0,0.0,0.0,0.0,8.1e-05,0.0,0.0,0.0,0.0,0.0,0.0,0.0,0.0,0.0,0.0,0.0,0.0,0.0,0.0,0.0,0.0,0.0,0.0,0.0,0.0,0.0
1672947014005293184,53347,1672947014005049288,enu,-0.6252,0.0077,-0.0168,0.0,0.0,0.0,0.0001,0.0,0.0,0.0,0.0,0.0,0.0,0.0001,0.0,0.0,0.0,0.0,0.0,0.0,8.1e-05,0.0,0.0,0.0,0.0,0.0,0.0,0.0,0.0,0.0,0.0,0.0,0.0,0.0,0.0,0.0,0.0,0.0,0.0,0.0,0.0,0.0
1672947014015379740,53348,1672947014015147011,enu,-0.6239,0.0079,-0.0165,0.0,0.0,0.0,0.0001,0.0,0.0,0.0,0.0,0.0,0.0,0.0001,0.0,0.0,0.0,0.0,0.0,0.0,8.1e-05,0.0,0.0,0.0,0.0,0.0,0.0,0.0,0.0,0.0,0.0,0.0,0.0,0.0,0.0,0.0,0.0,0.0,0.0,0.0,0.0,0.0
1672947014025410084,53349,1672947014025151389,enu,-0.6228,0.0079,-0.0163,0.0,0.0,0.0,0.0001,0.0,0.0,0.0,0.0,0.0,0.0,0.0001,0.0,0.0,0.0,0.0,0.0,0.0,8.1e-05,0.0,0.0,0.0,0.0,0.0,0.0,0.0,0.0,0.0,0.0,0.0,0.0,0.0,0.0,0.0,0.0,0.0,0.0,0.0,0.0,0.0
1672947014035355515,53350,1672947014035113142,enu,-0.6217,0.0077,-0.0162,0.0,0.0,0.0,0.0001,0.0,0.0,0.0,0.0,0.0,0.0,0.0001,0.0,0.0,0.0,0.0,0.0,0.0,8.1e-05,0.0,0.0,0.0,0.0,0.0,0.0,0.0,0.0,0.0,0.0,0.0,0.0,0.0,0.0,0.0,0.0,0.0,0.0,0.0,0.0,0.0
1672947014045397022,53351,1672947014045130768,enu,-0.6203,0.0074,-0.0162,0.0,0.0,0.0,0.0001,0.0,0.0,0.0,0.0,0.0,0.0,0.0001,0.0,0.0,0.0,0.0,0.0,0.0,8.1e-05,0.0,0.0,0.0,0.0,0.0,0.0,0.0,0.0,0.0,0.0,0.0,0.0,0.0,0.0,0.0,0.0,0.0,0.0,0.0,0.0,0.0
1672947014055427145,53352,1672947014055180634,enu,-0.6192,0.0067,-0.0158,0.0,0.0,0.0,0.0001,0.0,0.0,0.0,0.0,0.0,0.0,0.0001,0.0,0.0,0.0,0.0,0.0,0.0,8.1e-05,0.0,0.0,0.0,0.0,0.0,0.0,0.0,0.0,0.0,0.0,0.0,0.0,0.0,0.0,0.0,0.0,0.0,0.0,0.0,0.0,0.0
1672947014065376142,53353,1672947014065155281,enu,-0.6181,0.0062,-0.0161,0.0,0.0,0.0,0.0001,0.0,0.0,0.0,0.0,0.0,0.0,0.0001,0.0,0.0,0.0,0.0,0.0,0.0,8.1e-05,0.0,0.0,0.0,0.0,0.0,0.0,0.0,0.0,0.0,0.0,0.0,0.0,0.0,0.0,0.0,0.0,0.0,0.0,0.0,0.0,0.0
1672947014075446154,53354,1672947014075194098,enu,-0.617,0.0056,-0.0164,0.0,0.0,0.0,0.0001,0.0,0.0,0.0,0.0,0.0,0.0,0.0001,0.0,0.0,0.0,0.0,0.0,0.0,8.1e-05,0.0,0.0,0.0,0.0,0.0,0.0,0.0,0.0,0.0,0.0,0.0,0.0,0.0,0.0,0.0,0.0,0.0,0.0,0.0,0.0,0.0
1672947014085397469,53355,1672947014085126995,enu,-0.616,0.0053,-0.017,0.0,0.0,0.0,0.0001,0.0,0.0,0.0,0.0,0.0,0.0,0.0001,0.0,0.0,0.0,0.0,0.0,0.0,8.1e-05,0.0,0.0,0.0,0.0,0.0,0.0,0.0,0.0,0.0,0.0,0.0,0.0,0.0,0.0,0.0,0.0,0.0,0.0,0.0,0.0,0.0
1672947014095314403,53356,1672947014095075568,enu,-0.6149,0.0052,-0.017,0.0,0.0,0.0,0.0001,0.0,0.0,0.0,0.0,0.0,0.0,0.0001,0.0,0.0,0.0,0.0,0.0,0.0,8.1e-05,0.0,0.0,0.0,0.0,0.0,0.0,0.0,0.0,0.0,0.0,0.0,0.0,0.0,0.0,0.0,0.0,0.0,0.0,0.0,0.0,0.0
1672947014105379190,53357,1672947014105118090,enu,-0.6136,0.0049,-0.0169,0.0,0.0,0.0,0.0001,0.0,0.0,0.0,0.0,0.0,0.0,0.0001,0.0,0.0,0.0,0.0,0.0,0.0,8.1e-05,0.0,0.0,0.0,0.0,0.0,0.0,0.0,0.0,0.0,0.0,0.0,0.0,0.0,0.0,0.0,0.0,0.0,0.0,0.0,0.0,0.0
1672947014115311535,53358,1672947014115060918,enu,-0.6127,0.0048,-0.0171,0.0,0.0,0.0,0.0001,0.0,0.0,0.0,0.0,0.0,0.0,0.0001,0.0,0.0,0.0,0.0,0.0,0.0,8.1e-05,0.0,0.0,0.0,0.0,0.0,0.0,0.0,0.0,0.0,0.0,0.0,0.0,0.0,0.0,0.0,0.0,0.0,0.0,0.0,0.0,0.0
