%time,field.header.seq,field.header.stamp,field.header.frame_id,field.status.status,field.status.service,field.latitude,field.longitude,field.altitude,field.position_covariance0,field.position_covariance1,field.position_covariance2,field.position_covariance3,field.position_covariance4,field.position_covariance5,field.position_covariance6,field.position_covariance7,field.position_covariance8,field.position_covariance_type
1672947276662443224,270857,1672947276662653920,gps,2,1,42.2999491945,-83.6985318626,270.296966553,0.0009,0.0,0.0,0.0,0.0009,0.0,0.0,0.0,0.0049,2
1672947276682124251,270858,1672947276682660115,gps,2,1,42.2999491992,-83.6985318519,270.296905518,0.0009,0.0,0.0,0.0,0.0009,0.0,0.0,0.0,0.0049,2
1672947276702496783,270859,1672947276702621816,gps,2,1,42.2999492042,-83.6985318599,270.296966553,0.0009,0.0,0.0,0.0,0.0009,0.0,0.0,0.0,0.0049,2
1672947276722237481,270860,1672947276722644347,gps,2,1,42.2999492091,-83.6985318674,270.297027588,0.0009,0.0,0.0,0.0,0.0009,0.0,0.0,0.0,0.0049,2
1672947276742245720,270861,1672947276742690507,gps,2,1,42.2999492151,-83.6985318572,270.296966553,0.0009,0.0,0.0,0.0,0.0009,0.0,0.0,0.0,0.0049,2
1672947276762411681,270862,1672947276762623148,gps,2,1,42.2999492214,-83.6985318646,270.297058105,0.0009,0.0,0.0,0.0,0.0009,0.0,0.0,0.0,0.0049,2
1672947276782066627,270863,1672947276782649107,gps,2,1,42.2999492279,-83.6985318714,270.297119141,0.0009,0.0,0.0,0.0,0.0009,0.0,0.0,0.0,0.0049,2
1672947276802448436,270864,1672947276802651074,gps,2,1,42.2999492353,-83.6985318618,270.297088623,0.0009,0.0,0.0,0.0,0.0009,0.0,0.0,0.0,0.0049,2
1672947276822589954,270865,1672947276822613438,gps,2,1,42.2999492428,-83.698531871,270.297119141,0.0009,0.0,0.0,0.0,0.0009,0.0,0.0,0.0,0.0049,2
1672947276842220597,270866,1672947276842595943,gps,2,1,42.2999492504,-83.6985318796,270.297180176,0.0009,0.0,0.0,0.0,0.0009,0.0,0.0,0.0,0.0049,2
1672947276862333343,270867,1672947276862675894,gps,2,1,42.2999492598,-83.6985318707,270.297149658,0.0009,0.0,0.0,0.0,0.0009,0.0,0.0,0.0,0.0049,2
1672947276882205462,270868,1672947276882718988,gps,2,1,42.299949269,-83.6985318792,270.297210693,0.0009,0.0,0.0,0.0,0.0009,0.0,0.0,0.0,0.0049,2
1672947276902330530,270869,1672947276902570818,gps,2,1,42.2999492769,-83.6985318883,270.297302246,0.0009,0.0,0.0,0.0,0.0009,0.0,0.0,0.0,0.0049,2
1672947276921942605,270870,1672947276922597077,gps,2,1,42.2999492879,-83.69853188,270.297271729,0.0009,0.0,0.0,0.0,0.0009,0.0,0.0,0.0,0.0049,2
1672947276941914006,270871,1672947276942657550,gps,2,1,42.299949297,-83.6985318891,270.297363281,0.0009,0.0,0.0,0.0,0.0009,0.0,0.0,0.0,0.0049,2
1672947276962268329,270872,1672947276962571283,gps,2,1,42.2999493076,-83.6985318991,270.297424316,0.0009,0.0,0.0,0.0,0.0009,0.0,0.0,0.0,0.0049,2
1672947276982221832,270873,1672947276982638060,gps,2,1,42.2999493199,-83.6985318915,270.297424316,0.0009,0.0,0.0,0.0,0.0009,0.0,0.0,0.0,0.0049,2
1672947277002520150,270874,1672947277002736161,gps,2,1,42.2999493314,-83.6985319015,270.297485352,0.0009,0.0,0.0,0.0,0.0009,0.0,0.0,0.0,0.0049,2
1672947277022320536,270875,1672947277022661497,gps,2,1,42.2999493429,-83.6985319155,270.297637939,0.0009,0.0,0.0,0.0,0.0009,0.0,0.0,0.0,0.0049,2
1672947277042499580,270876,1672947277042657331,gps,2,1,42.2999493572,-83.6985319089,270.297637939,0.0009,0.0,0.0,0.0,0.0009,0.0,0.0,0.0,0.0049,2
1672947277062488239,270877,1672947277062850748,gps,2,1,42.2999493705,-83.6985319232,270.29776001,0.0009,0.0,0.0,0.0,0.0009,0.0,0.0,0.0,0.0049,2
1672947277082413091,270878,1672947277082671104,gps,2,1,42.2999493835,-83.6985319375,270.297943115,0.0009,0.0,0.0,0.0,0.0009,0.0,0.0,0.0,0.0049,2
1672947277102299633,270879,1672947277102686983,gps,2,1,42.2999493993,-83.6985319317,270.297943115,0.0009,0.0,0.0,0.0,0.0009,0.0,0.0,0.0,0.0049,2
1672947277122444031,270880,1672947277122744688,gps,2,1,42.299949414,-83.6985319461,270.298095703,0.0009,0.0,0.0,0.0,0.0009,0.0,0.0,0.0,0.0049,2
1672947277142079672,270881,1672947277142653972,gps,2,1,42.299949429,-83.69853196,270.298248291,0.0009,0.0,0.0,0.0,0.0009,0.0,0.0,0.0,0.0049,2
1672947277162363009,270882,1672947277162734652,gps,2,1,42.2999494462,-83.6985319549,270.298248291,0.0009,0.0,0.0,0.0,0.0009,0.0,0.0,0.0,0.0049,2
1672947277182364065,270883,1672947277182718146,gps,2,1,42.2999494625,-83.6985319697,270.298461914,0.0009,0.0,0.0,0.0,0.0009,0.0,0.0,0.0,0.0049,2
1672947277202164693,270884,1672947277202591992,gps,2,1,42.2999494789,-83.6985319839,270.29864502,0.0009,0.0,0.0,0.0,0.0009,0.0,0.0,0.0,0.0049,2
1672947277222375001,270885,1672947277222651472,gps,2,1,42.2999494978,-83.6985319794,270.298675537,0.0009,0.0,0.0,0.0,0.0009,0.0,0.0,0.0,0.0049,2
1672947277241785972,270886,1672947277242558221,gps,2,1,42.2999495161,-83.6985319936,270.298858643,0.0009,0.0,0.0,0.0,0.0009,0.0,0.0,0.0,0.0049,2
1672947277262178059,270887,1672947277262614498,gps,2,1,42.2999495342,-83.698532007,270.299072266,0.0009,0.0,0.0,0.0,0.0009,0.0,0.0,0.0,0.0049,2
1672947277282141287,270888,1672947277282647883,gps,2,1,42.2999495549,-83.6985320032,270.299102783,0.0009,0.0,0.0,0.0,0.0009,0.0,0.0,0.0,0.0049,2
1672947277302320790,270889,1672947277302581703,gps,2,1,42.2999495747,-83.6985320179,270.299224854,0.0009,0.0,0.0,0.0,0.0009,0.0,0.0,0.0,0.0049,2
1672947277322365371,270890,1672947277322591109,gps,2,1,42.2999495947,-83.6985320321,270.299346924,0.0009,0.0,0.0,0.0,0.0009,0.0,0.0,0.0,0.0049,2
1672947277341979351,270891,1672947277342636487,gps,2,1,42.299949617,-83.698532029,270.299407959,0.0009,0.0,0.0,0.0,0.0009,0.0,0.0,0.0,0.0049,2
1672947277362260190,270892,1672947277362558025,gps,2,1,42.2999496386,-83.6985320434,270.299530029,0.0009,0.0,0.0,0.0,0.0009,0.0,0.0,0.0,0.0049,2
1672947277382284002,270893,1672947277382616026,gps,2,1,42.2999496605,-83.6985320571,270.2996521,0.0009,0.0,0.0,0.0,0.0009,0.0,0.0,0.0,0.0049,2
1672947277402312723,270894,1672947277402721545,gps,2,1,42.2999496845,-83.6985320548,270.299682617,0.0009,0.0,0.0,0.0,0.0009,0.0,0.0,0.0,0.0049,2
1672947277422235166,270895,1672947277422646276,gps,2,1,42.2999497072,-83.6985320694,270.29989624,0.0009,0.0,0.0,0.0,0.0009,0.0,0.0,0.0,0.0049,2
1672947277442359713,270896,1672947277442613259,gps,2,1,42.29994973,-83.6985320834,270.300079346,0.0009,0.0,0.0,0.0,0.0009,0.0,0.0,0.0,0.0049,2
1672947277462263792,270897,1672947277462616595,gps,2,1,42.2999497555,-83.6985320819,270.300140381,0.0009,0.0,0.0,0.0,0.0009,0.0,0.0,0.0,0.0049,2
1672947277481931326,270898,1672947277482601722,gps,2,1,42.2999497799,-83.698532096,270.300354004,0.0009,0.0,0.0,0.0,0.0009,0.0,0.0,0.0,0.0049,2
1672947277502395727,270899,1672947277502584857,gps,2,1,42.299949805,-83.6985321112,270.300476074,0.0009,0.0,0.0,0.0,0.0009,0.0,0.0,0.0,0.0049,2
1672947277522557248,270900,1672947277522748675,gps,2,1,42.2999498321,-83.6985321104,270.300537109,0.0009,0.0,0.0,0.0,0.0009,0.0,0.0,0.0,0.0049,2
1672947277542254414,270901,1672947277542804134,gps,2,1,42.2999498582,-83.6985321307,270.300689697,0.0009,0.0,0.0,0.0,0.0009,0.0,0.0,0.0,0.0049,2
1672947277562509668,270902,1672947277562730893,gps,2,1,42.2999498822,-83.6985321517,270.300842285,0.0009,0.0,0.0,0.0,0.0009,0.0,0.0,0.0,0.0049,2
1672947277582423399,270903,1672947277582735305,gps,2,1,42.2999499106,-83.6985321516,270.30090332,0.0009,0.0,0.0,0.0,0.0009,0.0,0.0,0.0,0.0049,2
1672947277602330350,270904,1672947277602645389,gps,2,1,42.2999499361,-83.6985321724,270.301086426,0.0009,0.0,0.0,0.0,0.0009,0.0,0.0,0.0,0.0049,2
1672947277622000035,270905,1672947277622557601,gps,2,1,42.2999499618,-83.6985321926,270.301208496,0.0009,0.0,0.0,0.0,0.0009,0.0,0.0,0.0,0.0049,2
1672947277642276495,270906,1672947277642625992,gps,2,1,42.2999499916,-83.6985321931,270.301300049,0.0009,0.0,0.0,0.0,0.0009,0.0,0.0,0.0,0.0049,2
1672947277662215519,270907,1672947277662566702,gps,2,1,42.2999500188,-83.6985322132,270.301452637,0.0009,0.0,0.0,0.0,0.0009,0.0,0.0,0.0,0.0049,2
1672947277682215482,270908,1672947277682654711,gps,2,1,42.299950046,-83.6985322326,270.301605225,0.0009,0.0,0.0,0.0,0.0009,0.0,0.0,0.0,0.0049,2
1672947277702385964,270909,1672947277702623050,gps,2,1,42.2999500772,-83.6985322338,270.301696777,0.0009,0.0,0.0,0.0,0.0009,0.0,0.0,0.0,0.0049,2
1672947277722341524,270910,1672947277722570275,gps,2,1,42.299950107,-83.6985322539,270.3019104,0.0009,0.0,0.0,0.0,0.0009,0.0,0.0,0.0,0.0049,2
1672947277742362594,270911,1672947277742625622,gps,2,1,42.2999501367,-83.6985322734,270.302124023,0.0009,0.0,0.0,0.0,0.0009,0.0,0.0,0.0,0.0049,2
1672947277762133421,270912,1672947277762732711,gps,2,1,42.2999501695,-83.6985322754,270.302215576,0.001089,0.0,0.0,0.0,0.001089,0.0,0.0,0.0,0.005184,2
1672947277782577960,270913,1672947277782635747,gps,2,1,42.2999502011,-83.698532295,270.302459717,0.001089,0.0,0.0,0.0,0.001089,0.0,0.0,0.0,0.005184,2
1672947277802526719,270914,1672947277802590866,gps,2,1,42.2999502325,-83.6985323154,270.302734375,0.001089,0.0,0.0,0.0,0.001089,0.0,0.0,0.0,0.005184,2
1672947277822271110,270915,1672947277822674066,gps,2,1,42.2999502668,-83.6985323182,270.302825928,0.001089,0.0,0.0,0.0,0.001089,0.0,0.0,0.0,0.005184,2
1672947277842167853,270916,1672947277842628744,gps,2,1,42.2999503,-83.6985323388,270.303100586,0.001089,0.0,0.0,0.0,0.001089,0.0,0.0,0.0,0.005184,2
1672947277862529264,270917,1672947277862661547,gps,2,1,42.299950333,-83.6985323586,270.303375244,0.001089,0.0,0.0,0.0,0.001089,0.0,0.0,0.0,0.005184,2
1672947277882523314,270918,1672947277882670388,gps,2,1,42.2999503688,-83.6985323621,270.303466797,0.001089,0.0,0.0,0.0,0.001089,0.0,0.0,0.0,0.005184,2
1672947277901982807,270919,1672947277902536274,gps,2,1,42.299950403,-83.6985323833,270.303619385,0.001089,0.0,0.0,0.0,0.001089,0.0,0.0,0.0,0.005184,2
1672947277922001340,270920,1672947277922547205,gps,2,1,42.2999504375,-83.6985324041,270.303771973,0.001089,0.0,0.0,0.0,0.001089,0.0,0.0,0.0,0.005184,2
1672947277942408221,270921,1672947277942609256,gps,2,1,42.2999504745,-83.6985324081,270.303863525,0.001089,0.0,0.0,0.0,0.001089,0.0,0.0,0.0,0.005184,2
1672947277962364768,270922,1672947277962610220,gps,2,1,42.29995051,-83.6985324284,270.304046631,0.001089,0.0,0.0,0.0,0.001089,0.0,0.0,0.0,0.005184,2
1672947277982062759,270923,1672947277982636933,gps,2,1,42.2999505454,-83.6985324501,270.304229736,0.001089,0.0,0.0,0.0,0.001089,0.0,0.0,0.0,0.005184,2
1672947278002447959,270924,1672947278002725658,gps,2,1,42.2999505836,-83.6985324546,270.304321289,0.001089,0.0,0.0,0.0,0.001089,0.0,0.0,0.0,0.005184,2
1672947278022408098,270925,1672947278022723786,gps,2,1,42.2999506201,-83.698532476,270.304504395,0.001089,0.0,0.0,0.0,0.001089,0.0,0.0,0.0,0.005184,2
1672947278042047786,270926,1672947278042669635,gps,2,1,42.2999506557,-83.698532502,270.304748535,0.001089,0.0,0.0,0.0,0.001089,0.0,0.0,0.0,0.005184,2
1672947278062532216,270927,1672947278062882257,gps,2,1,42.2999506955,-83.6985325073,270.304840088,0.001089,0.0,0.0,0.0,0.001089,0.0,0.0,0.0,0.005184,2
1672947278082334662,270928,1672947278082665086,gps,2,1,42.2999507328,-83.6985325333,270.305084229,0.001089,0.0,0.0,0.0,0.001089,0.0,0.0,0.0,0.005184,2
1672947278102355230,270929,1672947278102611661,gps,2,1,42.2999507699,-83.6985325597,270.305358887,0.001089,0.0,0.0,0.0,0.001089,0.0,0.0,0.0,0.005184,2
1672947278122186296,270930,1672947278122711732,gps,2,1,42.299950811,-83.6985325656,270.305480957,0.001089,0.0,0.0,0.0,0.001089,0.0,0.0,0.0,0.005184,2
1672947278142094301,270931,1672947278142595245,gps,2,1,42.2999508497,-83.698532592,270.305725098,0.001089,0.0,0.0,0.0,0.001089,0.0,0.0,0.0,0.005184,2
1672947278162466801,270932,1672947278162627731,gps,2,1,42.2999508889,-83.6985326178,270.305999756,0.001089,0.0,0.0,0.0,0.001089,0.0,0.0,0.0,0.005184,2
1672947278182462352,270933,1672947278182679820,gps,2,1,42.2999509312,-83.6985326243,270.306121826,0.001089,0.0,0.0,0.0,0.001089,0.0,0.0,0.0,0.005184,2
1672947278202244320,270934,1672947278202565161,gps,2,1,42.2999509713,-83.6985326507,270.306365967,0.001089,0.0,0.0,0.0,0.001089,0.0,0.0,0.0,0.005184,2
1672947278222508293,270935,1672947278222628948,gps,2,1,42.2999510112,-83.6985326763,270.306640625,0.001089,0.0,0.0,0.0,0.001089,0.0,0.0,0.0,0.005184,2
1672947278242361052,270936,1672947278242653106,gps,2,1,42.299951055,-83.6985326834,270.306762695,0.001089,0.0,0.0,0.0,0.001089,0.0,0.0,0.0,0.005184,2
1672947278262291688,270937,1672947278262639427,gps,2,1,42.2999510966,-83.698532709,270.307006836,0.001089,0.0,0.0,0.0,0.001089,0.0,0.0,0.0,0.005184,2
1672947278282256880,270938,1672947278282650487,gps,2,1,42.2999511386,-83.698532734,270.307250977,0.001089,0.0,0.0,0.0,0.001089,0.0,0.0,0.0,0.005184,2
1672947278302522948,270939,1672947278302739681,gps,2,1,42.2999511838,-83.6985327417,270.307373047,0.001089,0.0,0.0,0.0,0.001089,0.0,0.0,0.0,0.005184,2
1672947278322263217,270940,1672947278322537525,gps,2,1,42.2999512267,-83.6985327686,270.307617188,0.001089,0.0,0.0,0.0,0.001089,0.0,0.0,0.0,0.005184,2
1672947278341915736,270941,1672947278342575174,gps,2,1,42.2999512697,-83.6985327948,270.307830811,0.001089,0.0,0.0,0.0,0.001089,0.0,0.0,0.0,0.005184,2
1672947278362310824,270942,1672947278362648453,gps,2,1,42.2999513162,-83.6985328031,270.307952881,0.001089,0.0,0.0,0.0,0.001089,0.0,0.0,0.0,0.005184,2
1672947278382361230,270943,1672947278382665630,gps,2,1,42.2999513607,-83.698532829,270.308227539,0.001089,0.0,0.0,0.0,0.001089,0.0,0.0,0.0,0.005184,2
1672947278402219468,270944,1672947278402606190,gps,2,1,42.2999514057,-83.6985328548,270.308532715,0.001089,0.0,0.0,0.0,0.001089,0.0,0.0,0.0,0.005184,2
1672947278422472734,270945,1672947278422666370,gps,2,1,42.2999514537,-83.6985328637,270.308685303,0.001089,0.0,0.0,0.0,0.001089,0.0,0.0,0.0,0.005184,2
1672947278442505193,270946,1672947278442673938,gps,2,1,42.2999515001,-83.6985328893,270.308990479,0.001089,0.0,0.0,0.0,0.001089,0.0,0.0,0.0,0.005184,2
1672947278462350814,270947,1672947278462572741,gps,2,1,42.2999515455,-83.6985329171,270.309265137,0.001089,0.0,0.0,0.0,0.001089,0.0,0.0,0.0,0.005184,2
1672947278481947805,270948,1672947278482521041,gps,2,1,42.2999515946,-83.6985329264,270.309417725,0.001089,0.0,0.0,0.0,0.001089,0.0,0.0,0.0,0.005184,2
1672947278501965432,270949,1672947278502544477,gps,2,1,42.2999516414,-83.698532954,270.309661865,0.001089,0.0,0.0,0.0,0.001089,0.0,0.0,0.0,0.005184,2
1672947278522375192,270950,1672947278522710664,gps,2,1,42.2999516883,-83.698532981,270.309906006,0.001089,0.0,0.0,0.0,0.001089,0.0,0.0,0.0,0.005184,2
1672947278542288978,270951,1672947278542755614,gps,2,1,42.2999517386,-83.6985329911,270.310058594,0.001089,0.0,0.0,0.0,0.001089,0.0,0.0,0.0,0.005184,2
1672947278562360891,270952,1672947278562680036,gps,2,1,42.2999517861,-83.6985330235,270.310272217,0.001089,0.0,0.0,0.0,0.001089,0.0,0.0,0.0,0.005184,2
1672947278582365294,270953,1672947278582693518,gps,2,1,42.2999518336,-83.6985330552,270.31048584,0.001089,0.0,0.0,0.0,0.001089,0.0,0.0,0.0,0.005184,2
1672947278602567149,270954,1672947278602724434,gps,2,1,42.2999518849,-83.6985330662,270.310638428,0.001089,0.0,0.0,0.0,0.001089,0.0,0.0,0.0,0.005184,2
1672947278622302326,270955,1672947278622629496,gps,2,1,42.299951934,-83.6985330993,270.310974121,0.001089,0.0,0.0,0.0,0.001089,0.0,0.0,0.0,0.005184,2
1672947278642195027,270956,1672947278642561706,gps,2,1,42.2999519832,-83.6985331316,270.311279297,0.001089,0.0,0.0,0.0,0.001089,0.0,0.0,0.0,0.005184,2
1672947278662276159,270957,1672947278662657433,gps,2,1,42.2999520359,-83.6985331436,270.311431885,0.001089,0.0,0.0,0.0,0.001089,0.0,0.0,0.0,0.005184,2
1672947278682225967,270958,1672947278682639887,gps,2,1,42.299952087,-83.698533176,270.311706543,0.001089,0.0,0.0,0.0,0.001089,0.0,0.0,0.0,0.005184,2
1672947278702033165,270959,1672947278702655381,gps,2,1,42.2999521378,-83.6985332077,270.311920166,0.001089,0.0,0.0,0.0,0.001089,0.0,0.0,0.0,0.005184,2
1672947278721974416,270960,1672947278722621458,gps,2,1,42.2999521929,-83.6985332209,270.312042236,0.001089,0.0,0.0,0.0,0.001089,0.0,0.0,0.0,0.005184,2
1672947278742351570,270961,1672947278742638866,gps,2,1,42.2999522468,-83.6985332532,270.312225342,0.001089,0.0,0.0,0.0,0.001089,0.0,0.0,0.0,0.005184,2
1672947278761978323,270962,1672947278762580159,gps,2,1,42.2999522997,-83.6985332866,270.31237793,0.001089,0.0,0.0,0.0,0.001089,0.0,0.0,0.0,0.005184,2
1672947278781926009,270963,1672947278782624951,gps,2,1,42.2999523584,-83.6985333013,270.312530518,0.001089,0.0,0.0,0.0,0.001089,0.0,0.0,0.0,0.005184,2
1672947278802326845,270964,1672947278802620672,gps,2,1,42.2999524158,-83.6985333355,270.312713623,0.001089,0.0,0.0,0.0,0.001089,0.0,0.0,0.0,0.005184,2
1672947278822327170,270965,1672947278822586331,gps,2,1,42.2999524734,-83.6985333691,270.312896729,0.001089,0.0,0.0,0.0,0.001089,0.0,0.0,0.0,0.005184,2
1672947278842231612,270966,1672947278842665228,gps,2,1,42.2999525373,-83.6985333855,270.313049316,0.001089,0.0,0.0,0.0,0.001089,0.0,0.0,0.0,0.005184,2
1672947278861906735,270967,1672947278862549584,gps,2,1,42.2999526009,-83.6985334205,270.313232422,0.001089,0.0,0.0,0.0,0.001089,0.0,0.0,0.0,0.005184,2
1672947278882361959,270968,1672947278882601814,gps,2,1,42.2999526649,-83.698533455,270.313446045,0.001089,0.0,0.0,0.0,0.001089,0.0,0.0,0.0,0.005184,2
1672947278902006906,270969,1672947278902639341,gps,2,1,42.2999527354,-83.6985334738,270.313598633,0.001089,0.0,0.0,0.0,0.001089,0.0,0.0,0.0,0.005184,2
1672947278922477991,270970,1672947278922640813,gps,2,1,42.299952807,-83.6985335107,270.313751221,0.001089,0.0,0.0,0.0,0.001089,0.0,0.0,0.0,0.005184,2
1672947278942321211,270971,1672947278942558223,gps,2,1,42.2999528791,-83.6985335474,270.313903809,0.001089,0.0,0.0,0.0,0.001089,0.0,0.0,0.0,0.005184,2
1672947278962349090,270972,1672947278962628590,gps,2,1,42.2999529574,-83.6985335691,270.314086914,0.001089,0.0,0.0,0.0,0.001089,0.0,0.0,0.0,0.005184,2
1672947278982162660,270973,1672947278982646444,gps,2,1,42.2999530387,-83.6985336091,270.314300537,0.001089,0.0,0.0,0.0,0.001089,0.0,0.0,0.0,0.005184,2
1672947279002420094,270974,1672947279002686393,gps,2,1,42.2999531204,-83.6985336487,270.31451416,0.001089,0.0,0.0,0.0,0.001089,0.0,0.0,0.0,0.005184,2
1672947279022404062,270975,1672947279022666285,gps,2,1,42.2999532073,-83.6985336738,270.314727783,0.001089,0.0,0.0,0.0,0.001089,0.0,0.0,0.0,0.005184,2
1672947279042417196,270976,1672947279042645181,gps,2,1,42.2999532971,-83.6985337209,270.314971924,0.001089,0.0,0.0,0.0,0.001089,0.0,0.0,0.0,0.005184,2
1672947279062539404,270977,1672947279062899272,gps,2,1,42.2999533872,-83.6985337674,270.315246582,0.001089,0.0,0.0,0.0,0.001089,0.0,0.0,0.0,0.005184,2
1672947279082255114,270978,1672947279082611729,gps,2,1,42.2999534831,-83.6985337961,270.31552124,0.001089,0.0,0.0,0.0,0.001089,0.0,0.0,0.0,0.005184,2
1672947279102259121,270979,1672947279102627793,gps,2,1,42.299953582,-83.698533847,270.315887451,0.001089,0.0,0.0,0.0,0.001089,0.0,0.0,0.0,0.005184,2
1672947279122165435,270980,1672947279122604215,gps,2,1,42.2999536814,-83.6985338974,270.316253662,0.001089,0.0,0.0,0.0,0.001089,0.0,0.0,0.0,0.005184,2
1672947279142065656,270981,1672947279142595553,gps,2,1,42.2999537863,-83.6985339298,270.316589355,0.001089,0.0,0.0,0.0,0.001089,0.0,0.0,0.0,0.005184,2
1672947279162425285,270982,1672947279162602309,gps,2,1,42.2999538945,-83.698533983,270.317016602,0.001089,0.0,0.0,0.0,0.001089,0.0,0.0,0.0,0.005184,2
1672947279182029721,270983,1672947279182612993,gps,2,1,42.2999540032,-83.6985340356,270.317474365,0.001089,0.0,0.0,0.0,0.001089,0.0,0.0,0.0,0.005184,2
1672947279202454695,270984,1672947279202725792,gps,2,1,42.2999541173,-83.6985340717,270.317871094,0.001089,0.0,0.0,0.0,0.001089,0.0,0.0,0.0,0.005184,2
1672947279222334980,270985,1672947279222607832,gps,2,1,42.2999542336,-83.6985341275,270.318359375,0.001089,0.0,0.0,0.0,0.001089,0.0,0.0,0.0,0.005184,2
1672947279242264600,270986,1672947279242627008,gps,2,1,42.2999543504,-83.698534183,270.318847656,0.001089,0.0,0.0,0.0,0.001089,0.0,0.0,0.0,0.005184,2
1672947279262196091,270987,1672947279262644445,gps,2,1,42.2999544738,-83.6985342226,270.31930542,0.001089,0.0,0.0,0.0,0.001089,0.0,0.0,0.0,0.005184,2
1672947279282087312,270988,1672947279282595203,gps,2,1,42.2999545988,-83.6985342826,270.319793701,0.001089,0.0,0.0,0.0,0.001089,0.0,0.0,0.0,0.005184,2
1672947279302258463,270989,1672947279302611840,gps,2,1,42.2999547242,-83.6985343421,270.3203125,0.001089,0.0,0.0,0.0,0.001089,0.0,0.0,0.0,0.005184,2
1672947279322427690,270990,1672947279322587916,gps,2,1,42.2999548569,-83.6985343855,270.320770264,0.001089,0.0,0.0,0.0,0.001089,0.0,0.0,0.0,0.005184,2
1672947279342158534,270991,1672947279342622937,gps,2,1,42.2999549914,-83.698534448,270.321289062,0.001089,0.0,0.0,0.0,0.001089,0.0,0.0,0.0,0.005184,2
1672947279361902089,270992,1672947279362597562,gps,2,1,42.2999551264,-83.6985345098,270.321838379,0.001089,0.0,0.0,0.0,0.001089,0.0,0.0,0.0,0.005184,2
1672947279382249325,270993,1672947279382690012,gps,2,1,42.2999552684,-83.6985345567,270.32232666,0.001089,0.0,0.0,0.0,0.001089,0.0,0.0,0.0,0.005184,2
1672947279402176214,270994,1672947279402632091,gps,2,1,42.2999554121,-83.698534622,270.322875977,0.001089,0.0,0.0,0.0,0.001089,0.0,0.0,0.0,0.005184,2
1672947279422351870,270995,1672947279422628125,gps,2,1,42.2999555561,-83.6985346868,270.323394775,0.001089,0.0,0.0,0.0,0.001089,0.0,0.0,0.0,0.005184,2
1672947279442315386,270996,1672947279442670674,gps,2,1,42.2999557075,-83.6985347371,270.323913574,0.001089,0.0,0.0,0.0,0.001089,0.0,0.0,0.0,0.005184,2
1672947279462349877,270997,1672947279462593782,gps,2,1,42.2999558609,-83.6985348046,270.324493408,0.001089,0.0,0.0,0.0,0.001089,0.0,0.0,0.0,0.005184,2
1672947279482399978,270998,1672947279482663763,gps,2,1,42.2999560148,-83.6985348715,270.325042725,0.001089,0.0,0.0,0.0,0.001089,0.0,0.0,0.0,0.005184,2
1672947279502445048,270999,1672947279502708748,gps,2,1,42.2999561757,-83.6985349251,270.325592041,0.001089,0.0,0.0,0.0,0.001089,0.0,0.0,0.0,0.005184,2
1672947279522340604,271000,1672947279522683546,gps,2,1,42.2999563393,-83.6985349958,270.326263428,0.001089,0.0,0.0,0.0,0.001089,0.0,0.0,0.0,0.005184,2
1672947279542536018,271001,1672947279542690174,gps,2,1,42.2999565019,-83.6985350711,270.326934814,0.001089,0.0,0.0,0.0,0.001089,0.0,0.0,0.0,0.005184,2
1672947279562724081,271002,1672947279562740659,gps,2,1,42.2999566725,-83.6985351278,270.327514648,0.001089,0.0,0.0,0.0,0.001089,0.0,0.0,0.0,0.005184,2
1672947279581866190,271003,1672947279582587064,gps,2,1,42.2999568447,-83.6985352052,270.32824707,0.001089,0.0,0.0,0.0,0.001089,0.0,0.0,0.0,0.005184,2
1672947279601962302,271004,1672947279602635818,gps,2,1,42.2999570173,-83.6985352829,270.328979492,0.001089,0.0,0.0,0.0,0.001089,0.0,0.0,0.0,0.005184,2
1672947279622619545,271005,1672947279622645065,gps,2,1,42.2999571976,-83.6985353427,270.329589844,0.001089,0.0,0.0,0.0,0.001089,0.0,0.0,0.0,0.005184,2
1672947279641905360,271006,1672947279642576780,gps,2,1,42.2999573799,-83.6985354228,270.330352783,0.001089,0.0,0.0,0.0,0.001089,0.0,0.0,0.0,0.005184,2
1672947279662364697,271007,1672947279662582482,gps,2,1,42.2999575624,-83.6985355022,270.331115723,0.001089,0.0,0.0,0.0,0.001089,0.0,0.0,0.0,0.005184,2
1672947279682258801,271008,1672947279682751312,gps,2,1,42.2999577527,-83.6985355652,270.331756592,0.001089,0.0,0.0,0.0,0.001089,0.0,0.0,0.0,0.005184,2
1672947279702035392,271009,1672947279702693038,gps,2,1,42.299957945,-83.6985356472,270.332550049,0.001089,0.0,0.0,0.0,0.001089,0.0,0.0,0.0,0.005184,2
1672947279722041872,271010,1672947279722578593,gps,2,1,42.2999581377,-83.6985357288,270.333343506,0.001089,0.0,0.0,0.0,0.001089,0.0,0.0,0.0,0.005184,2
1672947279742424249,271011,1672947279742652896,gps,2,1,42.2999583377,-83.6985357951,270.334075928,0.001089,0.0,0.0,0.0,0.001089,0.0,0.0,0.0,0.005184,2
1672947279762199387,271012,1672947279762555777,gps,2,1,42.2999585398,-83.6985358793,270.33493042,0.001089,0.0,0.0,0.0,0.001089,0.0,0.0,0.0,0.005184,2
1672947279782453655,271013,1672947279782616652,gps,2,1,42.2999587426,-83.6985359628,270.335784912,0.001089,0.0,0.0,0.0,0.001089,0.0,0.0,0.0,0.005184,2
1672947279802295121,271014,1672947279802630517,gps,2,1,42.2999589521,-83.6985360324,270.336608887,0.001089,0.0,0.0,0.0,0.001089,0.0,0.0,0.0,0.005184,2
1672947279821979410,271015,1672947279822565458,gps,2,1,42.2999591614,-83.6985361206,270.337585449,0.001089,0.0,0.0,0.0,0.001089,0.0,0.0,0.0,0.005184,2
1672947279842062481,271016,1672947279842528507,gps,2,1,42.2999593715,-83.6985362085,270.338531494,0.001089,0.0,0.0,0.0,0.001089,0.0,0.0,0.0,0.005184,2
1672947279862394542,271017,1672947279862629095,gps,2,1,42.2999595905,-83.698536281,270.339447021,0.001089,0.0,0.0,0.0,0.001089,0.0,0.0,0.0,0.005184,2
1672947279882254414,271018,1672947279882603098,gps,2,1,42.2999598099,-83.6985363708,270.340454102,0.001089,0.0,0.0,0.0,0.001089,0.0,0.0,0.0,0.005184,2
1672947279901889327,271019,1672947279902598598,gps,2,1,42.2999600308,-83.6985364616,270.341552734,0.001089,0.0,0.0,0.0,0.001089,0.0,0.0,0.0,0.005184,2
1672947279921895931,271020,1672947279922621570,gps,2,1,42.2999602597,-83.698536537,270.342529297,0.001089,0.0,0.0,0.0,0.001089,0.0,0.0,0.0,0.005184,2
1672947279942189252,271021,1672947279942534693,gps,2,1,42.2999604903,-83.6985366302,270.34362793,0.001089,0.0,0.0,0.0,0.001089,0.0,0.0,0.0,0.005184,2
1672947279962222484,271022,1672947279962559529,gps,2,1,42.2999607212,-83.6985367227,270.34475708,0.001089,0.0,0.0,0.0,0.001089,0.0,0.0,0.0,0.005184,2
1672947279982128399,271023,1672947279982633771,gps,2,1,42.2999609601,-83.6985368011,270.34576416,0.001089,0.0,0.0,0.0,0.001089,0.0,0.0,0.0,0.005184,2
1672947280002270667,271024,1672947280002631245,gps,2,1,42.2999612008,-83.6985368977,270.346832275,0.001089,0.0,0.0,0.0,0.001089,0.0,0.0,0.0,0.005184,2
1672947280022381738,271025,1672947280022697129,gps,2,1,42.2999614423,-83.6985369941,270.347869873,0.001089,0.0,0.0,0.0,0.001089,0.0,0.0,0.0,0.005184,2
1672947280042385114,271026,1672947280042681942,gps,2,1,42.299961691,-83.6985370765,270.348937988,0.001089,0.0,0.0,0.0,0.001089,0.0,0.0,0.0,0.005184,2
1672947280062381066,271027,1672947280062834199,gps,2,1,42.2999619403,-83.6985371811,270.350006104,0.001089,0.0,0.0,0.0,0.001089,0.0,0.0,0.0,0.005184,2
1672947280082251605,271028,1672947280082704221,gps,2,1,42.2999621902,-83.6985372851,270.351135254,0.001089,0.0,0.0,0.0,0.001089,0.0,0.0,0.0,0.005184,2
1672947280102257212,271029,1672947280102714481,gps,2,1,42.2999624489,-83.6985373721,270.352172852,0.001089,0.0,0.0,0.0,0.001089,0.0,0.0,0.0,0.005184,2
1672947280121960074,271030,1672947280122626963,gps,2,1,42.2999627084,-83.6985374798,270.353240967,0.001089,0.0,0.0,0.0,0.001089,0.0,0.0,0.0,0.005184,2
1672947280142332907,271031,1672947280142629787,gps,2,1,42.2999629689,-83.6985375873,270.3543396,0.001089,0.0,0.0,0.0,0.001089,0.0,0.0,0.0,0.005184,2
1672947280162329318,271032,1672947280162620590,gps,2,1,42.2999632374,-83.6985376786,270.355407715,0.001089,0.0,0.0,0.0,0.001089,0.0,0.0,0.0,0.005184,2
1672947280181924598,271033,1672947280182597339,gps,2,1,42.2999635073,-83.6985377889,270.356567383,0.001089,0.0,0.0,0.0,0.001089,0.0,0.0,0.0,0.005184,2
1672947280201823360,271034,1672947280202562021,gps,2,1,42.2999637766,-83.6985379,270.357788086,0.001089,0.0,0.0,0.0,0.001089,0.0,0.0,0.0,0.005184,2
1672947280222336178,271035,1672947280222633688,gps,2,1,42.2999640552,-83.6985379946,270.358978271,0.001089,0.0,0.0,0.0,0.001089,0.0,0.0,0.0,0.005184,2
1672947280242245304,271036,1672947280242590143,gps,2,1,42.2999643345,-83.6985381077,270.360290527,0.001089,0.0,0.0,0.0,0.001089,0.0,0.0,0.0,0.005184,2
1672947280262184038,271037,1672947280262598607,gps,2,1,42.2999646144,-83.6985382202,270.361572266,0.001089,0.0,0.0,0.0,0.001089,0.0,0.0,0.0,0.005184,2
1672947280282308205,271038,1672947280282640095,gps,2,1,42.2999649032,-83.6985383172,270.362792969,0.001089,0.0,0.0,0.0,0.001089,0.0,0.0,0.0,0.005184,2
1672947280302273403,271039,1672947280302591991,gps,2,1,42.299965193,-83.6985384341,270.364074707,0.001089,0.0,0.0,0.0,0.001089,0.0,0.0,0.0,0.005184,2
1672947280322145714,271040,1672947280322546587,gps,2,1,42.2999654833,-83.6985385506,270.365356445,0.001089,0.0,0.0,0.0,0.001089,0.0,0.0,0.0,0.005184,2
1672947280341850804,271041,1672947280342632847,gps,2,1,42.2999657825,-83.6985386504,270.366546631,0.001089,0.0,0.0,0.0,0.001089,0.0,0.0,0.0,0.005184,2
1672947280362244303,271042,1672947280362565891,gps,2,1,42.2999660828,-83.698538769,270.367736816,0.001089,0.0,0.0,0.0,0.001089,0.0,0.0,0.0,0.005184,2
1672947280382183106,271043,1672947280382672900,gps,2,1,42.2999663839,-83.6985388873,270.368927002,0.001089,0.0,0.0,0.0,0.001089,0.0,0.0,0.0,0.005184,2
1672947280402418132,271044,1672947280402678767,gps,2,1,42.2999666936,-83.6985389905,270.369995117,0.001089,0.0,0.0,0.0,0.001089,0.0,0.0,0.0,0.005184,2
1672947280422349065,271045,1672947280422550788,gps,2,1,42.2999670055,-83.6985391136,270.371185303,0.001089,0.0,0.0,0.0,0.001089,0.0,0.0,0.0,0.005184,2
1672947280441805877,271046,1672947280442516992,gps,2,1,42.2999673179,-83.6985392362,270.372375488,0.001089,0.0,0.0,0.0,0.001089,0.0,0.0,0.0,0.005184,2
1672947280462390098,271047,1672947280462633778,gps,2,1,42.2999676381,-83.6985393435,270.373382568,0.001089,0.0,0.0,0.0,0.001089,0.0,0.0,0.0,0.005184,2
1672947280481934146,271048,1672947280482586142,gps,2,1,42.2999679607,-83.6985394691,270.374603271,0.001089,0.0,0.0,0.0,0.001089,0.0,0.0,0.0,0.005184,2
1672947280501768494,271049,1672947280502531275,gps,2,1,42.2999682838,-83.6985395957,270.375793457,0.001089,0.0,0.0,0.0,0.001089,0.0,0.0,0.0,0.005184,2
1672947280522272087,271050,1672947280522627834,gps,2,1,42.2999686143,-83.6985397068,270.37689209,0.001089,0.0,0.0,0.0,0.001089,0.0,0.0,0.0,0.005184,2
1672947280542369701,271051,1672947280542745881,gps,2,1,42.2999689476,-83.6985398363,270.378204346,0.001089,0.0,0.0,0.0,0.001089,0.0,0.0,0.0,0.005184,2
1672947280562534087,271052,1672947280562785315,gps,2,1,42.2999692803,-83.6985399706,270.379608154,0.001089,0.0,0.0,0.0,0.001089,0.0,0.0,0.0,0.005184,2
1672947280582390192,271053,1672947280582681754,gps,2,1,42.2999696212,-83.6985400859,270.380859375,0.001089,0.0,0.0,0.0,0.001089,0.0,0.0,0.0,0.005184,2
1672947280601895399,271054,1672947280602558815,gps,2,1,42.2999699638,-83.6985402255,270.382385254,0.001089,0.0,0.0,0.0,0.001089,0.0,0.0,0.0,0.005184,2
1672947280621886366,271055,1672947280622565305,gps,2,1,42.2999703069,-83.6985403643,270.383911133,0.001089,0.0,0.0,0.0,0.001089,0.0,0.0,0.0,0.005184,2
1672947280642387634,271056,1672947280642563427,gps,2,1,42.2999706582,-83.6985404841,270.385223389,0.001089,0.0,0.0,0.0,0.001089,0.0,0.0,0.0,0.005184,2
1672947280662409348,271057,1672947280662684321,gps,2,1,42.2999710112,-83.6985406265,270.386779785,0.001089,0.0,0.0,0.0,0.001089,0.0,0.0,0.0,0.005184,2
1672947280682290008,271058,1672947280682551482,gps,2,1,42.2999713643,-83.6985407703,270.388366699,0.001089,0.0,0.0,0.0,0.001089,0.0,0.0,0.0,0.005184,2
1672947280702272838,271059,1672947280702634150,gps,2,1,42.2999717258,-83.6985408942,270.38973999,0.001089,0.0,0.0,0.0,0.001089,0.0,0.0,0.0,0.005184,2
1672947280722287840,271060,1672947280722584370,gps,2,1,42.299972089,-83.6985410408,270.391326904,0.001089,0.0,0.0,0.0,0.001089,0.0,0.0,0.0,0.005184,2
1672947280742366397,271061,1672947280742628719,gps,2,1,42.2999724531,-83.6985411869,270.392913818,0.001089,0.0,0.0,0.0,0.001089,0.0,0.0,0.0,0.005184,2
1672947280762419692,271062,1672947280762715917,gps,2,1,42.2999728253,-83.6985413142,270.394256592,0.001089,0.0,0.0,0.0,0.001089,0.0,0.0,0.0,0.005184,2
1672947280782296650,271063,1672947280782596368,gps,2,1,42.2999731995,-83.6985414625,270.395874023,0.001089,0.0,0.0,0.0,0.001089,0.0,0.0,0.0,0.005184,2
1672947280802248654,271064,1672947280802557527,gps,2,1,42.299973573,-83.6985416113,270.397277832,0.001089,0.0,0.0,0.0,0.001089,0.0,0.0,0.0,0.005184,2
1672947280822153455,271065,1672947280822675011,gps,2,1,42.2999739561,-83.698541742,270.398681641,0.001089,0.0,0.0,0.0,0.001089,0.0,0.0,0.0,0.005184,2
1672947280842108376,271066,1672947280842562261,gps,2,1,42.2999743402,-83.6985418934,270.400146484,0.001089,0.0,0.0,0.0,0.001089,0.0,0.0,0.0,0.005184,2
1672947280861960978,271067,1672947280862592306,gps,2,1,42.2999747247,-83.6985420446,270.401580811,0.001089,0.0,0.0,0.0,0.001089,0.0,0.0,0.0,0.005184,2
1672947280881981721,271068,1672947280882550376,gps,2,1,42.2999751185,-83.6985421791,270.403015137,0.001089,0.0,0.0,0.0,0.001089,0.0,0.0,0.0,0.005184,2
1672947280901931477,271069,1672947280902552975,gps,2,1,42.2999755134,-83.6985423353,270.404693604,0.001089,0.0,0.0,0.0,0.001089,0.0,0.0,0.0,0.005184,2
1672947280921933056,271070,1672947280922548785,gps,2,1,42.2999759088,-83.6985424908,270.40637207,0.001089,0.0,0.0,0.0,0.001089,0.0,0.0,0.0,0.005184,2
1672947280942158644,271071,1672947280942563040,gps,2,1,42.2999763133,-83.698542629,270.407867432,0.001089,0.0,0.0,0.0,0.001089,0.0,0.0,0.0,0.005184,2
1672947280962286354,271072,1672947280962597938,gps,2,1,42.2999767191,-83.6985427874,270.409637451,0.001089,0.0,0.0,0.0,0.001089,0.0,0.0,0.0,0.005184,2
1672947280982173149,271073,1672947280982567008,gps,2,1,42.299977124,-83.6985429463,270.4112854,0.001089,0.0,0.0,0.0,0.001089,0.0,0.0,0.0,0.005184,2
1672947281001946361,271074,1672947281002613000,gps,2,1,42.299977539,-83.6985430882,270.412872314,0.001089,0.0,0.0,0.0,0.001089,0.0,0.0,0.0,0.005184,2
1672947281022224614,271075,1672947281022770029,gps,2,1,42.2999779525,-83.6985432556,270.414703369,0.001089,0.0,0.0,0.0,0.001089,0.0,0.0,0.0,0.005184,2
1672947281042038013,271076,1672947281042531549,gps,2,1,42.2999783665,-83.6985434223,270.416534424,0.001089,0.0,0.0,0.0,0.001089,0.0,0.0,0.0,0.005184,2
1672947281062519576,271077,1672947281062771274,gps,2,1,42.2999787922,-83.6985435691,270.418151855,0.001089,0.0,0.0,0.0,0.001089,0.0,0.0,0.0,0.005184,2
1672947281082311681,271078,1672947281082700119,gps,2,1,42.2999792181,-83.6985437418,270.41998291,0.001089,0.0,0.0,0.0,0.001089,0.0,0.0,0.0,0.005184,2
1672947281102078818,271079,1672947281102600600,gps,2,1,42.2999796444,-83.698543914,270.421844482,0.001089,0.0,0.0,0.0,0.001089,0.0,0.0,0.0,0.005184,2
1672947281122062470,271080,1672947281122652321,gps,2,1,42.2999800805,-83.6985440664,270.423309326,0.001089,0.0,0.0,0.0,0.001089,0.0,0.0,0.0,0.005184,2
1672947281142353009,271081,1672947281142604133,gps,2,1,42.2999805176,-83.6985442436,270.424987793,0.001089,0.0,0.0,0.0,0.001089,0.0,0.0,0.0,0.005184,2
1672947281162291422,271082,1672947281162615546,gps,2,1,42.2999809552,-83.69854442,270.426635742,0.001089,0.0,0.0,0.0,0.001089,0.0,0.0,0.0,0.005184,2
1672947281182036902,271083,1672947281182625266,gps,2,1,42.2999814022,-83.6985445778,270.427978516,0.001089,0.0,0.0,0.0,0.001089,0.0,0.0,0.0,0.005184,2
1672947281202355156,271084,1672947281202667631,gps,2,1,42.2999818499,-83.6985447596,270.429504395,0.001089,0.0,0.0,0.0,0.001089,0.0,0.0,0.0,0.005184,2
1672947281222232481,271085,1672947281222567559,gps,2,1,42.2999822982,-83.6985449406,270.431030273,0.001089,0.0,0.0,0.0,0.001089,0.0,0.0,0.0,0.005184,2
1672947281242227121,271086,1672947281242724000,gps,2,1,42.299982756,-83.6985451016,270.432403564,0.001089,0.0,0.0,0.0,0.001089,0.0,0.0,0.0,0.005184,2
1672947281262207016,271087,1672947281262664687,gps,2,1,42.2999832149,-83.6985452834,270.434051514,0.001089,0.0,0.0,0.0,0.001089,0.0,0.0,0.0,0.005184,2
1672947281282365372,271088,1672947281282579733,gps,2,1,42.2999836727,-83.6985454673,270.435699463,0.001089,0.0,0.0,0.0,0.001089,0.0,0.0,0.0,0.005184,2
1672947281302453795,271089,1672947281302683467,gps,2,1,42.2999841413,-83.6985456286,270.437255859,0.001089,0.0,0.0,0.0,0.001089,0.0,0.0,0.0,0.005184,2
1672947281322293035,271090,1672947281322644360,gps,2,1,42.2999846096,-83.6985458113,270.439086914,0.001089,0.0,0.0,0.0,0.001089,0.0,0.0,0.0,0.005184,2
1672947281341904845,271091,1672947281342526802,gps,2,1,42.2999850785,-83.6985459931,270.440917969,0.001089,0.0,0.0,0.0,0.001089,0.0,0.0,0.0,0.005184,2
1672947281362297928,271092,1672947281362616896,gps,2,1,42.2999855576,-83.698546154,270.442718506,0.001089,0.0,0.0,0.0,0.001089,0.0,0.0,0.0,0.005184,2
1672947281382240636,271093,1672947281382635419,gps,2,1,42.299986037,-83.6985463367,270.444763184,0.001089,0.0,0.0,0.0,0.001089,0.0,0.0,0.0,0.005184,2
1672947281402134871,271094,1672947281402621827,gps,2,1,42.2999865167,-83.6985465188,270.446807861,0.001089,0.0,0.0,0.0,0.001089,0.0,0.0,0.0,0.005184,2
1672947281422491743,271095,1672947281422698199,gps,2,1,42.299987006,-83.6985466809,270.448822021,0.001089,0.0,0.0,0.0,0.001089,0.0,0.0,0.0,0.005184,2
1672947281442297813,271096,1672947281442640448,gps,2,1,42.2999874957,-83.698546865,270.451019287,0.001089,0.0,0.0,0.0,0.001089,0.0,0.0,0.0,0.005184,2
1672947281462237549,271097,1672947281462610956,gps,2,1,42.2999879844,-83.69854705,270.453216553,0.001089,0.0,0.0,0.0,0.001089,0.0,0.0,0.0,0.005184,2
1672947281482323876,271098,1672947281482633028,gps,2,1,42.2999884835,-83.698547216,270.455383301,0.001089,0.0,0.0,0.0,0.001089,0.0,0.0,0.0,0.005184,2
1672947281502333930,271099,1672947281502656921,gps,2,1,42.2999889817,-83.6985474055,270.457641602,0.001089,0.0,0.0,0.0,0.001089,0.0,0.0,0.0,0.005184,2
1672947281522328007,271100,1672947281522610392,gps,2,1,42.2999894787,-83.6985476004,270.45993042,0.001089,0.0,0.0,0.0,0.001089,0.0,0.0,0.0,0.005184,2
1672947281542172751,271101,1672947281542723880,gps,2,1,42.2999899875,-83.6985477719,270.462036133,0.001089,0.0,0.0,0.0,0.001089,0.0,0.0,0.0,0.005184,2
1672947281562396215,271102,1672947281562727354,gps,2,1,42.2999904943,-83.6985479709,270.464141846,0.001089,0.0,0.0,0.0,0.001089,0.0,0.0,0.0,0.005184,2
1672947281582338020,271103,1672947281582645038,gps,2,1,42.2999910021,-83.6985481699,270.466186523,0.001089,0.0,0.0,0.0,0.001089,0.0,0.0,0.0,0.005184,2
1672947281601929571,271104,1672947281602567111,gps,2,1,42.2999915206,-83.6985483458,270.468078613,0.001089,0.0,0.0,0.0,0.001089,0.0,0.0,0.0,0.005184,2
1672947281622014350,271105,1672947281622615581,gps,2,1,42.299992038,-83.6985485478,270.469970703,0.001089,0.0,0.0,0.0,0.001089,0.0,0.0,0.0,0.005184,2
1672947281642355417,271106,1672947281642539000,gps,2,1,42.299992556,-83.6985487492,270.471832275,0.001089,0.0,0.0,0.0,0.001089,0.0,0.0,0.0,0.005184,2
1672947281662440948,271107,1672947281662623912,gps,2,1,42.2999930846,-83.6985489292,270.47354126,0.001089,0.0,0.0,0.0,0.001089,0.0,0.0,0.0,0.005184,2
1672947281682234169,271108,1672947281682623700,gps,2,1,42.2999936124,-83.6985491334,270.475250244,0.001089,0.0,0.0,0.0,0.001089,0.0,0.0,0.0,0.005184,2
1672947281702201066,271109,1672947281702578192,gps,2,1,42.2999941404,-83.6985493392,270.477050781,0.001089,0.0,0.0,0.0,0.001089,0.0,0.0,0.0,0.005184,2
1672947281722422933,271110,1672947281722661763,gps,2,1,42.2999946785,-83.6985495234,270.478759766,0.001089,0.0,0.0,0.0,0.001089,0.0,0.0,0.0,0.005184,2
1672947281742313941,271111,1672947281742694563,gps,2,1,42.2999952154,-83.6985497324,270.480712891,0.001089,0.0,0.0,0.0,0.001089,0.0,0.0,0.0,0.005184,2
1672947281761893611,271112,1672947281762660406,gps,2,1,42.299995754,-83.6985499435,270.48260498,0.0009,0.0,0.0,0.0,0.0009,0.0,0.0,0.0,0.0049,2
1672947281782365980,271113,1672947281782646084,gps,2,1,42.2999963011,-83.6985501316,270.484527588,0.0009,0.0,0.0,0.0,0.0009,0.0,0.0,0.0,0.0049,2
1672947281802249369,271114,1672947281802692444,gps,2,1,42.2999968484,-83.6985503453,270.486724854,0.0009,0.0,0.0,0.0,0.0009,0.0,0.0,0.0,0.0049,2
1672947281822096150,271115,1672947281822540732,gps,2,1,42.2999973961,-83.6985505583,270.488891602,0.0009,0.0,0.0,0.0,0.0009,0.0,0.0,0.0,0.0049,2
1672947281842439374,271116,1672947281842583295,gps,2,1,42.2999979523,-83.6985507496,270.491088867,0.0009,0.0,0.0,0.0,0.0009,0.0,0.0,0.0,0.0049,2
1672947281862043293,271117,1672947281862569089,gps,2,1,42.2999985091,-83.6985509641,270.493408203,0.0009,0.0,0.0,0.0,0.0009,0.0,0.0,0.0,0.0049,2
1672947281882007331,271118,1672947281882571821,gps,2,1,42.2999990662,-83.6985511779,270.495697021,0.0009,0.0,0.0,0.0,0.0009,0.0,0.0,0.0,0.0049,2
1672947281902520971,271119,1672947281902665210,gps,2,1,42.2999996314,-83.6985513713,270.49798584,0.0009,0.0,0.0,0.0,0.0009,0.0,0.0,0.0,0.0049,2
1672947281922305947,271120,1672947281922622866,gps,2,1,42.3000001961,-83.698551587,270.500305176,0.0009,0.0,0.0,0.0,0.0009,0.0,0.0,0.0,0.0049,2
1672947281942314523,271121,1672947281942589224,gps,2,1,42.3000007617,-83.6985518029,270.502593994,0.0009,0.0,0.0,0.0,0.0009,0.0,0.0,0.0,0.0049,2
1672947281962182456,271122,1672947281962599693,gps,2,1,42.3000013363,-83.6985519971,270.504821777,0.0009,0.0,0.0,0.0,0.0009,0.0,0.0,0.0,0.0049,2
1672947281982600489,271123,1672947281982663875,gps,2,1,42.300001911,-83.6985522121,270.507019043,0.0009,0.0,0.0,0.0,0.0009,0.0,0.0,0.0,0.0049,2
1672947282002326806,271124,1672947282002568858,gps,2,1,42.3000024866,-83.6985524288,270.509246826,0.0009,0.0,0.0,0.0,0.0009,0.0,0.0,0.0,0.0049,2
1672947282022554280,271125,1672947282022705301,gps,2,1,42.3000030704,-83.6985526236,270.511322021,0.0009,0.0,0.0,0.0,0.0009,0.0,0.0,0.0,0.0049,2
1672947282042013542,271126,1672947282042555160,gps,2,1,42.3000036532,-83.6985528478,270.513427734,0.0009,0.0,0.0,0.0,0.0009,0.0,0.0,0.0,0.0049,2
1672947282062447046,271127,1672947282062696351,gps,2,1,42.3000042372,-83.6985530709,270.515472412,0.0009,0.0,0.0,0.0,0.0009,0.0,0.0,0.0,0.0049,2
1672947282082355255,271128,1672947282082654776,gps,2,1,42.3000048301,-83.6985532672,270.517425537,0.0009,0.0,0.0,0.0,0.0009,0.0,0.0,0.0,0.0049,2
1672947282102239092,271129,1672947282102616826,gps,2,1,42.3000054229,-83.6985534917,270.519378662,0.0009,0.0,0.0,0.0,0.0009,0.0,0.0,0.0,0.0049,2
1672947282122364319,271130,1672947282122677860,gps,2,1,42.3000060142,-83.6985537195,270.521331787,0.0009,0.0,0.0,0.0,0.0009,0.0,0.0,0.0,0.0049,2
1672947282142294430,271131,1672947282142639413,gps,2,1,42.3000066161,-83.6985539191,270.523162842,0.0009,0.0,0.0,0.0,0.0009,0.0,0.0,0.0,0.0049,2
1672947282162343567,271132,1672947282162594595,gps,2,1,42.3000072162,-83.6985541494,270.525054932,0.0009,0.0,0.0,0.0,0.0009,0.0,0.0,0.0,0.0049,2
1672947282182382065,271133,1672947282182670968,gps,2,1,42.3000078166,-83.6985543784,270.526947021,0.0009,0.0,0.0,0.0,0.0009,0.0,0.0,0.0,0.0049,2
1672947282202408472,271134,1672947282202674410,gps,2,1,42.3000084272,-83.6985545811,270.528869629,0.0009,0.0,0.0,0.0,0.0009,0.0,0.0,0.0,0.0049,2
1672947282222140026,271135,1672947282222587570,gps,2,1,42.3000090364,-83.6985548128,270.530975342,0.0009,0.0,0.0,0.0,0.0009,0.0,0.0,0.0,0.0049,2
1672947282242196457,271136,1672947282242674378,gps,2,1,42.300009646,-83.6985550437,270.533111572,0.0009,0.0,0.0,0.0,0.0009,0.0,0.0,0.0,0.0049,2
1672947282261878817,271137,1672947282262611000,gps,2,1,42.3000102651,-83.6985552478,270.535308838,0.0009,0.0,0.0,0.0,0.0009,0.0,0.0,0.0,0.0049,2
1672947282282423739,271138,1672947282282640772,gps,2,1,42.3000108833,-83.6985554783,270.537719727,0.0009,0.0,0.0,0.0,0.0009,0.0,0.0,0.0,0.0049,2
1672947282302264946,271139,1672947282302584450,gps,2,1,42.3000115015,-83.6985557088,270.540313721,0.0009,0.0,0.0,0.0,0.0009,0.0,0.0,0.0,0.0049,2
1672947282322498479,271140,1672947282322636269,gps,2,1,42.3000121288,-83.6985559138,270.542755127,0.0009,0.0,0.0,0.0,0.0009,0.0,0.0,0.0,0.0049,2
1672947282342374406,271141,1672947282342572476,gps,2,1,42.300012755,-83.6985561441,270.545501709,0.0009,0.0,0.0,0.0,0.0009,0.0,0.0,0.0,0.0049,2
1672947282362296121,271142,1672947282362582633,gps,2,1,42.3000133818,-83.6985563736,270.548248291,0.0009,0.0,0.0,0.0,0.0009,0.0,0.0,0.0,0.0049,2
1672947282382219222,271143,1672947282382670816,gps,2,1,42.3000140168,-83.6985565797,270.550720215,0.0009,0.0,0.0,0.0,0.0009,0.0,0.0,0.0,0.0049,2
1672947282402116304,271144,1672947282402578470,gps,2,1,42.3000146506,-83.6985568109,270.553314209,0.0009,0.0,0.0,0.0,0.0009,0.0,0.0,0.0,0.0049,2
1672947282422363974,271145,1672947282422603945,gps,2,1,42.3000152848,-83.6985570414,270.555938721,0.0009,0.0,0.0,0.0,0.0009,0.0,0.0,0.0,0.0049,2
1672947282442382228,271146,1672947282442692263,gps,2,1,42.3000159272,-83.698557249,270.558258057,0.0009,0.0,0.0,0.0,0.0009,0.0,0.0,0.0,0.0049,2
1672947282461935509,271147,1672947282462584826,gps,2,1,42.3000165683,-83.6985574801,270.560699463,0.0009,0.0,0.0,0.0,0.0009,0.0,0.0,0.0,0.0049,2
1672947282482303758,271148,1672947282482591521,gps,2,1,42.3000172102,-83.6985577103,270.563140869,0.0009,0.0,0.0,0.0,0.0009,0.0,0.0,0.0,0.0049,2
1672947282502363182,271149,1672947282502672843,gps,2,1,42.3000178599,-83.6985579192,270.565338135,0.0009,0.0,0.0,0.0,0.0009,0.0,0.0,0.0,0.0049,2
1672947282521990566,271150,1672947282522611725,gps,2,1,42.3000185093,-83.6985581531,270.567626953,0.0009,0.0,0.0,0.0,0.0009,0.0,0.0,0.0,0.0049,2
1672947282542062467,271151,1672947282542652083,gps,2,1,42.3000191572,-83.6985583954,270.569976807,0.0009,0.0,0.0,0.0,0.0009,0.0,0.0,0.0,0.0049,2
1672947282562478706,271152,1672947282562800311,gps,2,1,42.3000198142,-83.6985586058,270.572113037,0.0009,0.0,0.0,0.0,0.0009,0.0,0.0,0.0,0.0049,2
1672947282582294455,271153,1672947282582607929,gps,2,1,42.3000204692,-83.6985588483,270.574462891,0.0009,0.0,0.0,0.0,0.0009,0.0,0.0,0.0,0.0049,2
1672947282601944953,271154,1672947282602543217,gps,2,1,42.3000211248,-83.6985590918,270.576904297,0.0009,0.0,0.0,0.0,0.0009,0.0,0.0,0.0,0.0049,2
1672947282622042714,271155,1672947282622623039,gps,2,1,42.3000217888,-83.6985593039,270.579162598,0.0009,0.0,0.0,0.0,0.0009,0.0,0.0,0.0,0.0049,2
1672947282642281781,271156,1672947282642521059,gps,2,1,42.300022451,-83.698559548,270.581787109,0.0009,0.0,0.0,0.0,0.0009,0.0,0.0,0.0,0.0049,2
1672947282662294283,271157,1672947282662610409,gps,2,1,42.3000231138,-83.6985597909,270.584411621,0.0009,0.0,0.0,0.0,0.0009,0.0,0.0,0.0,0.0049,2
1672947282682140338,271158,1672947282682622270,gps,2,1,42.3000237843,-83.6985600046,270.586914062,0.0009,0.0,0.0,0.0,0.0009,0.0,0.0,0.0,0.0049,2
1672947282702266652,271159,1672947282702605252,gps,2,1,42.3000244528,-83.6985602508,270.58972168,0.0009,0.0,0.0,0.0,0.0009,0.0,0.0,0.0,0.0049,2
1672947282722280258,271160,1672947282722546881,gps,2,1,42.3000251218,-83.6985604957,270.592498779,0.0009,0.0,0.0,0.0,0.0009,0.0,0.0,0.0,0.0049,2
1672947282742423387,271161,1672947282742707639,gps,2,1,42.3000257991,-83.6985607103,270.595123291,0.0009,0.0,0.0,0.0,0.0009,0.0,0.0,0.0,0.0049,2
1672947282761975253,271162,1672947282762614561,gps,2,1,42.3000264745,-83.6985609555,270.597900391,0.0009,0.0,0.0,0.0,0.0009,0.0,0.0,0.0,0.0049,2
1672947282782313686,271163,1672947282782626838,gps,2,1,42.3000271501,-83.6985611993,270.600738525,0.0009,0.0,0.0,0.0,0.0009,0.0,0.0,0.0,0.0049,2
1672947282802353783,271164,1672947282802693427,gps,2,1,42.3000278332,-83.6985614157,270.60333252,0.0009,0.0,0.0,0.0,0.0009,0.0,0.0,0.0,0.0049,2
1672947282821968037,271165,1672947282822579582,gps,2,1,42.3000285132,-83.6985616627,270.606079102,0.0009,0.0,0.0,0.0,0.0009,0.0,0.0,0.0,0.0049,2
1672947282842226563,271166,1672947282842546505,gps,2,1,42.3000291936,-83.6985619091,270.608795166,0.0009,0.0,0.0,0.0,0.0009,0.0,0.0,0.0,0.0049,2
1672947282862038395,271167,1672947282862590198,gps,2,1,42.3000298827,-83.698562127,270.611419678,0.0009,0.0,0.0,0.0,0.0009,0.0,0.0,0.0,0.0049,2
1672947282882262389,271168,1672947282882537922,gps,2,1,42.3000305692,-83.6985623727,270.614135742,0.0009,0.0,0.0,0.0,0.0009,0.0,0.0,0.0,0.0049,2
1672947282902343336,271169,1672947282902592379,gps,2,1,42.3000312545,-83.69856262,270.616821289,0.0009,0.0,0.0,0.0,0.0009,0.0,0.0,0.0,0.0049,2
1672947282922333944,271170,1672947282922580306,gps,2,1,42.3000319495,-83.6985628379,270.619384766,0.0009,0.0,0.0,0.0,0.0009,0.0,0.0,0.0,0.0049,2
1672947282942256064,271171,1672947282942556590,gps,2,1,42.3000326407,-83.6985630838,270.622009277,0.0009,0.0,0.0,0.0,0.0009,0.0,0.0,0.0,0.0049,2
1672947282962182750,271172,1672947282962581778,gps,2,1,42.3000333325,-83.6985633287,270.624572754,0.0009,0.0,0.0,0.0,0.0009,0.0,0.0,0.0,0.0049,2
1672947282982342150,271173,1672947282982587686,gps,2,1,42.3000340332,-83.6985635456,270.627075195,0.0009,0.0,0.0,0.0,0.0009,0.0,0.0,0.0,0.0049,2
1672947283002471067,271174,1672947283002625885,gps,2,1,42.300034732,-83.6985637897,270.629669189,0.0009,0.0,0.0,0.0,0.0009,0.0,0.0,0.0,0.0049,2
1672947283022192159,271175,1672947283022549437,gps,2,1,42.300035431,-83.6985640324,270.632293701,0.0009,0.0,0.0,0.0,0.0009,0.0,0.0,0.0,0.0049,2
1672947283042311795,271176,1672947283042732294,gps,2,1,42.3000361376,-83.6985642482,270.634765625,0.0009,0.0,0.0,0.0,0.0009,0.0,0.0,0.0,0.0049,2
1672947283062173113,271177,1672947283062802709,gps,2,1,42.3000368406,-83.6985644986,270.637451172,0.0009,0.0,0.0,0.0,0.0009,0.0,0.0,0.0,0.0049,2
1672947283082187968,271178,1672947283082640632,gps,2,1,42.3000375439,-83.6985647479,270.640075684,0.0009,0.0,0.0,0.0,0.0009,0.0,0.0,0.0,0.0049,2
1672947283102449969,271179,1672947283102656914,gps,2,1,42.3000382566,-83.6985649611,270.642578125,0.0009,0.0,0.0,0.0,0.0009,0.0,0.0,0.0,0.0049,2
1672947283121902984,271180,1672947283122566963,gps,2,1,42.3000389663,-83.6985652071,270.645324707,0.0009,0.0,0.0,0.0,0.0009,0.0,0.0,0.0,0.0049,2
1672947283142239570,271181,1672947283142552475,gps,2,1,42.3000396764,-83.6985654521,270.648071289,0.0009,0.0,0.0,0.0,0.0009,0.0,0.0,0.0,0.0049,2
1672947283162283452,271182,1672947283162601117,gps,2,1,42.3000403948,-83.6985656626,270.650604248,0.0009,0.0,0.0,0.0,0.0009,0.0,0.0,0.0,0.0049,2
1672947283182247985,271183,1672947283182550167,gps,2,1,42.3000411106,-83.6985659032,270.653411865,0.0009,0.0,0.0,0.0,0.0009,0.0,0.0,0.0,0.0049,2
1672947283202137410,271184,1672947283202533300,gps,2,1,42.3000418238,-83.6985661453,270.656097412,0.0009,0.0,0.0,0.0,0.0009,0.0,0.0,0.0,0.0049,2
1672947283222262084,271185,1672947283222621174,gps,2,1,42.3000425479,-83.698566353,270.658721924,0.0009,0.0,0.0,0.0,0.0009,0.0,0.0,0.0,0.0049,2
1672947283242168605,271186,1672947283242647974,gps,2,1,42.3000432669,-83.6985665918,270.661437988,0.0009,0.0,0.0,0.0,0.0009,0.0,0.0,0.0,0.0049,2
1672947283262263923,271187,1672947283262581768,gps,2,1,42.3000439861,-83.6985668297,270.664154053,0.0009,0.0,0.0,0.0,0.0009,0.0,0.0,0.0,0.0049,2
1672947283282411644,271188,1672947283282700920,gps,2,1,42.3000447153,-83.6985670358,270.666778564,0.0009,0.0,0.0,0.0,0.0009,0.0,0.0,0.0,0.0049,2
1672947283301923925,271189,1672947283302489860,gps,2,1,42.3000454408,-83.6985672733,270.669647217,0.0009,0.0,0.0,0.0,0.0009,0.0,0.0,0.0,0.0049,2
1672947283322260221,271190,1672947283322541961,gps,2,1,42.3000461665,-83.6985675097,270.672454834,0.0009,0.0,0.0,0.0,0.0009,0.0,0.0,0.0,0.0049,2
1672947283342341051,271191,1672947283342627791,gps,2,1,42.3000469005,-83.6985677154,270.675048828,0.0009,0.0,0.0,0.0,0.0009,0.0,0.0,0.0,0.0049,2
1672947283362270591,271192,1672947283362541541,gps,2,1,42.300047631,-83.6985679508,270.67791748,0.0009,0.0,0.0,0.0,0.0009,0.0,0.0,0.0,0.0049,2
1672947283382192211,271193,1672947283382589335,gps,2,1,42.3000483623,-83.6985681849,270.680725098,0.0009,0.0,0.0,0.0,0.0009,0.0,0.0,0.0,0.0049,2
1672947283402413182,271194,1672947283402629917,gps,2,1,42.300049101,-83.6985683905,270.683349609,0.0009,0.0,0.0,0.0,0.0009,0.0,0.0,0.0,0.0049,2
1672947283422452949,271195,1672947283422569074,gps,2,1,42.3000498366,-83.6985686259,270.686187744,0.0009,0.0,0.0,0.0,0.0009,0.0,0.0,0.0,0.0049,2
1672947283442253643,271196,1672947283442537672,gps,2,1,42.3000505724,-83.6985688605,270.689025879,0.0009,0.0,0.0,0.0,0.0009,0.0,0.0,0.0,0.0049,2
1672947283461958489,271197,1672947283462637172,gps,2,1,42.300051316,-83.6985690652,270.691680908,0.0009,0.0,0.0,0.0,0.0009,0.0,0.0,0.0,0.0049,2
1672947283482316377,271198,1672947283482535116,gps,2,1,42.3000520565,-83.6985692962,270.694488525,0.0009,0.0,0.0,0.0,0.0009,0.0,0.0,0.0,0.0049,2
1672947283502198138,271199,1672947283502672596,gps,2,1,42.3000527973,-83.6985695283,270.697265625,0.0009,0.0,0.0,0.0,0.0009,0.0,0.0,0.0,0.0049,2
1672947283522284974,271200,1672947283522678861,gps,2,1,42.3000535454,-83.6985697295,270.699981689,0.0009,0.0,0.0,0.0,0.0009,0.0,0.0,0.0,0.0049,2
1672947283542246346,271201,1672947283542623709,gps,2,1,42.3000542906,-83.6985699562,270.702880859,0.0009,0.0,0.0,0.0,0.0009,0.0,0.0,0.0,0.0049,2
1672947283562566746,271202,1672947283562715511,gps,2,1,42.3000550338,-83.6985701921,270.705749512,0.0009,0.0,0.0,0.0,0.0009,0.0,0.0,0.0,0.0049,2
1672947283582344287,271203,1672947283582597600,gps,2,1,42.3000557866,-83.6985703882,270.708557129,0.0009,0.0,0.0,0.0,0.0009,0.0,0.0,0.0,0.0049,2
1672947283601997310,271204,1672947283602542510,gps,2,1,42.3000565335,-83.6985706207,270.711334229,0.0009,0.0,0.0,0.0,0.0009,0.0,0.0,0.0,0.0049,2
1672947283621977943,271205,1672947283622526168,gps,2,1,42.3000572811,-83.6985708515,270.714141846,0.0009,0.0,0.0,0.0,0.0009,0.0,0.0,0.0,0.0049,2
1672947283642266564,271206,1672947283642536558,gps,2,1,42.3000580383,-83.6985710429,270.716918945,0.0009,0.0,0.0,0.0,0.0009,0.0,0.0,0.0,0.0049,2
1672947283662198899,271207,1672947283662548998,gps,2,1,42.3000587902,-83.6985712694,270.719787598,0.0009,0.0,0.0,0.0,0.0009,0.0,0.0,0.0,0.0049,2
1672947283682339914,271208,1672947283682659578,gps,2,1,42.3000595423,-83.6985714937,270.722595215,0.0009,0.0,0.0,0.0,0.0009,0.0,0.0,0.0,0.0049,2
1672947283702389751,271209,1672947283702645843,gps,2,1,42.3000603039,-83.6985716824,270.725372314,0.0009,0.0,0.0,0.0,0.0009,0.0,0.0,0.0,0.0049,2
1672947283722269533,271210,1672947283722515390,gps,2,1,42.3000610607,-83.6985719019,270.728363037,0.0009,0.0,0.0,0.0,0.0009,0.0,0.0,0.0,0.0049,2
1672947283742024615,271211,1672947283742622201,gps,2,1,42.3000618176,-83.6985721207,270.731292725,0.0009,0.0,0.0,0.0,0.0009,0.0,0.0,0.0,0.0049,2
1672947283762491554,271212,1672947283762593871,gps,2,1,42.3000625831,-83.6985723075,270.734008789,0.001024,0.0,0.0,0.0,0.001089,0.0,0.0,0.0,0.005041,2
1672947283782355912,271213,1672947283782555972,gps,2,1,42.300063344,-83.6985725232,270.736907959,0.001024,0.0,0.0,0.0,0.001089,0.0,0.0,0.0,0.005041,2
1672947283802283665,271214,1672947283802633966,gps,2,1,42.3000641066,-83.6985727403,270.739776611,0.001024,0.0,0.0,0.0,0.001089,0.0,0.0,0.0,0.005041,2
1672947283822533381,271215,1672947283822649358,gps,2,1,42.3000648758,-83.6985729251,270.742523193,0.001024,0.0,0.0,0.0,0.001089,0.0,0.0,0.0,0.005041,2
1672947283842362761,271216,1672947283842534138,gps,2,1,42.3000656423,-83.6985731382,270.745513916,0.001024,0.0,0.0,0.0,0.001089,0.0,0.0,0.0,0.005041,2
1672947283862302036,271217,1672947283862596774,gps,2,1,42.3000664089,-83.6985733502,270.748474121,0.001024,0.0,0.0,0.0,0.001089,0.0,0.0,0.0,0.005041,2
1672947283882316308,271218,1672947283882573527,gps,2,1,42.300067182,-83.6985735316,270.751342773,0.001024,0.0,0.0,0.0,0.001089,0.0,0.0,0.0,0.005041,2
1672947283902305112,271219,1672947283902555273,gps,2,1,42.3000679513,-83.6985737407,270.754302979,0.001024,0.0,0.0,0.0,0.001089,0.0,0.0,0.0,0.005041,2
1672947283922363476,271220,1672947283922537149,gps,2,1,42.3000687209,-83.6985739488,270.757293701,0.001024,0.0,0.0,0.0,0.001089,0.0,0.0,0.0,0.005041,2
1672947283942445923,271221,1672947283942559615,gps,2,1,42.3000694983,-83.698574126,270.760101318,0.001024,0.0,0.0,0.0,0.001089,0.0,0.0,0.0,0.005041,2
1672947283962182799,271222,1672947283962536563,gps,2,1,42.3000702722,-83.6985743287,270.762969971,0.001024,0.0,0.0,0.0,0.001089,0.0,0.0,0.0,0.005041,2
1672947283982015999,271223,1672947283982576466,gps,2,1,42.3000710469,-83.69857453,270.765808105,0.001024,0.0,0.0,0.0,0.001089,0.0,0.0,0.0,0.005041,2
1672947284002542956,271224,1672947284002737889,gps,2,1,42.3000718286,-83.6985747022,270.768493652,0.001024,0.0,0.0,0.0,0.001089,0.0,0.0,0.0,0.005041,2
1672947284021980138,271225,1672947284022569325,gps,2,1,42.3000726071,-83.6985748993,270.771179199,0.001024,0.0,0.0,0.0,0.001089,0.0,0.0,0.0,0.005041,2
1672947284041968367,271226,1672947284042563111,gps,2,1,42.3000733831,-83.6985751067,270.773834229,0.001024,0.0,0.0,0.0,0.001089,0.0,0.0,0.0,0.005041,2
1672947284062333501,271227,1672947284062823449,gps,2,1,42.3000741686,-83.6985752742,270.776428223,0.001024,0.0,0.0,0.0,0.001089,0.0,0.0,0.0,0.005041,2
1672947284082419379,271228,1672947284082571773,gps,2,1,42.3000749483,-83.6985754765,270.779052734,0.001024,0.0,0.0,0.0,0.001089,0.0,0.0,0.0,0.005041,2
1672947284102142094,271229,1672947284102569583,gps,2,1,42.300075728,-83.6985756804,270.781646729,0.001024,0.0,0.0,0.0,0.001089,0.0,0.0,0.0,0.005041,2
1672947284122356603,271230,1672947284122613330,gps,2,1,42.3000765167,-83.6985758444,270.784210205,0.001024,0.0,0.0,0.0,0.001089,0.0,0.0,0.0,0.005041,2
1672947284142109284,271231,1672947284142516413,gps,2,1,42.3000772996,-83.6985760439,270.786834717,0.001024,0.0,0.0,0.0,0.001089,0.0,0.0,0.0,0.005041,2
1672947284161985158,271232,1672947284162562482,gps,2,1,42.3000780835,-83.698576242,270.789459229,0.001024,0.0,0.0,0.0,0.001089,0.0,0.0,0.0,0.005041,2
1672947284181931731,271233,1672947284182583840,gps,2,1,42.3000788753,-83.6985764028,270.792144775,0.001024,0.0,0.0,0.0,0.001089,0.0,0.0,0.0,0.005041,2
1672947284202220727,271234,1672947284202674730,gps,2,1,42.3000796622,-83.698576598,270.79486084,0.001024,0.0,0.0,0.0,0.001089,0.0,0.0,0.0,0.005041,2
1672947284222304262,271235,1672947284222601159,gps,2,1,42.3000804497,-83.698576792,270.797607422,0.001024,0.0,0.0,0.0,0.001089,0.0,0.0,0.0,0.005041,2
1672947284242637038,271236,1672947284242739200,gps,2,1,42.3000812448,-83.6985769508,270.800415039,0.001024,0.0,0.0,0.0,0.001089,0.0,0.0,0.0,0.005041,2
1672947284262368244,271237,1672947284262621840,gps,2,1,42.3000820356,-83.6985771425,270.803222656,0.001024,0.0,0.0,0.0,0.001089,0.0,0.0,0.0,0.005041,2
1672947284282214432,271238,1672947284282542279,gps,2,1,42.3000828271,-83.698577334,270.806213379,0.001024,0.0,0.0,0.0,0.001089,0.0,0.0,0.0,0.005041,2
1672947284302479957,271239,1672947284302679370,gps,2,1,42.3000836254,-83.6985774922,270.809051514,0.001024,0.0,0.0,0.0,0.001089,0.0,0.0,0.0,0.005041,2
1672947284322404928,271240,1672947284322593666,gps,2,1,42.3000844203,-83.6985776818,270.811950684,0.001024,0.0,0.0,0.0,0.001089,0.0,0.0,0.0,0.005041,2
1672947284342320051,271241,1672947284342554482,gps,2,1,42.3000852154,-83.6985778704,270.814880371,0.001024,0.0,0.0,0.0,0.001089,0.0,0.0,0.0,0.005041,2
1672947284362249324,271242,1672947284362602596,gps,2,1,42.3000860169,-83.6985780273,270.817596436,0.001024,0.0,0.0,0.0,0.001089,0.0,0.0,0.0,0.005041,2
1672947284382217822,271243,1672947284382554275,gps,2,1,42.3000868152,-83.6985782124,270.820404053,0.001024,0.0,0.0,0.0,0.001089,0.0,0.0,0.0,0.005041,2
1672947284401951385,271244,1672947284402577524,gps,2,1,42.3000876129,-83.6985783931,270.823120117,0.001024,0.0,0.0,0.0,0.001089,0.0,0.0,0.0,0.005041,2
1672947284422556476,271245,1672947284422650839,gps,2,1,42.3000884174,-83.6985785464,270.825775146,0.001024,0.0,0.0,0.0,0.001089,0.0,0.0,0.0,0.005041,2
1672947284442361094,271246,1672947284442613797,gps,2,1,42.300089218,-83.6985787213,270.828521729,0.001024,0.0,0.0,0.0,0.001089,0.0,0.0,0.0,0.005041,2
1672947284461923282,271247,1672947284462568312,gps,2,1,42.3000900197,-83.6985788977,270.831329346,0.001024,0.0,0.0,0.0,0.001089,0.0,0.0,0.0,0.005041,2
1672947284482368454,271248,1672947284482575912,gps,2,1,42.300090827,-83.6985790446,270.834075928,0.001024,0.0,0.0,0.0,0.001089,0.0,0.0,0.0,0.005041,2
1672947284502341838,271249,1672947284502633244,gps,2,1,42.3000916314,-83.6985792131,270.836975098,0.001024,0.0,0.0,0.0,0.001089,0.0,0.0,0.0,0.005041,2
1672947284522228845,271250,1672947284522653582,gps,2,1,42.3000924339,-83.6985793927,270.839752197,0.001024,0.0,0.0,0.0,0.001089,0.0,0.0,0.0,0.005041,2
1672947284542485467,271251,1672947284542738768,gps,2,1,42.3000932443,-83.6985795328,270.842468262,0.001024,0.0,0.0,0.0,0.001089,0.0,0.0,0.0,0.005041,2
1672947284562420473,271252,1672947284562717618,gps,2,1,42.3000940501,-83.6985797051,270.845062256,0.001024,0.0,0.0,0.0,0.001089,0.0,0.0,0.0,0.005041,2
1672947284582352634,271253,1672947284582559902,gps,2,1,42.3000948557,-83.6985798772,270.847625732,0.001024,0.0,0.0,0.0,0.001089,0.0,0.0,0.0,0.005041,2
1672947284602528034,271254,1672947284602714435,gps,2,1,42.3000956693,-83.6985800112,270.850067139,0.001024,0.0,0.0,0.0,0.001089,0.0,0.0,0.0,0.005041,2
1672947284622329402,271255,1672947284622546038,gps,2,1,42.3000964776,-83.6985801764,270.85244751,0.001024,0.0,0.0,0.0,0.001089,0.0,0.0,0.0,0.005041,2
1672947284642246939,271256,1672947284642528291,gps,2,1,42.300097286,-83.6985803404,270.854827881,0.001024,0.0,0.0,0.0,0.001089,0.0,0.0,0.0,0.005041,2
1672947284662167190,271257,1672947284662633300,gps,2,1,42.3000981017,-83.6985804701,270.85723877,0.001024,0.0,0.0,0.0,0.001089,0.0,0.0,0.0,0.005041,2
