%time,field.header.seq,field.header.stamp,field.header.frame_id,field.status.status,field.status.service,field.latitude,field.longitude,field.altitude,field.position_covariance0,field.position_covariance1,field.position_covariance2,field.position_covariance3,field.position_covariance4,field.position_covariance5,field.position_covariance6,field.position_covariance7,field.position_covariance8,field.position_covariance_type
1672947011666321424,53113,1672947011665244940,gps,2,1,42.3009690136,-83.6977242288,272.403930664,0.000196,0.0,0.0,0.0,0.000225,0.0,0.0,0.0,0.003721,2
1672947011675513163,53114,1672947011675286245,gps,2,1,42.3009690138,-83.6977242286,272.403900146,0.000196,0.0,0.0,0.0,0.000225,0.0,0.0,0.0,0.003721,2
1672947011685477754,53115,1672947011685226770,gps,2,1,42.300969014,-83.6977242284,272.403900146,0.000196,0.0,0.0,0.0,0.000225,0.0,0.0,0.0,0.003721,2
1672947011695464433,53116,1672947011695217507,gps,2,1,42.3009690137,-83.6977242287,272.403747559,0.000196,0.0,0.0,0.0,0.000225,0.0,0.0,0.0,0.003721,2
1672947011705497608,53117,1672947011705257198,gps,2,1,42.3009690139,-83.6977242287,272.403717041,0.000196,0.0,0.0,0.0,0.000225,0.0,0.0,0.0,0.003721,2
1672947011715439962,53118,1672947011715212324,gps,2,1,42.3009690141,-83.6977242286,272.403717041,0.000196,0.0,0.0,0.0,0.000225,0.0,0.0,0.0,0.003721,2
1672947011725451406,53119,1672947011725208061,gps,2,1,42.3009690138,-83.697724229,272.403564453,0.000196,0.0,0.0,0.0,0.000225,0.0,0.0,0.0,0.003721,2
1672947011735428243,53120,1672947011735203671,gps,2,1,42.300969014,-83.6977242292,272.403533936,0.000196,0.0,0.0,0.0,0.000225,0.0,0.0,0.0,0.003721,2
1672947011745542186,53121,1672947011745307842,gps,2,1,42.3009690142,-83.6977242292,272.403533936,0.000196,0.0,0.0,0.0,0.000225,0.0,0.0,0.0,0.003721,2
1672947011755467214,53122,1672947011755220574,gps,2,1,42.300969014,-83.69772423,272.403381348,0.000196,0.0,0.0,0.0,0.000225,0.0,0.0,0.0,0.003721,2
1672947011765565744,53123,1672947011765325382,gps,2,1,42.3009690141,-83.6977242309,272.40335083,0.000196,0.0,0.0,0.0,0.000225,0.0,0.0,0.0,0.003721,2
1672947011775492587,53124,1672947011775264034,gps,2,1,42.3009690143,-83.6977242313,272.403320312,0.000196,0.0,0.0,0.0,0.000225,0.0,0.0,0.0,0.003721,2
1672947011785482019,53125,1672947011785228418,gps,2,1,42.300969014,-83.6977242328,272.403198242,0.000196,0.0,0.0,0.0,0.000225,0.0,0.0,0.0,0.003721,2
1672947011795451132,53126,1672947011795214721,gps,2,1,42.3009690142,-83.6977242346,272.403137207,0.000196,0.0,0.0,0.0,0.000225,0.0,0.0,0.0,0.003721,2
1672947011805512170,53127,1672947011805269560,gps,2,1,42.3009690144,-83.6977242355,272.403106689,0.000196,0.0,0.0,0.0,0.000225,0.0,0.0,0.0,0.003721,2
1672947011815573477,53128,1672947011815317060,gps,2,1,42.3009690142,-83.697724238,272.402984619,0.000196,0.0,0.0,0.0,0.000225,0.0,0.0,0.0,0.003721,2
1672947011825508748,53129,1672947011825267788,gps,2,1,42.3009690144,-83.697724241,272.402923584,0.000196,0.0,0.0,0.0,0.000225,0.0,0.0,0.0,0.003721,2
1672947011835446677,53130,1672947011835214604,gps,2,1,42.3009690145,-83.697724243,272.402893066,0.000196,0.0,0.0,0.0,0.000225,0.0,0.0,0.0,0.003721,2
1672947011845464153,53131,1672947011845241411,gps,2,1,42.3009690143,-83.6977242468,272.402740479,0.000196,0.0,0.0,0.0,0.000225,0.0,0.0,0.0,0.003721,2
1672947011855456150,53132,1672947011855258868,gps,2,1,42.3009690145,-83.697724251,272.402709961,0.000196,0.0,0.0,0.0,0.000225,0.0,0.0,0.0,0.003721,2
1672947011865374575,53133,1672947011865190765,gps,2,1,42.3009690146,-83.6977242541,272.402648926,0.000196,0.0,0.0,0.0,0.000225,0.0,0.0,0.0,0.003721,2
1672947011875398320,53134,1672947011875189633,gps,2,1,42.3009690144,-83.6977242592,272.402496338,0.000196,0.0,0.0,0.0,0.000225,0.0,0.0,0.0,0.003721,2
1672947011885510687,53135,1672947011885289363,gps,2,1,42.3009690146,-83.6977242648,272.40246582,0.000196,0.0,0.0,0.0,0.000225,0.0,0.0,0.0,0.003721,2
1672947011895411876,53136,1672947011895197649,gps,2,1,42.3009690147,-83.6977242693,272.402404785,0.000196,0.0,0.0,0.0,0.000225,0.0,0.0,0.0,0.003721,2
1672947011905420596,53137,1672947011905197951,gps,2,1,42.3009690145,-83.6977242757,272.402282715,0.000196,0.0,0.0,0.0,0.000225,0.0,0.0,0.0,0.003721,2
1672947011915424250,53138,1672947011915205855,gps,2,1,42.3009690146,-83.6977242826,272.40222168,0.000196,0.0,0.0,0.0,0.000225,0.0,0.0,0.0,0.003721,2
1672947011925482510,53139,1672947011925269923,gps,2,1,42.3009690147,-83.6977242886,272.402160645,0.000196,0.0,0.0,0.0,0.000225,0.0,0.0,0.0,0.003721,2
1672947011935412191,53140,1672947011935198984,gps,2,1,42.3009690145,-83.6977242963,272.402038574,0.000196,0.0,0.0,0.0,0.000225,0.0,0.0,0.0,0.003721,2
1672947011945467791,53141,1672947011945261176,gps,2,1,42.3009690146,-83.6977243048,272.401977539,0.000196,0.0,0.0,0.0,0.000225,0.0,0.0,0.0,0.003721,2
1672947011955403133,53142,1672947011955204505,gps,2,1,42.3009690147,-83.6977243121,272.401916504,0.000196,0.0,0.0,0.0,0.000225,0.0,0.0,0.0,0.003721,2
1672947011965398059,53143,1672947011965199916,gps,2,1,42.3009690145,-83.6977243212,272.401763916,0.000196,0.0,0.0,0.0,0.000225,0.0,0.0,0.0,0.003721,2
1672947011975395948,53144,1672947011975194923,gps,2,1,42.3009690147,-83.6977243312,272.401702881,0.000196,0.0,0.0,0.0,0.000225,0.0,0.0,0.0,0.003721,2
1672947011985467618,53145,1672947011985254547,gps,2,1,42.3009690148,-83.6977243399,272.401641846,0.000196,0.0,0.0,0.0,0.000225,0.0,0.0,0.0,0.003721,2
1672947011995401084,53146,1672947011995221111,gps,2,1,42.3009690146,-83.6977243506,272.401489258,0.000196,0.0,0.0,0.0,0.000225,0.0,0.0,0.0,0.003721,2
1672947012005468188,53147,1672947012005263960,gps,2,1,42.3009690148,-83.697724362,272.401428223,0.000196,0.0,0.0,0.0,0.000225,0.0,0.0,0.0,0.003721,2
1672947012015389271,53148,1672947012015187417,gps,2,1,42.3009690149,-83.6977243722,272.40133667,0.000196,0.0,0.0,0.0,0.000225,0.0,0.0,0.0,0.003721,2
1672947012025466563,53149,1672947012025263427,gps,2,1,42.300969014,-83.6977243838,272.40133667,0.000196,0.0,0.0,0.0,0.000225,0.0,0.0,0.0,0.003721,2
1672947012035501829,53150,1672947012035285776,gps,2,1,42.3009690142,-83.6977243968,272.401245117,0.000196,0.0,0.0,0.0,0.000225,0.0,0.0,0.0,0.003721,2
1672947012045473529,53151,1672947012045278656,gps,2,1,42.3009690144,-83.6977244085,272.401184082,0.000196,0.0,0.0,0.0,0.000225,0.0,0.0,0.0,0.003721,2
1672947012055496061,53152,1672947012055246272,gps,2,1,42.3009690135,-83.6977244217,272.401184082,0.000196,0.0,0.0,0.0,0.000225,0.0,0.0,0.0,0.003721,2
1672947012065697764,53153,1672947012065454424,gps,2,1,42.3009690138,-83.6977244363,272.401092529,0.000196,0.0,0.0,0.0,0.000225,0.0,0.0,0.0,0.003721,2
1672947012075462434,53154,1672947012075274078,gps,2,1,42.300969014,-83.6977244496,272.401031494,0.000196,0.0,0.0,0.0,0.000225,0.0,0.0,0.0,0.003721,2
1672947012085441889,53155,1672947012085237053,gps,2,1,42.3009690132,-83.6977244645,272.401000977,0.000196,0.0,0.0,0.0,0.000225,0.0,0.0,0.0,0.003721,2
1672947012095456628,53156,1672947012095266548,gps,2,1,42.3009690135,-83.6977244807,272.400939941,0.000196,0.0,0.0,0.0,0.000225,0.0,0.0,0.0,0.003721,2
1672947012105448268,53157,1672947012105253494,gps,2,1,42.3009690138,-83.6977244956,272.400848389,0.000196,0.0,0.0,0.0,0.000225,0.0,0.0,0.0,0.003721,2
1672947012115418576,53158,1672947012115232632,gps,2,1,42.300969013,-83.6977245122,272.400848389,0.000196,0.0,0.0,0.0,0.000225,0.0,0.0,0.0,0.003721,2
1672947012125485915,53159,1672947012125281636,gps,2,1,42.3009690133,-83.6977245302,272.400756836,0.000196,0.0,0.0,0.0,0.000225,0.0,0.0,0.0,0.003721,2
1672947012135444366,53160,1672947012135254384,gps,2,1,42.3009690136,-83.6977245468,272.400695801,0.000196,0.0,0.0,0.0,0.000225,0.0,0.0,0.0,0.003721,2
1672947012145468361,53161,1672947012145261228,gps,2,1,42.3009690129,-83.6977245651,272.400665283,0.000196,0.0,0.0,0.0,0.000225,0.0,0.0,0.0,0.003721,2
1672947012155458083,53162,1672947012155244271,gps,2,1,42.3009690132,-83.6977245847,272.400604248,0.000196,0.0,0.0,0.0,0.000225,0.0,0.0,0.0,0.003721,2
1672947012165467458,53163,1672947012165229226,gps,2,1,42.3009690135,-83.6977246031,272.400512695,0.000196,0.0,0.0,0.0,0.000225,0.0,0.0,0.0,0.003721,2
1672947012175429102,53164,1672947012175232261,gps,2,1,42.3009690129,-83.697724623,272.400512695,0.000196,0.0,0.0,0.0,0.000225,0.0,0.0,0.0,0.003721,2
1672947012185439807,53165,1672947012185232740,gps,2,1,42.3009690132,-83.6977246444,272.40045166,0.000196,0.0,0.0,0.0,0.000225,0.0,0.0,0.0,0.003721,2
1672947012195462595,53166,1672947012195259589,gps,2,1,42.3009690135,-83.6977246644,272.400360107,0.000196,0.0,0.0,0.0,0.000225,0.0,0.0,0.0,0.003721,2
1672947012205447130,53167,1672947012205248456,gps,2,1,42.3009690128,-83.697724686,272.400360107,0.000196,0.0,0.0,0.0,0.000225,0.0,0.0,0.0,0.003721,2
1672947012215438359,53168,1672947012215249620,gps,2,1,42.3009690131,-83.6977247092,272.400268555,0.000196,0.0,0.0,0.0,0.000225,0.0,0.0,0.0,0.003721,2
1672947012225471098,53169,1672947012225250983,gps,2,1,42.3009690134,-83.6977247311,272.40020752,0.000196,0.0,0.0,0.0,0.000225,0.0,0.0,0.0,0.003721,2
1672947012235380321,53170,1672947012235194855,gps,2,1,42.3009690128,-83.6977247546,272.40020752,0.000196,0.0,0.0,0.0,0.000225,0.0,0.0,0.0,0.003721,2
1672947012245439753,53171,1672947012245219744,gps,2,1,42.300969013,-83.6977247796,272.400115967,0.000196,0.0,0.0,0.0,0.000225,0.0,0.0,0.0,0.003721,2
1672947012255440177,53172,1672947012255232261,gps,2,1,42.3009690133,-83.697724803,272.400054932,0.000196,0.0,0.0,0.0,0.000225,0.0,0.0,0.0,0.003721,2
1672947012265375531,53173,1672947012265176344,gps,2,1,42.3009690127,-83.6977248283,272.400024414,0.000196,0.0,0.0,0.0,0.000225,0.0,0.0,0.0,0.003721,2
1672947012275358595,53174,1672947012275187178,gps,2,1,42.3009690129,-83.6977248553,272.399963379,0.000196,0.0,0.0,0.0,0.000225,0.0,0.0,0.0,0.003721,2
1672947012285460289,53175,1672947012285235993,gps,2,1,42.3009690132,-83.6977248806,272.399871826,0.000196,0.0,0.0,0.0,0.000225,0.0,0.0,0.0,0.003721,2
1672947012295381189,53176,1672947012295158575,gps,2,1,42.3009690126,-83.6977249078,272.399871826,0.000196,0.0,0.0,0.0,0.000225,0.0,0.0,0.0,0.003721,2
1672947012305416926,53177,1672947012305195897,gps,2,1,42.3009690128,-83.6977249364,272.399810791,0.000196,0.0,0.0,0.0,0.000225,0.0,0.0,0.0,0.003721,2
1672947012315588168,53178,1672947012315363167,gps,2,1,42.300969013,-83.6977249638,272.399719238,0.000196,0.0,0.0,0.0,0.000225,0.0,0.0,0.0,0.003721,2
1672947012325406727,53179,1672947012325191282,gps,2,1,42.3009690125,-83.6977249929,272.399719238,0.000196,0.0,0.0,0.0,0.000225,0.0,0.0,0.0,0.003721,2
1672947012335403796,53180,1672947012335179270,gps,2,1,42.3009690127,-83.6977250236,272.399627686,0.000196,0.0,0.0,0.0,0.000225,0.0,0.0,0.0,0.003721,2
1672947012345455958,53181,1672947012345231637,gps,2,1,42.3009690129,-83.6977250526,272.39956665,0.000196,0.0,0.0,0.0,0.000225,0.0,0.0,0.0,0.003721,2
1672947012355385254,53182,1672947012355173756,gps,2,1,42.3009690123,-83.6977250835,272.399536133,0.000196,0.0,0.0,0.0,0.000225,0.0,0.0,0.0,0.003721,2
1672947012365362454,53183,1672947012365177455,gps,2,1,42.3009690126,-83.6977251159,272.39944458,0.000196,0.0,0.0,0.0,0.000225,0.0,0.0,0.0,0.003721,2
1672947012375445240,53184,1672947012375231400,gps,2,1,42.3009690128,-83.697725147,272.399383545,0.000196,0.0,0.0,0.0,0.000225,0.0,0.0,0.0,0.003721,2
1672947012385363834,53185,1672947012385169200,gps,2,1,42.3009690123,-83.6977251797,272.399353027,0.000196,0.0,0.0,0.0,0.000225,0.0,0.0,0.0,0.003721,2
1672947012395374335,53186,1672947012395177972,gps,2,1,42.3009690125,-83.697725214,272.399291992,0.000196,0.0,0.0,0.0,0.000225,0.0,0.0,0.0,0.003721,2
1672947012405464692,53187,1672947012405261015,gps,2,1,42.3009690127,-83.6977252469,272.399200439,0.000196,0.0,0.0,0.0,0.000225,0.0,0.0,0.0,0.003721,2
1672947012415442790,53188,1672947012415238419,gps,2,1,42.3009690123,-83.6977252816,272.399139404,0.000196,0.0,0.0,0.0,0.000225,0.0,0.0,0.0,0.003721,2
1672947012425382836,53189,1672947012425181466,gps,2,1,42.3009690125,-83.6977253179,272.399078369,0.000196,0.0,0.0,0.0,0.000225,0.0,0.0,0.0,0.003721,2
1672947012435435568,53190,1672947012435224155,gps,2,1,42.3009690127,-83.6977253524,272.398986816,0.000196,0.0,0.0,0.0,0.000225,0.0,0.0,0.0,0.003721,2
1672947012445365985,53191,1672947012445155419,gps,2,1,42.3009690124,-83.697725389,272.398925781,0.000196,0.0,0.0,0.0,0.000225,0.0,0.0,0.0,0.003721,2
1672947012455369911,53192,1672947012455165240,gps,2,1,42.3009690126,-83.6977254271,272.398864746,0.000196,0.0,0.0,0.0,0.000225,0.0,0.0,0.0,0.003721,2
1672947012465434137,53193,1672947012465225296,gps,2,1,42.3009690128,-83.6977254636,272.398773193,0.000196,0.0,0.0,0.0,0.000225,0.0,0.0,0.0,0.003721,2
1672947012475369116,53194,1672947012475168698,gps,2,1,42.3009690125,-83.6977255022,272.398712158,0.000196,0.0,0.0,0.0,0.000225,0.0,0.0,0.0,0.003721,2
1672947012485356851,53195,1672947012485185151,gps,2,1,42.3009690128,-83.6977255422,272.398651123,0.000196,0.0,0.0,0.0,0.000225,0.0,0.0,0.0,0.003721,2
1672947012495463659,53196,1672947012495277165,gps,2,1,42.3009690131,-83.6977255806,272.39855957,0.000196,0.0,0.0,0.0,0.000225,0.0,0.0,0.0,0.003721,2
1672947012505359245,53197,1672947012505161224,gps,2,1,42.3009690128,-83.6977256212,272.398498535,0.000196,0.0,0.0,0.0,0.000225,0.0,0.0,0.0,0.003721,2
1672947012515407830,53198,1672947012515199722,gps,2,1,42.3009690131,-83.6977256631,272.398406982,0.000196,0.0,0.0,0.0,0.000225,0.0,0.0,0.0,0.003721,2
1672947012525488580,53199,1672947012525291385,gps,2,1,42.3009690134,-83.6977257033,272.39831543,0.000196,0.0,0.0,0.0,0.000225,0.0,0.0,0.0,0.003721,2
1672947012535403618,53200,1672947012535195778,gps,2,1,42.3009690132,-83.6977257458,272.398254395,0.000196,0.0,0.0,0.0,0.000225,0.0,0.0,0.0,0.003721,2
1672947012545415097,53201,1672947012545215249,gps,2,1,42.3009690135,-83.6977257895,272.398162842,0.000144,0.0,0.0,0.0,0.000144,0.0,0.0,0.0,0.0036,2
1672947012555527278,53202,1672947012555302881,gps,2,1,42.3009690138,-83.6977258318,272.398071289,0.000144,0.0,0.0,0.0,0.000144,0.0,0.0,0.0,0.0036,2
1672947012565484357,53203,1672947012565276246,gps,2,1,42.3009690138,-83.6977258769,272.397949219,0.000144,0.0,0.0,0.0,0.000144,0.0,0.0,0.0,0.0036,2
1672947012575359952,53204,1672947012575149950,gps,2,1,42.3009690141,-83.6977259226,272.397857666,0.000144,0.0,0.0,0.0,0.000144,0.0,0.0,0.0,0.0036,2
1672947012585411883,53205,1672947012585203162,gps,2,1,42.3009690145,-83.6977259668,272.397766113,0.000144,0.0,0.0,0.0,0.000144,0.0,0.0,0.0,0.0036,2
1672947012595375546,53206,1672947012595162829,gps,2,1,42.3009690145,-83.6977260137,272.397613525,0.000144,0.0,0.0,0.0,0.000144,0.0,0.0,0.0,0.0036,2
1672947012605353936,53207,1672947012605161679,gps,2,1,42.3009690149,-83.6977260613,272.397521973,0.000144,0.0,0.0,0.0,0.000144,0.0,0.0,0.0,0.0036,2
1672947012615407741,53208,1672947012615215126,gps,2,1,42.3009690152,-83.6977261073,272.397399902,0.000144,0.0,0.0,0.0,0.000144,0.0,0.0,0.0,0.0036,2
1672947012625364441,53209,1672947012625167771,gps,2,1,42.3009690154,-83.6977261562,272.397277832,0.000144,0.0,0.0,0.0,0.000144,0.0,0.0,0.0,0.0036,2
1672947012635371942,53210,1672947012635159813,gps,2,1,42.3009690158,-83.6977262057,272.397155762,0.000144,0.0,0.0,0.0,0.000144,0.0,0.0,0.0,0.0036,2
1672947012645441136,53211,1672947012645234166,gps,2,1,42.3009690162,-83.6977262536,272.397064209,0.000144,0.0,0.0,0.0,0.000144,0.0,0.0,0.0,0.0036,2
1672947012655405461,53212,1672947012655176325,gps,2,1,42.3009690162,-83.6977263043,272.396911621,0.000144,0.0,0.0,0.0,0.000144,0.0,0.0,0.0,0.0036,2
1672947012665401270,53213,1672947012665155394,gps,2,1,42.3009690167,-83.6977263557,272.396789551,0.000144,0.0,0.0,0.0,0.000144,0.0,0.0,0.0,0.0036,2
1672947012675446515,53214,1672947012675217310,gps,2,1,42.3009690171,-83.6977264055,272.396697998,0.000144,0.0,0.0,0.0,0.000144,0.0,0.0,0.0,0.0036,2
1672947012685407507,53215,1672947012685153255,gps,2,1,42.3009690172,-83.6977264581,272.39654541,0.000144,0.0,0.0,0.0,0.000144,0.0,0.0,0.0,0.0036,2
1672947012695396255,53216,1672947012695152267,gps,2,1,42.3009690177,-83.6977265115,272.39642334,0.000144,0.0,0.0,0.0,0.000144,0.0,0.0,0.0,0.0036,2
1672947012705431420,53217,1672947012705196169,gps,2,1,42.3009690181,-83.6977265633,272.39630127,0.000144,0.0,0.0,0.0,0.000144,0.0,0.0,0.0,0.0036,2
1672947012715382229,53218,1672947012715136837,gps,2,1,42.3009690183,-83.6977266178,272.396148682,0.000144,0.0,0.0,0.0,0.000144,0.0,0.0,0.0,0.0036,2
1672947012725386575,53219,1672947012725149328,gps,2,1,42.3009690188,-83.6977266732,272.396026611,0.000144,0.0,0.0,0.0,0.000144,0.0,0.0,0.0,0.0036,2
1672947012735445964,53220,1672947012735201053,gps,2,1,42.3009690193,-83.6977267269,272.395904541,0.000144,0.0,0.0,0.0,0.000144,0.0,0.0,0.0,0.0036,2
1672947012745455051,53221,1672947012745201491,gps,2,1,42.3009690194,-83.6977267835,272.395751953,0.000144,0.0,0.0,0.0,0.000144,0.0,0.0,0.0,0.0036,2
1672947012755423513,53222,1672947012755159574,gps,2,1,42.3009690201,-83.697726841,272.395599365,0.000144,0.0,0.0,0.0,0.000144,0.0,0.0,0.0,0.0036,2
1672947012765437207,53223,1672947012765207227,gps,2,1,42.3009690206,-83.6977268968,272.395477295,0.000144,0.0,0.0,0.0,0.000144,0.0,0.0,0.0,0.0036,2
1672947012775439233,53224,1672947012775167184,gps,2,1,42.3009690209,-83.6977269554,272.395294189,0.000144,0.0,0.0,0.0,0.000144,0.0,0.0,0.0,0.0036,2
1672947012785405791,53225,1672947012785146442,gps,2,1,42.3009690215,-83.6977270149,272.395141602,0.000144,0.0,0.0,0.0,0.000144,0.0,0.0,0.0,0.0036,2
1672947012795456905,53226,1672947012795206856,gps,2,1,42.3009690222,-83.6977270727,272.394989014,0.000144,0.0,0.0,0.0,0.000144,0.0,0.0,0.0,0.0036,2
1672947012805432974,53227,1672947012805169978,gps,2,1,42.3009690225,-83.6977271332,272.394836426,0.000144,0.0,0.0,0.0,0.000144,0.0,0.0,0.0,0.0036,2
1672947012815479084,53228,1672947012815237913,gps,2,1,42.3009690231,-83.6977271943,272.394683838,0.000144,0.0,0.0,0.0,0.000144,0.0,0.0,0.0,0.0036,2
1672947012825447540,53229,1672947012825200748,gps,2,1,42.3009690238,-83.6977272542,272.394500732,0.000144,0.0,0.0,0.0,0.000144,0.0,0.0,0.0,0.0036,2
1672947012835377830,53230,1672947012835142349,gps,2,1,42.300969024,-83.6977273165,272.394348145,0.000144,0.0,0.0,0.0,0.000144,0.0,0.0,0.0,0.0036,2
1672947012845382828,53231,1672947012845143237,gps,2,1,42.3009690246,-83.6977273797,272.394195557,0.000144,0.0,0.0,0.0,0.000144,0.0,0.0,0.0,0.0036,2
1672947012855429450,53232,1672947012855193234,gps,2,1,42.3009690252,-83.6977274411,272.394042969,0.000144,0.0,0.0,0.0,0.000144,0.0,0.0,0.0,0.0036,2
1672947012865321371,53233,1672947012865121103,gps,2,1,42.3009690254,-83.6977275051,272.393859863,0.000144,0.0,0.0,0.0,0.000144,0.0,0.0,0.0,0.0036,2
1672947012875361465,53234,1672947012875133139,gps,2,1,42.3009690259,-83.6977275699,272.393707275,0.000144,0.0,0.0,0.0,0.000144,0.0,0.0,0.0,0.0036,2
1672947012885426153,53235,1672947012885214820,gps,2,1,42.3009690264,-83.6977276334,272.393554688,0.000144,0.0,0.0,0.0,0.000144,0.0,0.0,0.0,0.0036,2
1672947012895346238,53236,1672947012895138711,gps,2,1,42.3009690266,-83.6977276993,272.393371582,0.000144,0.0,0.0,0.0,0.000144,0.0,0.0,0.0,0.0036,2
1672947012905350901,53237,1672947012905134799,gps,2,1,42.3009690271,-83.6977277658,272.393218994,0.000144,0.0,0.0,0.0,0.000144,0.0,0.0,0.0,0.0036,2
1672947012915398545,53238,1672947012915196037,gps,2,1,42.3009690276,-83.6977278308,272.393066406,0.000144,0.0,0.0,0.0,0.000144,0.0,0.0,0.0,0.0036,2
1672947012925353963,53239,1672947012925140997,gps,2,1,42.3009690278,-83.6977278984,272.392883301,0.000144,0.0,0.0,0.0,0.000144,0.0,0.0,0.0,0.0036,2
1672947012935335883,53240,1672947012935137459,gps,2,1,42.3009690284,-83.6977279665,272.392700195,0.000144,0.0,0.0,0.0,0.000144,0.0,0.0,0.0,0.0036,2
1672947012945382085,53241,1672947012945192458,gps,2,1,42.3009690289,-83.6977280333,272.392547607,0.000144,0.0,0.0,0.0,0.000144,0.0,0.0,0.0,0.0036,2
1672947012955319518,53242,1672947012955135890,gps,2,1,42.3009690291,-83.6977281024,272.392364502,0.000144,0.0,0.0,0.0,0.000144,0.0,0.0,0.0,0.0036,2
1672947012965336616,53243,1672947012965139047,gps,2,1,42.3009690298,-83.697728172,272.392181396,0.000144,0.0,0.0,0.0,0.000144,0.0,0.0,0.0,0.0036,2
1672947012975392857,53244,1672947012975191878,gps,2,1,42.3009690304,-83.6977282403,272.392028809,0.000144,0.0,0.0,0.0,0.000144,0.0,0.0,0.0,0.0036,2
1672947012985305171,53245,1672947012985127884,gps,2,1,42.3009690308,-83.6977283108,272.391845703,0.000144,0.0,0.0,0.0,0.000144,0.0,0.0,0.0,0.0036,2
1672947012995400112,53246,1672947012995188951,gps,2,1,42.3009690315,-83.6977283816,272.39163208,0.000144,0.0,0.0,0.0,0.000144,0.0,0.0,0.0,0.0036,2
1672947013005392463,53247,1672947013005185008,gps,2,1,42.3009690322,-83.6977284516,272.391448975,0.000144,0.0,0.0,0.0,0.000144,0.0,0.0,0.0,0.0036,2
1672947013015395065,53248,1672947013015165069,gps,2,1,42.3009690326,-83.6977285232,272.391265869,0.000144,0.0,0.0,0.0,0.000144,0.0,0.0,0.0,0.0036,2
1672947013025465371,53249,1672947013025242701,gps,2,1,42.3009690332,-83.6977285954,272.391082764,0.000144,0.0,0.0,0.0,0.000144,0.0,0.0,0.0,0.0036,2
1672947013035377305,53250,1672947013035182000,gps,2,1,42.3009690339,-83.6977286664,272.390869141,0.000144,0.0,0.0,0.0,0.000144,0.0,0.0,0.0,0.0036,2
1672947013045379126,53251,1672947013045188316,gps,2,1,42.3009690339,-83.6977287396,272.390838623,0.000144,0.0,0.0,0.0,0.000144,0.0,0.0,0.0,0.0036,2
1672947013055404557,53252,1672947013055205079,gps,2,1,42.3009690345,-83.6977288128,272.390625,0.000144,0.0,0.0,0.0,0.000144,0.0,0.0,0.0,0.0036,2
1672947013065525337,53253,1672947013065323467,gps,2,1,42.3009690353,-83.6977288852,272.390441895,0.000144,0.0,0.0,0.0,0.000144,0.0,0.0,0.0,0.0036,2
1672947013075405116,53254,1672947013075208932,gps,2,1,42.3009690352,-83.6977289595,272.390411377,0.000144,0.0,0.0,0.0,0.000144,0.0,0.0,0.0,0.0036,2
1672947013085428809,53255,1672947013085218783,gps,2,1,42.3009690357,-83.6977290336,272.390197754,0.000144,0.0,0.0,0.0,0.000144,0.0,0.0,0.0,0.0036,2
1672947013095393796,53256,1672947013095195173,gps,2,1,42.3009690362,-83.6977291069,272.390014648,0.000144,0.0,0.0,0.0,0.000144,0.0,0.0,0.0,0.0036,2
1672947013105332487,53257,1672947013105144753,gps,2,1,42.3009690361,-83.6977291822,272.389953613,0.000144,0.0,0.0,0.0,0.000144,0.0,0.0,0.0,0.0036,2
1672947013115340135,53258,1672947013115127536,gps,2,1,42.3009690366,-83.6977292573,272.389770508,0.000144,0.0,0.0,0.0,0.000144,0.0,0.0,0.0,0.0036,2
1672947013125388785,53259,1672947013125187499,gps,2,1,42.300969037,-83.6977293316,272.389556885,0.000144,0.0,0.0,0.0,0.000144,0.0,0.0,0.0,0.0036,2
1672947013135358382,53260,1672947013135130930,gps,2,1,42.3009690368,-83.6977294078,272.38949585,0.000144,0.0,0.0,0.0,0.000144,0.0,0.0,0.0,0.0036,2
1672947013145309237,53261,1672947013145114460,gps,2,1,42.3009690372,-83.6977294841,272.389251709,0.000144,0.0,0.0,0.0,0.000144,0.0,0.0,0.0,0.0036,2
1672947013155381095,53262,1672947013155183614,gps,2,1,42.3009690377,-83.6977295595,272.389068604,0.000144,0.0,0.0,0.0,0.000144,0.0,0.0,0.0,0.0036,2
1672947013165324137,53263,1672947013165125150,gps,2,1,42.3009690375,-83.697729637,272.388946533,0.000144,0.0,0.0,0.0,0.000144,0.0,0.0,0.0,0.0036,2
1672947013175383436,53264,1672947013175174716,gps,2,1,42.3009690379,-83.6977297143,272.388702393,0.000144,0.0,0.0,0.0,0.000144,0.0,0.0,0.0,0.0036,2
1672947013185310303,53265,1672947013185119883,gps,2,1,42.3009690383,-83.697729791,272.388458252,0.000144,0.0,0.0,0.0,0.000144,0.0,0.0,0.0,0.0036,2
1672947013195283161,53266,1672947013195118314,gps,2,1,42.3009690382,-83.6977298696,272.388305664,0.000144,0.0,0.0,0.0,0.000144,0.0,0.0,0.0,0.0036,2
1672947013205334558,53267,1672947013205122037,gps,2,1,42.3009690386,-83.6977299483,272.388031006,0.000144,0.0,0.0,0.0,0.000144,0.0,0.0,0.0,0.0036,2
1672947013215384223,53268,1672947013215176007,gps,2,1,42.300969039,-83.6977300259,272.387786865,0.000144,0.0,0.0,0.0,0.000144,0.0,0.0,0.0,0.0036,2
1672947013225333058,53269,1672947013225118256,gps,2,1,42.3009690389,-83.6977301057,272.387634277,0.000144,0.0,0.0,0.0,0.000144,0.0,0.0,0.0,0.0036,2
1672947013235357989,53270,1672947013235128827,gps,2,1,42.3009690392,-83.6977301854,272.387359619,0.000144,0.0,0.0,0.0,0.000144,0.0,0.0,0.0,0.0036,2
1672947013245447712,53271,1672947013245252917,gps,2,1,42.3009690397,-83.6977302643,272.387054443,0.000144,0.0,0.0,0.0,0.000144,0.0,0.0,0.0,0.0036,2
1672947013255312912,53272,1672947013255113095,gps,2,1,42.3009690395,-83.697730345,272.386901855,0.000144,0.0,0.0,0.0,0.000144,0.0,0.0,0.0,0.0036,2
1672947013265267503,53273,1672947013265106480,gps,2,1,42.3009690397,-83.6977304255,272.386657715,0.000144,0.0,0.0,0.0,0.000144,0.0,0.0,0.0,0.0036,2
1672947013275376500,53274,1672947013275168639,gps,2,1,42.30096904,-83.6977305053,272.386383057,0.000144,0.0,0.0,0.0,0.000144,0.0,0.0,0.0,0.0036,2
1672947013285300005,53275,1672947013285093560,gps,2,1,42.3009690397,-83.6977305866,272.386260986,0.000144,0.0,0.0,0.0,0.000144,0.0,0.0,0.0,0.0036,2
1672947013295309262,53276,1672947013295102296,gps,2,1,42.3009690399,-83.6977306677,272.385986328,0.000144,0.0,0.0,0.0,0.000144,0.0,0.0,0.0,0.0036,2
1672947013305369750,53277,1672947013305177198,gps,2,1,42.3009690402,-83.6977307484,272.385772705,0.000144,0.0,0.0,0.0,0.000144,0.0,0.0,0.0,0.0036,2
1672947013315402823,53278,1672947013315202171,gps,2,1,42.30096904,-83.6977308302,272.385620117,0.000144,0.0,0.0,0.0,0.000144,0.0,0.0,0.0,0.0036,2
1672947013325314329,53279,1672947013325109844,gps,2,1,42.3009690405,-83.6977309114,272.385406494,0.000144,0.0,0.0,0.0,0.000144,0.0,0.0,0.0,0.0036,2
1672947013335364180,53280,1672947013335165097,gps,2,1,42.3009690409,-83.6977309925,272.385192871,0.000144,0.0,0.0,0.0,0.000144,0.0,0.0,0.0,0.0036,2
1672947013345309977,53281,1672947013345115958,gps,2,1,42.300969041,-83.6977310745,272.385070801,0.000144,0.0,0.0,0.0,0.000144,0.0,0.0,0.0,0.0036,2
1672947013355383562,53282,1672947013355131466,gps,2,1,42.3009690419,-83.6977311558,272.384887695,0.000144,0.0,0.0,0.0,0.000144,0.0,0.0,0.0,0.0036,2
1672947013365398723,53283,1672947013365168589,gps,2,1,42.3009690424,-83.6977312371,272.384674072,0.000144,0.0,0.0,0.0,0.000144,0.0,0.0,0.0,0.0036,2
1672947013375337147,53284,1672947013375101385,gps,2,1,42.3009690428,-83.6977313192,272.384552002,0.000144,0.0,0.0,0.0,0.000144,0.0,0.0,0.0,0.0036,2
1672947013385348801,53285,1672947013385109343,gps,2,1,42.3009690437,-83.6977314006,272.384368896,0.000144,0.0,0.0,0.0,0.000144,0.0,0.0,0.0,0.0036,2
1672947013395435037,53286,1672947013395187484,gps,2,1,42.3009690445,-83.6977314818,272.384185791,0.000144,0.0,0.0,0.0,0.000144,0.0,0.0,0.0,0.0036,2
1672947013405365288,53287,1672947013405111315,gps,2,1,42.3009690451,-83.6977315641,272.384094238,0.000144,0.0,0.0,0.0,0.000144,0.0,0.0,0.0,0.0036,2
1672947013415339086,53288,1672947013415097240,gps,2,1,42.3009690459,-83.6977316453,272.38394165,0.000144,0.0,0.0,0.0,0.000144,0.0,0.0,0.0,0.0036,2
1672947013425405623,53289,1672947013425160051,gps,2,1,42.3009690469,-83.6977317267,272.383758545,0.000144,0.0,0.0,0.0,0.000144,0.0,0.0,0.0,0.0036,2
1672947013435347892,53290,1672947013435093005,gps,2,1,42.3009690475,-83.6977318088,272.38369751,0.000144,0.0,0.0,0.0,0.000144,0.0,0.0,0.0,0.0036,2
1672947013445332443,53291,1672947013445091269,gps,2,1,42.3009690482,-83.6977318899,272.383514404,0.000144,0.0,0.0,0.0,0.000144,0.0,0.0,0.0,0.0036,2
1672947013455418114,53292,1672947013455160819,gps,2,1,42.300969049,-83.697731971,272.383361816,0.000144,0.0,0.0,0.0,0.000144,0.0,0.0,0.0,0.0036,2
1672947013465365064,53293,1672947013465116980,gps,2,1,42.3009690495,-83.6977320529,272.383300781,0.000144,0.0,0.0,0.0,0.000144,0.0,0.0,0.0,0.0036,2
1672947013475343501,53294,1672947013475111668,gps,2,1,42.3009690501,-83.6977321339,272.383117676,0.000144,0.0,0.0,0.0,0.000144,0.0,0.0,0.0,0.0036,2
1672947013485413586,53295,1672947013485155941,gps,2,1,42.3009690508,-83.697732215,272.382965088,0.000144,0.0,0.0,0.0,0.000144,0.0,0.0,0.0,0.0036,2
1672947013495436046,53296,1672947013495190331,gps,2,1,42.3009690513,-83.6977322968,272.382904053,0.000144,0.0,0.0,0.0,0.000144,0.0,0.0,0.0,0.0036,2
1672947013505356167,53297,1672947013505110014,gps,2,1,42.300969052,-83.6977323776,272.382720947,0.000144,0.0,0.0,0.0,0.000144,0.0,0.0,0.0,0.0036,2
1672947013515478912,53298,1672947013515239168,gps,2,1,42.3009690527,-83.6977324585,272.382568359,0.000144,0.0,0.0,0.0,0.000144,0.0,0.0,0.0,0.0036,2
1672947013525376595,53299,1672947013525121641,gps,2,1,42.3009690533,-83.6977325432,272.3828125,0.000144,0.0,0.0,0.0,0.000144,0.0,0.0,0.0,0.0036,2
1672947013535389564,53300,1672947013535148751,gps,2,1,42.3009690541,-83.697732624,272.382629395,0.000144,0.0,0.0,0.0,0.000144,0.0,0.0,0.0,0.0036,2
1672947013545470569,53301,1672947013545238056,gps,2,1,42.3009690549,-83.6977327048,272.382446289,0.000196,0.0,0.0,0.0,0.000225,0.0,0.0,0.0,0.003721,2
1672947013555393016,53302,1672947013555140831,gps,2,1,42.3009690556,-83.6977327893,272.382659912,0.000196,0.0,0.0,0.0,0.000225,0.0,0.0,0.0,0.003721,2
1672947013565437877,53303,1672947013565207578,gps,2,1,42.3009690567,-83.69773287,272.382476807,0.000196,0.0,0.0,0.0,0.000225,0.0,0.0,0.0,0.003721,2
1672947013575380866,53304,1672947013575139203,gps,2,1,42.3009690576,-83.6977329509,272.382293701,0.000196,0.0,0.0,0.0,0.000225,0.0,0.0,0.0,0.003721,2
1672947013585349260,53305,1672947013585084248,gps,2,1,42.3009690585,-83.6977330352,272.382476807,0.000196,0.0,0.0,0.0,0.000225,0.0,0.0,0.0,0.003721,2
1672947013595328058,53306,1672947013595093349,gps,2,1,42.3009690596,-83.6977331158,272.382293701,0.000196,0.0,0.0,0.0,0.000225,0.0,0.0,0.0,0.003721,2
1672947013605448906,53307,1672947013605181516,gps,2,1,42.3009690607,-83.6977331965,272.382080078,0.000196,0.0,0.0,0.0,0.000225,0.0,0.0,0.0,0.003721,2
1672947013615348399,53308,1672947013615088472,gps,2,1,42.3009690616,-83.6977332806,272.382232666,0.000196,0.0,0.0,0.0,0.000225,0.0,0.0,0.0,0.003721,2
1672947013625352551,53309,1672947013625112113,gps,2,1,42.3009690626,-83.6977333612,272.382049561,0.000196,0.0,0.0,0.0,0.000225,0.0,0.0,0.0,0.003721,2
1672947013635426356,53310,1672947013635174367,gps,2,1,42.3009690637,-83.6977334419,272.381835938,0.000196,0.0,0.0,0.0,0.000225,0.0,0.0,0.0,0.003721,2
1672947013645355565,53311,1672947013645095883,gps,2,1,42.3009690644,-83.6977335257,272.381988525,0.000196,0.0,0.0,0.0,0.000225,0.0,0.0,0.0,0.003721,2
1672947013655336807,53312,1672947013655102330,gps,2,1,42.3009690653,-83.697733606,272.38180542,0.000196,0.0,0.0,0.0,0.000225,0.0,0.0,0.0,0.003721,2
1672947013665371728,53313,1672947013665165934,gps,2,1,42.3009690663,-83.6977336867,272.381591797,0.000196,0.0,0.0,0.0,0.000225,0.0,0.0,0.0,0.003721,2
1672947013675332066,53314,1672947013675094078,gps,2,1,42.3009690669,-83.6977337702,272.381744385,0.000196,0.0,0.0,0.0,0.000225,0.0,0.0,0.0,0.003721,2
1672947013685336979,53315,1672947013685091799,gps,2,1,42.3009690676,-83.6977338504,272.381561279,0.000196,0.0,0.0,0.0,0.000225,0.0,0.0,0.0,0.003721,2
1672947013695434743,53316,1672947013695188806,gps,2,1,42.3009690685,-83.6977339307,272.381378174,0.000196,0.0,0.0,0.0,0.000225,0.0,0.0,0.0,0.003721,2
1672947013705327737,53317,1672947013705087538,gps,2,1,42.3009690688,-83.6977340139,272.381530762,0.000196,0.0,0.0,0.0,0.000225,0.0,0.0,0.0,0.003721,2
1672947013715341151,53318,1672947013715096064,gps,2,1,42.3009690694,-83.6977340937,272.381378174,0.000196,0.0,0.0,0.0,0.000225,0.0,0.0,0.0,0.003721,2
1672947013725382240,53319,1672947013725133545,gps,2,1,42.3009690701,-83.6977341739,272.381225586,0.000196,0.0,0.0,0.0,0.000225,0.0,0.0,0.0,0.003721,2
1672947013735335659,53320,1672947013735074726,gps,2,1,42.3009690703,-83.6977342566,272.381378174,0.000196,0.0,0.0,0.0,0.000225,0.0,0.0,0.0,0.003721,2
1672947013745406030,53321,1672947013745166155,gps,2,1,42.3009690707,-83.697734336,272.381225586,0.000196,0.0,0.0,0.0,0.000225,0.0,0.0,0.0,0.003721,2
1672947013755381107,53322,1672947013755136688,gps,2,1,42.3009690713,-83.6977344158,272.381072998,0.000196,0.0,0.0,0.0,0.000225,0.0,0.0,0.0,0.003721,2
1672947013765355190,53323,1672947013765105647,gps,2,1,42.3009690714,-83.697734498,272.381225586,0.000196,0.0,0.0,0.0,0.000225,0.0,0.0,0.0,0.003721,2
1672947013775372403,53324,1672947013775131650,gps,2,1,42.3009690717,-83.6977345771,272.381103516,0.000196,0.0,0.0,0.0,0.000225,0.0,0.0,0.0,0.003721,2
1672947013785300565,53325,1672947013785048404,gps,2,1,42.3009690722,-83.6977346564,272.380981445,0.000196,0.0,0.0,0.0,0.000225,0.0,0.0,0.0,0.003721,2
1672947013795275011,53326,1672947013795022050,gps,2,1,42.3009690722,-83.6977347381,272.381103516,0.000196,0.0,0.0,0.0,0.000225,0.0,0.0,0.0,0.003721,2
1672947013805339329,53327,1672947013805095996,gps,2,1,42.3009690724,-83.6977348168,272.380981445,0.000196,0.0,0.0,0.0,0.000225,0.0,0.0,0.0,0.003721,2
1672947013815493722,53328,1672947013815246018,gps,2,1,42.3009690727,-83.6977348957,272.380859375,0.000196,0.0,0.0,0.0,0.000225,0.0,0.0,0.0,0.003721,2
1672947013825324360,53329,1672947013825093203,gps,2,1,42.3009690727,-83.697734977,272.381011963,0.000196,0.0,0.0,0.0,0.000225,0.0,0.0,0.0,0.003721,2
1672947013835338469,53330,1672947013835090138,gps,2,1,42.300969073,-83.6977350551,272.380889893,0.000196,0.0,0.0,0.0,0.000225,0.0,0.0,0.0,0.003721,2
1672947013845321738,53331,1672947013845119976,gps,2,1,42.3009690732,-83.6977351337,272.380767822,0.000196,0.0,0.0,0.0,0.000225,0.0,0.0,0.0,0.003721,2
1672947013855316477,53332,1672947013855091371,gps,2,1,42.3009690732,-83.6977352144,272.380889893,0.000196,0.0,0.0,0.0,0.000225,0.0,0.0,0.0,0.003721,2
1672947013865284231,53333,1672947013865081819,gps,2,1,42.3009690736,-83.6977352922,272.380767822,0.000196,0.0,0.0,0.0,0.000225,0.0,0.0,0.0,0.003721,2
1672947013875342964,53334,1672947013875132539,gps,2,1,42.300969074,-83.6977353702,272.380645752,0.000196,0.0,0.0,0.0,0.000225,0.0,0.0,0.0,0.003721,2
1672947013885245425,53335,1672947013885061219,gps,2,1,42.3009690741,-83.6977354504,272.380767822,0.000196,0.0,0.0,0.0,0.000225,0.0,0.0,0.0,0.003721,2
1672947013895282643,53336,1672947013895088843,gps,2,1,42.3009690746,-83.6977355276,272.380615234,0.000196,0.0,0.0,0.0,0.000225,0.0,0.0,0.0,0.003721,2
1672947013905333575,53337,1672947013905126699,gps,2,1,42.300969075,-83.6977356054,272.380493164,0.000196,0.0,0.0,0.0,0.000225,0.0,0.0,0.0,0.003721,2
1672947013915275511,53338,1672947013915084592,gps,2,1,42.3009690753,-83.697735685,272.380584717,0.000196,0.0,0.0,0.0,0.000225,0.0,0.0,0.0,0.003721,2
1672947013925332131,53339,1672947013925087153,gps,2,1,42.3009690758,-83.6977357618,272.380462646,0.000196,0.0,0.0,0.0,0.000225,0.0,0.0,0.0,0.003721,2
1672947013935369476,53340,1672947013935127515,gps,2,1,42.3009690763,-83.697735839,272.380340576,0.000196,0.0,0.0,0.0,0.000225,0.0,0.0,0.0,0.003721,2
1672947013945306359,53341,1672947013945067370,gps,2,1,42.3009690766,-83.697735918,272.380401611,0.000196,0.0,0.0,0.0,0.000225,0.0,0.0,0.0,0.003721,2
1672947013955330474,53342,1672947013955076690,gps,2,1,42.3009690772,-83.6977359944,272.380249023,0.000196,0.0,0.0,0.0,0.000225,0.0,0.0,0.0,0.003721,2
1672947013965340247,53343,1672947013965130097,gps,2,1,42.3009690777,-83.6977360711,272.380126953,0.000196,0.0,0.0,0.0,0.000225,0.0,0.0,0.0,0.003721,2
1672947013975257634,53344,1672947013975054875,gps,2,1,42.300969078,-83.6977361497,272.380157471,0.000196,0.0,0.0,0.0,0.000225,0.0,0.0,0.0,0.003721,2
1672947013985355667,53345,1672947013985109947,gps,2,1,42.3009690787,-83.6977362256,272.380004883,0.000196,0.0,0.0,0.0,0.000225,0.0,0.0,0.0,0.003721,2
1672947013995463139,53346,1672947013995251391,gps,2,1,42.3009690793,-83.6977363019,272.379821777,0.000196,0.0,0.0,0.0,0.000225,0.0,0.0,0.0,0.003721,2
1672947014005269534,53347,1672947014005049288,gps,2,1,42.3009690797,-83.69773638,272.379852295,0.000196,0.0,0.0,0.0,0.000225,0.0,0.0,0.0,0.003721,2
1672947014015378943,53348,1672947014015147011,gps,2,1,42.3009690804,-83.6977364555,272.379699707,0.000196,0.0,0.0,0.0,0.000225,0.0,0.0,0.0,0.003721,2
1672947014025405268,53349,1672947014025151389,gps,2,1,42.3009690811,-83.6977365313,272.379547119,0.000196,0.0,0.0,0.0,0.000225,0.0,0.0,0.0,0.003721,2
1672947014035340769,53350,1672947014035113142,gps,2,1,42.3009690815,-83.6977366089,272.379547119,0.000196,0.0,0.0,0.0,0.000225,0.0,0.0,0.0,0.003721,2
1672947014045380649,53351,1672947014045130768,gps,2,1,42.3009690821,-83.697736684,272.379394531,0.000196,0.0,0.0,0.0,0.000225,0.0,0.0,0.0,0.003721,2
1672947014055410186,53352,1672947014055180634,gps,2,1,42.3009690827,-83.6977367595,272.379241943,0.000196,0.0,0.0,0.0,0.000225,0.0,0.0,0.0,0.003721,2
1672947014065354063,53353,1672947014065155281,gps,2,1,42.3009690817,-83.6977368365,272.379364014,0.000196,0.0,0.0,0.0,0.000225,0.0,0.0,0.0,0.003721,2
1672947014075419253,53354,1672947014075194098,gps,2,1,42.3009690821,-83.6977369112,272.379211426,0.000196,0.0,0.0,0.0,0.000225,0.0,0.0,0.0,0.003721,2
1672947014085366033,53355,1672947014085126995,gps,2,1,42.3009690827,-83.6977369862,272.379058838,0.000196,0.0,0.0,0.0,0.000225,0.0,0.0,0.0,0.003721,2
1672947014095301665,53356,1672947014095075568,gps,2,1,42.3009690816,-83.6977370629,272.379150391,0.000196,0.0,0.0,0.0,0.000225,0.0,0.0,0.0,0.003721,2
1672947014105369812,53357,1672947014105118090,gps,2,1,42.300969082,-83.6977371371,272.378997803,0.000196,0.0,0.0,0.0,0.000225,0.0,0.0,0.0,0.003721,2
1672947014115288518,53358,1672947014115060918,gps,2,1,42.3009690825,-83.6977372118,272.378814697,0.000196,0.0,0.0,0.0,0.000225,0.0,0.0,0.0,0.003721,2
1672947014125272681,53359,1672947014125046557,gps,2,1,42.3009690814,-83.697737288,272.37890625,0.000196,0.0,0.0,0.0,0.000225,0.0,0.0,0.0,0.003721,2
1672947014135290688,53360,1672947014135048295,gps,2,1,42.3009690818,-83.6977373619,272.378723145,0.000196,0.0,0.0,0.0,0.000225,0.0,0.0,0.0,0.003721,2
1672947014145375056,53361,1672947014145124789,gps,2,1,42.3009690822,-83.6977374362,272.378570557,0.000196,0.0,0.0,0.0,0.000225,0.0,0.0,0.0,0.003721,2
1672947014155288168,53362,1672947014155039021,gps,2,1,42.3009690815,-83.6977375121,272.378662109,0.000196,0.0,0.0,0.0,0.000225,0.0,0.0,0.0,0.003721,2
1672947014165233378,53363,1672947014165042585,gps,2,1,42.300969082,-83.6977375857,272.378479004,0.000196,0.0,0.0,0.0,0.000225,0.0,0.0,0.0,0.003721,2
1672947014175331928,53364,1672947014175106688,gps,2,1,42.3009690825,-83.6977376597,272.378295898,0.000196,0.0,0.0,0.0,0.000225,0.0,0.0,0.0,0.003721,2
1672947014185288531,53365,1672947014185047843,gps,2,1,42.300969082,-83.6977377354,272.378356934,0.000196,0.0,0.0,0.0,0.000225,0.0,0.0,0.0,0.003721,2
1672947014195252654,53366,1672947014195054608,gps,2,1,42.3009690826,-83.697737809,272.378173828,0.000196,0.0,0.0,0.0,0.000225,0.0,0.0,0.0,0.003721,2
1672947014205294127,53367,1672947014205107004,gps,2,1,42.3009690831,-83.6977378824,272.377990723,0.000196,0.0,0.0,0.0,0.000225,0.0,0.0,0.0,0.003721,2
1672947014215251791,53368,1672947014215053340,gps,2,1,42.3009690827,-83.6977379578,272.378051758,0.000196,0.0,0.0,0.0,0.000225,0.0,0.0,0.0,0.003721,2
1672947014225283206,53369,1672947014225058233,gps,2,1,42.3009690834,-83.6977380312,272.377868652,0.000196,0.0,0.0,0.0,0.000225,0.0,0.0,0.0,0.003721,2
1672947014235341178,53370,1672947014235106893,gps,2,1,42.300969084,-83.6977381046,272.377655029,0.000196,0.0,0.0,0.0,0.000225,0.0,0.0,0.0,0.003721,2
1672947014245366875,53371,1672947014245139578,gps,2,1,42.3009690837,-83.6977381798,272.377716064,0.000196,0.0,0.0,0.0,0.000225,0.0,0.0,0.0,0.003721,2
1672947014255305159,53372,1672947014255103373,gps,2,1,42.3009690845,-83.6977382529,272.377532959,0.000196,0.0,0.0,0.0,0.000225,0.0,0.0,0.0,0.003721,2
1672947014265272022,53373,1672947014265065782,gps,2,1,42.3009690852,-83.6977383263,272.377319336,0.000196,0.0,0.0,0.0,0.000225,0.0,0.0,0.0,0.003721,2
1672947014275274493,53374,1672947014275067050,gps,2,1,42.3009690849,-83.6977384013,272.377349854,0.000196,0.0,0.0,0.0,0.000225,0.0,0.0,0.0,0.003721,2
1672947014285290117,53375,1672947014285094905,gps,2,1,42.3009690858,-83.6977384742,272.377166748,0.000196,0.0,0.0,0.0,0.000225,0.0,0.0,0.0,0.003721,2
1672947014295248891,53376,1672947014295036580,gps,2,1,42.3009690866,-83.6977385472,272.376983643,0.000196,0.0,0.0,0.0,0.000225,0.0,0.0,0.0,0.003721,2
1672947014305233219,53377,1672947014305042080,gps,2,1,42.3009690864,-83.6977386219,272.376983643,0.000196,0.0,0.0,0.0,0.000225,0.0,0.0,0.0,0.003721,2
1672947014315355362,53378,1672947014315150840,gps,2,1,42.3009690873,-83.6977386946,272.376831055,0.000196,0.0,0.0,0.0,0.000225,0.0,0.0,0.0,0.003721,2
1672947014325296376,53379,1672947014325102402,gps,2,1,42.3009690882,-83.6977387675,272.376647949,0.000196,0.0,0.0,0.0,0.000225,0.0,0.0,0.0,0.003721,2
1672947014335213423,53380,1672947014335034811,gps,2,1,42.3009690882,-83.6977388419,272.376678467,0.000196,0.0,0.0,0.0,0.000225,0.0,0.0,0.0,0.003721,2
1672947014345250145,53381,1672947014345045369,gps,2,1,42.3009690891,-83.6977389143,272.376495361,0.000196,0.0,0.0,0.0,0.000225,0.0,0.0,0.0,0.003721,2
1672947014355299293,53382,1672947014355108009,gps,2,1,42.30096909,-83.697738987,272.376312256,0.000196,0.0,0.0,0.0,0.000225,0.0,0.0,0.0,0.003721,2
1672947014365252579,53383,1672947014365042440,gps,2,1,42.3009690899,-83.6977390611,272.376342773,0.000196,0.0,0.0,0.0,0.000225,0.0,0.0,0.0,0.003721,2
1672947014375262729,53384,1672947014375041443,gps,2,1,42.3009690907,-83.6977391333,272.376159668,0.000196,0.0,0.0,0.0,0.000225,0.0,0.0,0.0,0.003721,2
1672947014385317549,53385,1672947014385119807,gps,2,1,42.3009690917,-83.6977392057,272.37600708,0.000196,0.0,0.0,0.0,0.000225,0.0,0.0,0.0,0.003721,2
1672947014395233238,53386,1672947014395039384,gps,2,1,42.3009690913,-83.6977392796,272.37600708,0.000196,0.0,0.0,0.0,0.000225,0.0,0.0,0.0,0.003721,2
1672947014405224371,53387,1672947014405029355,gps,2,1,42.3009690919,-83.6977393515,272.375823975,0.000196,0.0,0.0,0.0,0.000225,0.0,0.0,0.0,0.003721,2
1672947014415282742,53388,1672947014415080912,gps,2,1,42.3009690927,-83.6977394236,272.375640869,0.000196,0.0,0.0,0.0,0.000225,0.0,0.0,0.0,0.003721,2
1672947014425220727,53389,1672947014425027961,gps,2,1,42.3009690922,-83.6977394972,272.375640869,0.000196,0.0,0.0,0.0,0.000225,0.0,0.0,0.0,0.003721,2
1672947014435237189,53390,1672947014435028237,gps,2,1,42.3009690927,-83.6977395689,272.375457764,0.000196,0.0,0.0,0.0,0.000225,0.0,0.0,0.0,0.003721,2
1672947014445293750,53391,1672947014445111685,gps,2,1,42.3009690932,-83.6977396407,272.375274658,0.000196,0.0,0.0,0.0,0.000225,0.0,0.0,0.0,0.003721,2
1672947014455254981,53392,1672947014455043911,gps,2,1,42.3009690927,-83.6977397141,272.375213623,0.000196,0.0,0.0,0.0,0.000225,0.0,0.0,0.0,0.003721,2
1672947014465310417,53393,1672947014465110272,gps,2,1,42.3009690931,-83.6977397856,272.375030518,0.000196,0.0,0.0,0.0,0.000225,0.0,0.0,0.0,0.003721,2
1672947014475266281,53394,1672947014475036619,gps,2,1,42.3009690936,-83.6977398572,272.374816895,0.000196,0.0,0.0,0.0,0.000225,0.0,0.0,0.0,0.003721,2
1672947014485231200,53395,1672947014485033263,gps,2,1,42.3009690931,-83.6977399304,272.374786377,0.000196,0.0,0.0,0.0,0.000225,0.0,0.0,0.0,0.003721,2
1672947014495311948,53396,1672947014495124985,gps,2,1,42.3009690936,-83.6977400017,272.374572754,0.000196,0.0,0.0,0.0,0.000225,0.0,0.0,0.0,0.003721,2
1672947014505280246,53397,1672947014505093311,gps,2,1,42.3009690941,-83.6977400732,272.374389648,0.000196,0.0,0.0,0.0,0.000225,0.0,0.0,0.0,0.003721,2
1672947014515258493,53398,1672947014515065760,gps,2,1,42.3009690936,-83.6977401461,272.374328613,0.000196,0.0,0.0,0.0,0.000225,0.0,0.0,0.0,0.003721,2
1672947014525349163,53399,1672947014525115067,gps,2,1,42.3009690943,-83.6977402174,272.37411499,0.000196,0.0,0.0,0.0,0.000225,0.0,0.0,0.0,0.003721,2
1672947014535304561,53400,1672947014535088781,gps,2,1,42.3009690948,-83.6977402886,272.373901367,0.000196,0.0,0.0,0.0,0.000225,0.0,0.0,0.0,0.003721,2
1672947014545340825,53401,1672947014545105479,gps,2,1,42.3009690945,-83.6977403614,272.373840332,0.000196,0.0,0.0,0.0,0.000225,0.0,0.0,0.0,0.003721,2
1672947014555365943,53402,1672947014555134543,gps,2,1,42.3009690952,-83.6977404326,272.373657227,0.000196,0.0,0.0,0.0,0.000225,0.0,0.0,0.0,0.003721,2
1672947014565458844,53403,1672947014565249886,gps,2,1,42.3009690958,-83.6977405037,272.373443604,0.000196,0.0,0.0,0.0,0.000225,0.0,0.0,0.0,0.003721,2
1672947014575278657,53404,1672947014575032339,gps,2,1,42.3009690957,-83.6977405778,272.373413086,0.000196,0.0,0.0,0.0,0.000225,0.0,0.0,0.0,0.003721,2
1672947014585310657,53405,1672947014585087961,gps,2,1,42.3009690964,-83.6977406487,272.37322998,0.000196,0.0,0.0,0.0,0.000225,0.0,0.0,0.0,0.003721,2
1672947014595250276,53406,1672947014595031568,gps,2,1,42.300969097,-83.6977407198,272.373046875,0.000196,0.0,0.0,0.0,0.000225,0.0,0.0,0.0,0.003721,2
1672947014605245437,53407,1672947014605021800,gps,2,1,42.3009690969,-83.6977407936,272.373016357,0.000196,0.0,0.0,0.0,0.000225,0.0,0.0,0.0,0.003721,2
1672947014615237573,53408,1672947014615026820,gps,2,1,42.3009690975,-83.6977408644,272.372833252,0.000196,0.0,0.0,0.0,0.000225,0.0,0.0,0.0,0.003721,2
1672947014625299631,53409,1672947014625089122,gps,2,1,42.3009690982,-83.6977409353,272.372650146,0.000196,0.0,0.0,0.0,0.000225,0.0,0.0,0.0,0.003721,2
1672947014635215247,53410,1672947014635026286,gps,2,1,42.3009690981,-83.6977410089,272.372650146,0.000196,0.0,0.0,0.0,0.000225,0.0,0.0,0.0,0.003721,2
1672947014645303143,53411,1672947014645104805,gps,2,1,42.3009690987,-83.6977410796,272.372467041,0.000196,0.0,0.0,0.0,0.000225,0.0,0.0,0.0,0.003721,2
1672947014655265225,53412,1672947014655025996,gps,2,1,42.3009690994,-83.6977411504,272.372283936,0.000196,0.0,0.0,0.0,0.000225,0.0,0.0,0.0,0.003721,2
1672947014665286980,53413,1672947014665041942,gps,2,1,42.3009690994,-83.6977412236,272.372283936,0.000196,0.0,0.0,0.0,0.000225,0.0,0.0,0.0,0.003721,2
1672947014675250306,53414,1672947014675049431,gps,2,1,42.3009691002,-83.6977412942,272.372131348,0.000196,0.0,0.0,0.0,0.000225,0.0,0.0,0.0,0.003721,2
1672947014685265555,53415,1672947014685074271,gps,2,1,42.3009691008,-83.6977413649,272.371948242,0.000196,0.0,0.0,0.0,0.000225,0.0,0.0,0.0,0.003721,2
1672947014695202461,53416,1672947014695010649,gps,2,1,42.300969101,-83.6977414379,272.371948242,0.000196,0.0,0.0,0.0,0.000225,0.0,0.0,0.0,0.003721,2
1672947014705221966,53417,1672947014705017851,gps,2,1,42.3009691018,-83.6977415085,272.371795654,0.000196,0.0,0.0,0.0,0.000225,0.0,0.0,0.0,0.003721,2
1672947014715267141,53418,1672947014715067241,gps,2,1,42.3009691025,-83.697741579,272.371643066,0.000196,0.0,0.0,0.0,0.000225,0.0,0.0,0.0,0.003721,2
1672947014725279498,53419,1672947014725069213,gps,2,1,42.3009691028,-83.6977416521,272.371612549,0.000196,0.0,0.0,0.0,0.000225,0.0,0.0,0.0,0.003721,2
1672947014735242516,53420,1672947014735046421,gps,2,1,42.3009691036,-83.6977417227,272.371429443,0.000196,0.0,0.0,0.0,0.000225,0.0,0.0,0.0,0.003721,2
1672947014745366029,53421,1672947014745167040,gps,2,1,42.3009691044,-83.6977417932,272.371276855,0.000196,0.0,0.0,0.0,0.000225,0.0,0.0,0.0,0.003721,2
1672947014755239626,53422,1672947014755013278,gps,2,1,42.3009691046,-83.6977418663,272.371246338,0.000196,0.0,0.0,0.0,0.000225,0.0,0.0,0.0,0.003721,2
1672947014765339934,53423,1672947014765122753,gps,2,1,42.3009691054,-83.6977419372,272.371063232,0.000196,0.0,0.0,0.0,0.000225,0.0,0.0,0.0,0.003721,2
1672947014775239395,53424,1672947014775041346,gps,2,1,42.3009691062,-83.6977420079,272.370880127,0.000196,0.0,0.0,0.0,0.000225,0.0,0.0,0.0,0.003721,2
1672947014785272214,53425,1672947014785038384,gps,2,1,42.3009691064,-83.6977420813,272.370849609,0.000196,0.0,0.0,0.0,0.000225,0.0,0.0,0.0,0.003721,2
1672947014795209686,53426,1672947014795018127,gps,2,1,42.3009691072,-83.6977421526,272.370666504,0.000196,0.0,0.0,0.0,0.000225,0.0,0.0,0.0,0.003721,2
1672947014805277651,53427,1672947014805093594,gps,2,1,42.300969108,-83.6977422235,272.370483398,0.000196,0.0,0.0,0.0,0.000225,0.0,0.0,0.0,0.003721,2
1672947014815342778,53428,1672947014815106890,gps,2,1,42.3009691083,-83.6977422974,272.370422363,0.000196,0.0,0.0,0.0,0.000225,0.0,0.0,0.0,0.003721,2
1672947014825282031,53429,1672947014825018675,gps,2,1,42.3009691091,-83.6977423696,272.370239258,0.000196,0.0,0.0,0.0,0.000225,0.0,0.0,0.0,0.003721,2
1672947014835355175,53430,1672947014835098949,gps,2,1,42.3009691099,-83.6977424411,272.370056152,0.000196,0.0,0.0,0.0,0.000225,0.0,0.0,0.0,0.003721,2
1672947014845233939,53431,1672947014845023697,gps,2,1,42.3009691102,-83.6977425157,272.370025635,0.000196,0.0,0.0,0.0,0.000225,0.0,0.0,0.0,0.003721,2
1672947014855251764,53432,1672947014855004495,gps,2,1,42.3009691112,-83.6977425889,272.369842529,0.000196,0.0,0.0,0.0,0.000225,0.0,0.0,0.0,0.003721,2
1672947014865259447,53433,1672947014865068187,gps,2,1,42.300969112,-83.6977426612,272.369628906,0.000196,0.0,0.0,0.0,0.000225,0.0,0.0,0.0,0.003721,2
1672947014875220751,53434,1672947014874998463,gps,2,1,42.3009691124,-83.697742737,272.369598389,0.000196,0.0,0.0,0.0,0.000225,0.0,0.0,0.0,0.003721,2
1672947014885214157,53435,1672947014885010371,gps,2,1,42.3009691135,-83.6977428114,272.369415283,0.000196,0.0,0.0,0.0,0.000225,0.0,0.0,0.0,0.003721,2
1672947014895285599,53436,1672947014895093184,gps,2,1,42.3009691144,-83.6977428849,272.36920166,0.000196,0.0,0.0,0.0,0.000225,0.0,0.0,0.0,0.003721,2
1672947014905240744,53437,1672947014905004607,gps,2,1,42.3009691152,-83.6977429617,272.369140625,0.000196,0.0,0.0,0.0,0.000225,0.0,0.0,0.0,0.003721,2
1672947014915221335,53438,1672947014915005770,gps,2,1,42.3009691164,-83.6977430375,272.368927002,0.000196,0.0,0.0,0.0,0.000225,0.0,0.0,0.0,0.003721,2
1672947014925317421,53439,1672947014925076297,gps,2,1,42.3009691174,-83.6977431123,272.368774414,0.000196,0.0,0.0,0.0,0.000225,0.0,0.0,0.0,0.003721,2
1672947014935218994,53440,1672947014935006543,gps,2,1,42.3009691183,-83.6977431905,272.368682861,0.000196,0.0,0.0,0.0,0.000225,0.0,0.0,0.0,0.003721,2
1672947014945274427,53441,1672947014945068729,gps,2,1,42.3009691196,-83.6977432679,272.368469238,0.000196,0.0,0.0,0.0,0.000225,0.0,0.0,0.0,0.003721,2
1672947014955207801,53442,1672947014955008290,gps,2,1,42.3009691208,-83.6977433441,272.368286133,0.000196,0.0,0.0,0.0,0.000225,0.0,0.0,0.0,0.003721,2
1672947014965193010,53443,1672947014965000941,gps,2,1,42.3009691218,-83.6977434238,272.368164062,0.000196,0.0,0.0,0.0,0.000225,0.0,0.0,0.0,0.003721,2
1672947014975213913,53444,1672947014975018623,gps,2,1,42.3009691231,-83.6977435028,272.367950439,0.000196,0.0,0.0,0.0,0.000225,0.0,0.0,0.0,0.003721,2
1672947014985302697,53445,1672947014985051736,gps,2,1,42.3009691243,-83.6977435805,272.367767334,0.000196,0.0,0.0,0.0,0.000225,0.0,0.0,0.0,0.003721,2
1672947014995278973,53446,1672947014995073142,gps,2,1,42.3009691253,-83.6977436618,272.367645264,0.000196,0.0,0.0,0.0,0.000225,0.0,0.0,0.0,0.003721,2
1672947015005239078,53447,1672947015004995717,gps,2,1,42.3009691267,-83.6977437424,272.367401123,0.000196,0.0,0.0,0.0,0.000225,0.0,0.0,0.0,0.003721,2
1672947015015394735,53448,1672947015015136493,gps,2,1,42.300969128,-83.6977438217,272.3671875,0.000196,0.0,0.0,0.0,0.000225,0.0,0.0,0.0,0.003721,2
1672947015025272476,53449,1672947015025029255,gps,2,1,42.3009691309,-83.6977439016,272.367126465,0.000196,0.0,0.0,0.0,0.000225,0.0,0.0,0.0,0.003721,2
1672947015035322759,53450,1672947015035085231,gps,2,1,42.3009691324,-83.697743984,272.366882324,0.000196,0.0,0.0,0.0,0.000225,0.0,0.0,0.0,0.003721,2
1672947015045357587,53451,1672947015045151852,gps,2,1,42.3009691337,-83.6977440649,272.366638184,0.000196,0.0,0.0,0.0,0.000225,0.0,0.0,0.0,0.003721,2
1672947015055224275,53452,1672947015055015688,gps,2,1,42.3009691367,-83.6977441467,272.366546631,0.000196,0.0,0.0,0.0,0.000225,0.0,0.0,0.0,0.003721,2
1672947015065352580,53453,1672947015065147403,gps,2,1,42.3009691384,-83.6977442312,272.366271973,0.000196,0.0,0.0,0.0,0.000225,0.0,0.0,0.0,0.003721,2
1672947015075369565,53454,1672947015075162351,gps,2,1,42.3009691401,-83.6977443138,272.36605835,0.000196,0.0,0.0,0.0,0.000225,0.0,0.0,0.0,0.003721,2
1672947015085249333,53455,1672947015085033617,gps,2,1,42.3009691432,-83.6977443971,272.365997314,0.000196,0.0,0.0,0.0,0.000225,0.0,0.0,0.0,0.003721,2
1672947015095233376,53456,1672947015095026925,gps,2,1,42.3009691449,-83.697744482,272.365783691,0.000196,0.0,0.0,0.0,0.000225,0.0,0.0,0.0,0.003721,2
1672947015105290614,53457,1672947015105074666,gps,2,1,42.3009691469,-83.6977445671,272.365509033,0.000196,0.0,0.0,0.0,0.000225,0.0,0.0,0.0,0.003721,2
1672947015115200451,53458,1672947015114986717,gps,2,1,42.3009691498,-83.6977446514,272.365447998,0.000196,0.0,0.0,0.0,0.000225,0.0,0.0,0.0,0.003721,2
1672947015125246439,53459,1672947015125009714,gps,2,1,42.3009691517,-83.6977447376,272.36529541,0.000196,0.0,0.0,0.0,0.000225,0.0,0.0,0.0,0.003721,2
1672947015135281867,53460,1672947015135054010,gps,2,1,42.3009691535,-83.6977448224,272.365081787,0.000196,0.0,0.0,0.0,0.000225,0.0,0.0,0.0,0.003721,2
1672947015145216131,53461,1672947015145000056,gps,2,1,42.3009691561,-83.6977449072,272.36505127,0.000196,0.0,0.0,0.0,0.000225,0.0,0.0,0.0,0.003721,2
1672947015155189626,53462,1672947015154983563,gps,2,1,42.3009691578,-83.6977449934,272.364929199,0.000196,0.0,0.0,0.0,0.000225,0.0,0.0,0.0,0.003721,2
1672947015165246894,53463,1672947015165043748,gps,2,1,42.3009691595,-83.6977450801,272.364746094,0.000196,0.0,0.0,0.0,0.000225,0.0,0.0,0.0,0.003721,2
1672947015175181621,53464,1672947015174984598,gps,2,1,42.300969162,-83.6977451655,272.364776611,0.000196,0.0,0.0,0.0,0.000225,0.0,0.0,0.0,0.003721,2
1672947015185213042,53465,1672947015184993424,gps,2,1,42.3009691633,-83.6977452518,272.364654541,0.000196,0.0,0.0,0.0,0.000225,0.0,0.0,0.0,0.003721,2
1672947015195257443,53466,1672947015195047741,gps,2,1,42.3009691646,-83.6977453385,272.364532471,0.000196,0.0,0.0,0.0,0.000225,0.0,0.0,0.0,0.003721,2
1672947015205162120,53467,1672947015204979705,gps,2,1,42.3009691667,-83.6977454241,272.364532471,0.000196,0.0,0.0,0.0,0.000225,0.0,0.0,0.0,0.003721,2
1672947015215159138,53468,1672947015214986168,gps,2,1,42.3009691676,-83.6977455106,272.364440918,0.000196,0.0,0.0,0.0,0.000225,0.0,0.0,0.0,0.003721,2
1672947015225273491,53469,1672947015225047009,gps,2,1,42.3009691688,-83.6977455971,272.364349365,0.000196,0.0,0.0,0.0,0.000225,0.0,0.0,0.0,0.003721,2
1672947015235188502,53470,1672947015234980329,gps,2,1,42.3009691705,-83.6977456828,272.3644104,0.000196,0.0,0.0,0.0,0.000225,0.0,0.0,0.0,0.003721,2
1672947015245270436,53471,1672947015245084888,gps,2,1,42.300969171,-83.6977457699,272.364349365,0.000196,0.0,0.0,0.0,0.000225,0.0,0.0,0.0,0.003721,2
1672947015255267075,53472,1672947015255049606,gps,2,1,42.300969172,-83.6977458566,272.364257812,0.000196,0.0,0.0,0.0,0.000225,0.0,0.0,0.0,0.003721,2
1672947015265193710,53473,1672947015264972970,gps,2,1,42.3009691733,-83.6977459431,272.364318848,0.000196,0.0,0.0,0.0,0.000225,0.0,0.0,0.0,0.003721,2
1672947015275233164,53474,1672947015275005683,gps,2,1,42.3009691738,-83.6977460311,272.364257812,0.000196,0.0,0.0,0.0,0.000225,0.0,0.0,0.0,0.003721,2
1672947015285234334,53475,1672947015285023246,gps,2,1,42.3009691744,-83.6977461183,272.364227295,0.000196,0.0,0.0,0.0,0.000225,0.0,0.0,0.0,0.003721,2
1672947015295165966,53476,1672947015294967186,gps,2,1,42.3009691756,-83.697746206,272.36428833,0.000196,0.0,0.0,0.0,0.000225,0.0,0.0,0.0,0.003721,2
1672947015305202087,53477,1672947015304993635,gps,2,1,42.3009691761,-83.6977462957,272.364227295,0.000196,0.0,0.0,0.0,0.000225,0.0,0.0,0.0,0.003721,2
1672947015315362255,53478,1672947015315138243,gps,2,1,42.3009691765,-83.6977463842,272.364135742,0.000196,0.0,0.0,0.0,0.000225,0.0,0.0,0.0,0.003721,2
1672947015325206655,53479,1672947015324978180,gps,2,1,42.3009691776,-83.6977464735,272.36416626,0.000196,0.0,0.0,0.0,0.000225,0.0,0.0,0.0,0.003721,2
1672947015335201855,53480,1672947015334981669,gps,2,1,42.3009691779,-83.6977465649,272.364074707,0.000196,0.0,0.0,0.0,0.000225,0.0,0.0,0.0,0.003721,2
1672947015345256759,53481,1672947015345057344,gps,2,1,42.3009691783,-83.6977466551,272.364013672,0.000196,0.0,0.0,0.0,0.000225,0.0,0.0,0.0,0.003721,2
1672947015355181449,53482,1672947015354978809,gps,2,1,42.3009691793,-83.6977467464,272.364044189,0.000196,0.0,0.0,0.0,0.000225,0.0,0.0,0.0,0.003721,2
1672947015365163138,53483,1672947015364971916,gps,2,1,42.3009691795,-83.69774684,272.363922119,0.000196,0.0,0.0,0.0,0.000225,0.0,0.0,0.0,0.003721,2
1672947015375232904,53484,1672947015375034368,gps,2,1,42.3009691797,-83.6977469316,272.363830566,0.000196,0.0,0.0,0.0,0.000225,0.0,0.0,0.0,0.003721,2
1672947015385172797,53485,1672947015384968016,gps,2,1,42.3009691805,-83.6977470248,272.363800049,0.000196,0.0,0.0,0.0,0.000225,0.0,0.0,0.0,0.003721,2
1672947015395172498,53486,1672947015394970880,gps,2,1,42.3009691805,-83.6977471201,272.363677979,0.000196,0.0,0.0,0.0,0.000225,0.0,0.0,0.0,0.003721,2
1672947015405245335,53487,1672947015405053237,gps,2,1,42.3009691809,-83.697747214,272.363555908,0.000196,0.0,0.0,0.0,0.000225,0.0,0.0,0.0,0.003721,2
1672947015415173539,53488,1672947015414961859,gps,2,1,42.3009691817,-83.6977473091,272.363525391,0.000196,0.0,0.0,0.0,0.000225,0.0,0.0,0.0,0.003721,2
1672947015425172751,53489,1672947015424974414,gps,2,1,42.3009691817,-83.6977474063,272.363342285,0.000196,0.0,0.0,0.0,0.000225,0.0,0.0,0.0,0.003721,2
1672947015435258621,53490,1672947015435036671,gps,2,1,42.3009691819,-83.697747502,272.363189697,0.000196,0.0,0.0,0.0,0.000225,0.0,0.0,0.0,0.003721,2
1672947015445155338,53491,1672947015444964603,gps,2,1,42.3009691828,-83.6977475989,272.363128662,0.000196,0.0,0.0,0.0,0.000225,0.0,0.0,0.0,0.003721,2
1672947015455175182,53492,1672947015454976563,gps,2,1,42.300969183,-83.6977476979,272.362915039,0.000196,0.0,0.0,0.0,0.000225,0.0,0.0,0.0,0.003721,2
1672947015465251469,53493,1672947015465038381,gps,2,1,42.3009691831,-83.6977477954,272.362731934,0.000196,0.0,0.0,0.0,0.000225,0.0,0.0,0.0,0.003721,2
1672947015475174059,53494,1672947015474969104,gps,2,1,42.3009691841,-83.6977478942,272.362640381,0.000196,0.0,0.0,0.0,0.000225,0.0,0.0,0.0,0.003721,2
1672947015485173781,53495,1672947015484975032,gps,2,1,42.3009691845,-83.6977479953,272.36239624,0.000196,0.0,0.0,0.0,0.000225,0.0,0.0,0.0,0.003721,2
1672947015495327166,53496,1672947015495117658,gps,2,1,42.3009691848,-83.6977480947,272.362182617,0.000196,0.0,0.0,0.0,0.000225,0.0,0.0,0.0,0.003721,2
1672947015505204121,53497,1672947015504971083,gps,2,1,42.300969186,-83.6977481954,272.362060547,0.000196,0.0,0.0,0.0,0.000225,0.0,0.0,0.0,0.003721,2
1672947015515161939,53498,1672947015514964507,gps,2,1,42.3009691868,-83.6977482983,272.361816406,0.000196,0.0,0.0,0.0,0.000225,0.0,0.0,0.0,0.003721,2
1672947015525273638,53499,1672947015525072364,gps,2,1,42.3009691872,-83.6977484,272.361541748,0.000196,0.0,0.0,0.0,0.000225,0.0,0.0,0.0,0.003721,2
1672947015535253108,53500,1672947015535041455,gps,2,1,42.3009691887,-83.6977485028,272.361358643,0.000196,0.0,0.0,0.0,0.000225,0.0,0.0,0.0,0.003721,2
1672947015545275022,53501,1672947015544969112,gps,2,1,42.3009691897,-83.6977486078,272.361053467,0.000144,0.0,0.0,0.0,0.000144,0.0,0.0,0.0,0.0036,2
1672947015555261962,53502,1672947015555083815,gps,2,1,42.3009691905,-83.697748711,272.360778809,0.000144,0.0,0.0,0.0,0.000144,0.0,0.0,0.0,0.0036,2
1672947015565372222,53503,1672947015565163291,gps,2,1,42.3009691918,-83.6977488133,272.360534668,0.000144,0.0,0.0,0.0,0.000144,0.0,0.0,0.0,0.0036,2
1672947015575188967,53504,1672947015574976020,gps,2,1,42.3009691932,-83.6977489202,272.360198975,0.000144,0.0,0.0,0.0,0.000144,0.0,0.0,0.0,0.0036,2
1672947015585215550,53505,1672947015585020380,gps,2,1,42.3009691943,-83.6977490253,272.359863281,0.000144,0.0,0.0,0.0,0.000144,0.0,0.0,0.0,0.0036,2
1672947015595194993,53506,1672947015594957724,gps,2,1,42.3009691958,-83.6977491295,272.359588623,0.000144,0.0,0.0,0.0,0.000144,0.0,0.0,0.0,0.0036,2
1672947015605150077,53507,1672947015604961159,gps,2,1,42.3009691973,-83.6977492381,272.35925293,0.000144,0.0,0.0,0.0,0.000144,0.0,0.0,0.0,0.0036,2
1672947015615230791,53508,1672947015615022737,gps,2,1,42.3009691988,-83.6977493451,272.358917236,0.000144,0.0,0.0,0.0,0.000144,0.0,0.0,0.0,0.0036,2
1672947015625254845,53509,1672947015625047563,gps,2,1,42.3009692004,-83.697749451,272.358642578,0.000144,0.0,0.0,0.0,0.000144,0.0,0.0,0.0,0.0036,2
1672947015635266068,53510,1672947015634988614,gps,2,1,42.3009692019,-83.6977495613,272.358306885,0.000144,0.0,0.0,0.0,0.000144,0.0,0.0,0.0,0.0036,2
1672947015645255785,53511,1672947015645047470,gps,2,1,42.3009692035,-83.6977496701,272.357971191,0.000144,0.0,0.0,0.0,0.000144,0.0,0.0,0.0,0.0036,2
