%time,field.header.seq,field.header.stamp,field.header.frame_id,field.status.status,field.status.service,field.latitude,field.longitude,field.altitude,field.position_covariance0,field.position_covariance1,field.position_covariance2,field.position_covariance3,field.position_covariance4,field.position_covariance5,field.position_covariance6,field.position_covariance7,field.position_covariance8,field.position_covariance_type
1672944648214246378,139434,1672944648236562062,gps,2,1,42.3015222538,-83.6987656337,272.785949707,0.0009,0.0,0.0,0.0,0.0009,0.0,0.0,0.0,0.005184,2
1672944648234231955,139435,1672944648256510789,gps,2,1,42.3015221677,-83.6987656789,272.785522461,0.0009,0.0,0.0,0.0,0.0009,0.0,0.0,0.0,0.005184,2
1672944648254291218,139436,1672944648276530424,gps,2,1,42.3015220815,-83.6987657241,272.785125732,0.0009,0.0,0.0,0.0,0.0009,0.0,0.0,0.0,0.005184,2
1672944648274296908,139437,1672944648296566603,gps,2,1,42.3015219955,-83.6987657697,272.784759521,0.0009,0.0,0.0,0.0,0.0009,0.0,0.0,0.0,0.005184,2
1672944648294337048,139438,1672944648316519751,gps,2,1,42.3015219123,-83.6987658126,272.784362793,0.0009,0.0,0.0,0.0,0.0009,0.0,0.0,0.0,0.005184,2
1672944648314523076,139439,1672944648336594273,gps,2,1,42.3015218289,-83.6987658553,272.783996582,0.0009,0.0,0.0,0.0,0.0009,0.0,0.0,0.0,0.005184,2
1672944648334061538,139440,1672944648356580288,gps,2,1,42.3015217461,-83.6987658984,272.783660889,0.0009,0.0,0.0,0.0,0.0009,0.0,0.0,0.0,0.005184,2
1672944648354080397,139441,1672944648376522456,gps,2,1,42.3015216663,-83.6987659386,272.783325195,0.0009,0.0,0.0,0.0,0.0009,0.0,0.0,0.0,0.005184,2
1672944648373905251,139442,1672944648396515548,gps,2,1,42.3015215866,-83.6987659787,272.782958984,0.0009,0.0,0.0,0.0,0.0009,0.0,0.0,0.0,0.005184,2
1672944648393822975,139443,1672944648416477695,gps,2,1,42.3015215079,-83.6987660192,272.782623291,0.0009,0.0,0.0,0.0,0.0009,0.0,0.0,0.0,0.005184,2
1672944648414114061,139444,1672944648436435852,gps,2,1,42.3015214315,-83.698766055,272.782348633,0.0009,0.0,0.0,0.0,0.0009,0.0,0.0,0.0,0.005184,2
1672944648434089736,139445,1672944648456501140,gps,2,1,42.3015213553,-83.6987660908,272.782073975,0.0009,0.0,0.0,0.0,0.0009,0.0,0.0,0.0,0.005184,2
1672944648454398496,139446,1672944648476579865,gps,2,1,42.3015212815,-83.6987661283,272.781738281,0.0009,0.0,0.0,0.0,0.0009,0.0,0.0,0.0,0.005184,2
1672944648474356796,139447,1672944648496493973,gps,2,1,42.3015212103,-83.6987661612,272.781494141,0.0009,0.0,0.0,0.0,0.0009,0.0,0.0,0.0,0.005184,2
1672944648494390798,139448,1672944648516567875,gps,2,1,42.3015211394,-83.698766194,272.781219482,0.0009,0.0,0.0,0.0,0.0009,0.0,0.0,0.0,0.005184,2
1672944648514268054,139449,1672944648536578861,gps,2,1,42.301521071,-83.6987662283,272.780944824,0.0009,0.0,0.0,0.0,0.0009,0.0,0.0,0.0,0.005184,2
1672944648534065349,139450,1672944648556525657,gps,2,1,42.3015210047,-83.6987662594,272.780700684,0.0009,0.0,0.0,0.0,0.0009,0.0,0.0,0.0,0.005184,2
1672944648554227886,139451,1672944648576628399,gps,2,1,42.3015209387,-83.6987662892,272.780487061,0.0009,0.0,0.0,0.0,0.0009,0.0,0.0,0.0,0.005184,2
1672944648574207838,139452,1672944648596667883,gps,2,1,42.3015208762,-83.69876632,272.780212402,0.0009,0.0,0.0,0.0,0.0009,0.0,0.0,0.0,0.005184,2
1672944648593942104,139453,1672944648616512012,gps,2,1,42.3015208161,-83.6987663465,272.780029297,0.0009,0.0,0.0,0.0,0.0009,0.0,0.0,0.0,0.005184,2
1672944648614315970,139454,1672944648636556129,gps,2,1,42.3015207561,-83.6987663748,272.779815674,0.0009,0.0,0.0,0.0,0.0009,0.0,0.0,0.0,0.005184,2
1672944648634153523,139455,1672944648656547909,gps,2,1,42.3015206998,-83.6987664021,272.779571533,0.0009,0.0,0.0,0.0,0.0009,0.0,0.0,0.0,0.005184,2
1672944648654201774,139456,1672944648676528635,gps,2,1,42.301520646,-83.698766427,272.779388428,0.0009,0.0,0.0,0.0,0.0009,0.0,0.0,0.0,0.005184,2
1672944648673724712,139457,1672944648696502753,gps,2,1,42.3015205925,-83.6987664517,272.779174805,0.0009,0.0,0.0,0.0,0.0009,0.0,0.0,0.0,0.005184,2
1672944648693857550,139458,1672944648716556323,gps,2,1,42.3015205427,-83.6987664752,272.778961182,0.0009,0.0,0.0,0.0,0.0009,0.0,0.0,0.0,0.005184,2
1672944648714164359,139459,1672944648736480126,gps,2,1,42.3015204972,-83.6987664987,272.778747559,0.0009,0.0,0.0,0.0,0.0009,0.0,0.0,0.0,0.005184,2
1672944648733942459,139460,1672944648756508475,gps,2,1,42.3015204519,-83.6987665219,272.778503418,0.0009,0.0,0.0,0.0,0.0009,0.0,0.0,0.0,0.005184,2
1672944648754587299,139461,1672944648776603431,gps,2,1,42.3015204087,-83.6987665419,272.778289795,0.0009,0.0,0.0,0.0,0.0009,0.0,0.0,0.0,0.005184,2
1672944648773929516,139462,1672944648796507520,gps,2,1,42.3015203697,-83.6987665617,272.778076172,0.0009,0.0,0.0,0.0,0.0009,0.0,0.0,0.0,0.005184,2
1672944648793870382,139463,1672944648816540829,gps,2,1,42.3015203309,-83.6987665813,272.777893066,0.0009,0.0,0.0,0.0,0.0009,0.0,0.0,0.0,0.005184,2
1672944648814316670,139464,1672944648836659899,gps,2,1,42.3015202942,-83.6987665978,272.777679443,0.0009,0.0,0.0,0.0,0.0009,0.0,0.0,0.0,0.005184,2
1672944648834212164,139465,1672944648856511910,gps,2,1,42.3015202622,-83.698766612,272.777557373,0.0009,0.0,0.0,0.0,0.0009,0.0,0.0,0.0,0.005184,2
1672944648854246557,139466,1672944648876523970,gps,2,1,42.3015202305,-83.6987666261,272.777435303,0.0009,0.0,0.0,0.0,0.0009,0.0,0.0,0.0,0.005184,2
1672944648874122113,139467,1672944648896560083,gps,2,1,42.3015201999,-83.6987666393,272.777282715,0.0009,0.0,0.0,0.0,0.0009,0.0,0.0,0.0,0.005184,2
1672944648894093169,139468,1672944648916508184,gps,2,1,42.3015201728,-83.6987666507,272.777160645,0.0009,0.0,0.0,0.0,0.0009,0.0,0.0,0.0,0.005184,2
1672944648914134570,139469,1672944648936460394,gps,2,1,42.3015201436,-83.6987666605,272.776947021,0.0009,0.0,0.0,0.0,0.0009,0.0,0.0,0.0,0.005184,2
1672944648934150354,139470,1672944648956597679,gps,2,1,42.3015201159,-83.6987666721,272.776763916,0.0009,0.0,0.0,0.0,0.0009,0.0,0.0,0.0,0.005184,2
1672944648953848176,139471,1672944648976546800,gps,2,1,42.3015200873,-83.6987666817,272.776519775,0.0009,0.0,0.0,0.0,0.0009,0.0,0.0,0.0,0.005184,2
1672944648974314045,139472,1672944648996532204,gps,2,1,42.3015200586,-83.6987666914,272.776275635,0.0009,0.0,0.0,0.0,0.0009,0.0,0.0,0.0,0.005184,2
1672944648994478972,139473,1672944649016670441,gps,2,1,42.30152003,-83.6987667034,272.776062012,0.0009,0.0,0.0,0.0,0.0009,0.0,0.0,0.0,0.005184,2
1672944649014043703,139474,1672944649036554857,gps,2,1,42.3015199981,-83.6987667154,272.775848389,0.0009,0.0,0.0,0.0,0.0009,0.0,0.0,0.0,0.005184,2
1672944649034393037,139475,1672944649056637479,gps,2,1,42.301519966,-83.6987667275,272.775665283,0.0009,0.0,0.0,0.0,0.0009,0.0,0.0,0.0,0.005184,2
1672944649054209219,139476,1672944649076608604,gps,2,1,42.3015199342,-83.698766741,272.77545166,0.0009,0.0,0.0,0.0,0.0009,0.0,0.0,0.0,0.005184,2
1672944649074284697,139477,1672944649096512938,gps,2,1,42.3015198983,-83.6987667541,272.775268555,0.0009,0.0,0.0,0.0,0.0009,0.0,0.0,0.0,0.005184,2
1672944649094311141,139478,1672944649116587192,gps,2,1,42.3015198622,-83.6987667675,272.775054932,0.0009,0.0,0.0,0.0,0.0009,0.0,0.0,0.0,0.005184,2
1672944649114017640,139479,1672944649136606483,gps,2,1,42.301519826,-83.6987667829,272.774871826,0.0009,0.0,0.0,0.0,0.0009,0.0,0.0,0.0,0.005184,2
1672944649134247006,139480,1672944649156517794,gps,2,1,42.301519787,-83.6987668,272.774780273,0.0009,0.0,0.0,0.0,0.0009,0.0,0.0,0.0,0.005184,2
1672944649154122855,139481,1672944649176553444,gps,2,1,42.3015197478,-83.6987668171,272.774688721,0.0009,0.0,0.0,0.0,0.0009,0.0,0.0,0.0,0.005184,2
1672944649173902447,139482,1672944649196550034,gps,2,1,42.3015197067,-83.6987668347,272.774505615,0.0009,0.0,0.0,0.0,0.0009,0.0,0.0,0.0,0.005184,2
1672944649193789575,139483,1672944649216518603,gps,2,1,42.3015196625,-83.698766854,272.774383545,0.0009,0.0,0.0,0.0,0.0009,0.0,0.0,0.0,0.005184,2
1672944649213877684,139484,1672944649236497556,gps,2,1,42.3015196196,-83.6987668747,272.774200439,0.0009,0.0,0.0,0.0,0.0009,0.0,0.0,0.0,0.005184,2
1672944649233867273,139485,1672944649256583428,gps,2,1,42.3015195731,-83.6987668949,272.774017334,0.0009,0.0,0.0,0.0,0.0009,0.0,0.0,0.0,0.005184,2
1672944649254054780,139486,1672944649276492429,gps,2,1,42.3015195251,-83.6987669182,272.773803711,0.0009,0.0,0.0,0.0,0.0009,0.0,0.0,0.0,0.005184,2
1672944649274207658,139487,1672944649296552696,gps,2,1,42.3015194767,-83.6987669416,272.773590088,0.0009,0.0,0.0,0.0,0.0009,0.0,0.0,0.0,0.005184,2
1672944649294125553,139488,1672944649316574514,gps,2,1,42.301519425,-83.6987669648,272.773345947,0.0009,0.0,0.0,0.0,0.0009,0.0,0.0,0.0,0.005184,2
1672944649314241850,139489,1672944649336580943,gps,2,1,42.3015193703,-83.6987669914,272.773101807,0.0009,0.0,0.0,0.0,0.0009,0.0,0.0,0.0,0.005184,2
1672944649334023467,139490,1672944649356478143,gps,2,1,42.3015193153,-83.6987670181,272.772857666,0.0009,0.0,0.0,0.0,0.0009,0.0,0.0,0.0,0.005184,2
1672944649354394345,139491,1672944649376592069,gps,2,1,42.3015192579,-83.6987670443,272.772583008,0.0009,0.0,0.0,0.0,0.0009,0.0,0.0,0.0,0.005184,2
1672944649374028767,139492,1672944649396475624,gps,2,1,42.3015191974,-83.6987670738,272.77230835,0.0009,0.0,0.0,0.0,0.0009,0.0,0.0,0.0,0.005184,2
1672944649393988619,139493,1672944649416503755,gps,2,1,42.3015191365,-83.6987671034,272.772064209,0.0009,0.0,0.0,0.0,0.0009,0.0,0.0,0.0,0.005184,2
1672944649414209139,139494,1672944649436623802,gps,2,1,42.3015190733,-83.6987671326,272.771759033,0.0009,0.0,0.0,0.0,0.0009,0.0,0.0,0.0,0.005184,2
1672944649433842564,139495,1672944649456557304,gps,2,1,42.3015190064,-83.6987671634,272.771453857,0.0009,0.0,0.0,0.0,0.0009,0.0,0.0,0.0,0.005184,2
1672944649453977003,139496,1672944649476525049,gps,2,1,42.3015189392,-83.6987671944,272.771148682,0.0009,0.0,0.0,0.0,0.0009,0.0,0.0,0.0,0.005184,2
1672944649474143545,139497,1672944649496686822,gps,2,1,42.3015188698,-83.6987672264,272.770843506,0.0009,0.0,0.0,0.0,0.0009,0.0,0.0,0.0,0.005184,2
1672944649494155100,139498,1672944649516650381,gps,2,1,42.3015187967,-83.6987672599,272.770507812,0.0009,0.0,0.0,0.0,0.0009,0.0,0.0,0.0,0.005184,2
1672944649514031178,139499,1672944649536577927,gps,2,1,42.301518724,-83.6987672946,272.770172119,0.0009,0.0,0.0,0.0,0.0009,0.0,0.0,0.0,0.005184,2
1672944649533985856,139500,1672944649556612676,gps,2,1,42.3015186484,-83.6987673293,272.769805908,0.0009,0.0,0.0,0.0,0.0009,0.0,0.0,0.0,0.005184,2
1672944649553969428,139501,1672944649576579645,gps,2,1,42.3015185696,-83.6987673666,272.769439697,0.0009,0.0,0.0,0.0,0.0009,0.0,0.0,0.0,0.005184,2
1672944649573770870,139502,1672944649596567898,gps,2,1,42.3015184915,-83.6987674043,272.769134521,0.0009,0.0,0.0,0.0,0.0009,0.0,0.0,0.0,0.005184,2
1672944649593997203,139503,1672944649616582159,gps,2,1,42.3015184091,-83.698767442,272.768768311,0.0009,0.0,0.0,0.0,0.0009,0.0,0.0,0.0,0.005184,2
1672944649613950991,139504,1672944649636579774,gps,2,1,42.3015183261,-83.6987674827,272.7684021,0.0009,0.0,0.0,0.0,0.0009,0.0,0.0,0.0,0.005184,2
1672944649633658600,139505,1672944649656494475,gps,2,1,42.3015182426,-83.6987675237,272.768066406,0.0009,0.0,0.0,0.0,0.0009,0.0,0.0,0.0,0.005184,2
1672944649653949128,139506,1672944649676475337,gps,2,1,42.3015181522,-83.6987675647,272.767608643,0.0009,0.0,0.0,0.0,0.0009,0.0,0.0,0.0,0.005184,2
1672944649673989672,139507,1672944649696561995,gps,2,1,42.3015180599,-83.6987676091,272.767150879,0.0009,0.0,0.0,0.0,0.0009,0.0,0.0,0.0,0.005184,2
1672944649693958591,139508,1672944649716515095,gps,2,1,42.3015179669,-83.6987676542,272.766662598,0.0009,0.0,0.0,0.0,0.0009,0.0,0.0,0.0,0.005184,2
1672944649713902742,139509,1672944649736525612,gps,2,1,42.3015178666,-83.6987676993,272.766113281,0.0009,0.0,0.0,0.0,0.0009,0.0,0.0,0.0,0.005184,2
1672944649734155098,139510,1672944649756589272,gps,2,1,42.3015177627,-83.6987677488,272.765563965,0.0009,0.0,0.0,0.0,0.0009,0.0,0.0,0.0,0.005184,2
1672944649754128134,139511,1672944649776513571,gps,2,1,42.3015176587,-83.698767798,272.764984131,0.0009,0.0,0.0,0.0,0.0009,0.0,0.0,0.0,0.005184,2
1672944649773630783,139512,1672944649796550698,gps,2,1,42.3015175468,-83.698767848,272.764373779,0.001089,0.0,0.0,0.0,0.001089,0.0,0.0,0.0,0.005184,2
1672944649793912754,139513,1672944649816484829,gps,2,1,42.3015174311,-83.6987679031,272.763793945,0.001089,0.0,0.0,0.0,0.001089,0.0,0.0,0.0,0.005184,2
1672944649813993535,139514,1672944649836495226,gps,2,1,42.3015173147,-83.6987679585,272.763183594,0.001089,0.0,0.0,0.0,0.001089,0.0,0.0,0.0,0.005184,2
1672944649833990201,139515,1672944649856572195,gps,2,1,42.3015171903,-83.6987680134,272.762512207,0.001089,0.0,0.0,0.0,0.001089,0.0,0.0,0.0,0.005184,2
1672944649853988087,139516,1672944649876517695,gps,2,1,42.301517061,-83.6987680737,272.761871338,0.001089,0.0,0.0,0.0,0.001089,0.0,0.0,0.0,0.005184,2
1672944649874357136,139517,1672944649896501192,gps,2,1,42.3015169301,-83.6987681344,272.761230469,0.001089,0.0,0.0,0.0,0.001089,0.0,0.0,0.0,0.005184,2
1672944649894016491,139518,1672944649916521308,gps,2,1,42.3015167916,-83.6987681945,272.760528564,0.001089,0.0,0.0,0.0,0.001089,0.0,0.0,0.0,0.005184,2
1672944649913650628,139519,1672944649936478480,gps,2,1,42.3015166487,-83.6987682604,272.759887695,0.001089,0.0,0.0,0.0,0.001089,0.0,0.0,0.0,0.005184,2
1672944649934114122,139520,1672944649956458409,gps,2,1,42.3015165047,-83.6987683264,272.759277344,0.001089,0.0,0.0,0.0,0.001089,0.0,0.0,0.0,0.005184,2
1672944649953983850,139521,1672944649976511351,gps,2,1,42.3015163511,-83.6987683917,272.758575439,0.001089,0.0,0.0,0.0,0.001089,0.0,0.0,0.0,0.005184,2
1672944649974119041,139522,1672944649996573021,gps,2,1,42.3015161922,-83.6987684625,272.757965088,0.001089,0.0,0.0,0.0,0.001089,0.0,0.0,0.0,0.005184,2
1672944649993972435,139523,1672944650016592292,gps,2,1,42.3015160336,-83.6987685338,272.757293701,0.001089,0.0,0.0,0.0,0.001089,0.0,0.0,0.0,0.005184,2
1672944650014223292,139524,1672944650036604299,gps,2,1,42.3015158647,-83.6987686035,272.756591797,0.001089,0.0,0.0,0.0,0.001089,0.0,0.0,0.0,0.005184,2
1672944650034094679,139525,1672944650056612249,gps,2,1,42.3015156928,-83.698768679,272.755950928,0.001089,0.0,0.0,0.0,0.001089,0.0,0.0,0.0,0.005184,2
1672944650054126366,139526,1672944650076623933,gps,2,1,42.3015155186,-83.6987687553,272.755218506,0.001089,0.0,0.0,0.0,0.001089,0.0,0.0,0.0,0.005184,2
1672944650074129164,139527,1672944650096593326,gps,2,1,42.3015153329,-83.6987688276,272.754608154,0.001089,0.0,0.0,0.0,0.001089,0.0,0.0,0.0,0.005184,2
1672944650094200308,139528,1672944650116618768,gps,2,1,42.3015151409,-83.6987689075,272.753875732,0.001089,0.0,0.0,0.0,0.001089,0.0,0.0,0.0,0.005184,2
1672944650114011497,139529,1672944650136565525,gps,2,1,42.3015149501,-83.6987689865,272.753265381,0.001089,0.0,0.0,0.0,0.001089,0.0,0.0,0.0,0.005184,2
1672944650133928441,139530,1672944650156536010,gps,2,1,42.3015147462,-83.6987690625,272.752563477,0.001089,0.0,0.0,0.0,0.001089,0.0,0.0,0.0,0.005184,2
1672944650154128154,139531,1672944650176608527,gps,2,1,42.3015145369,-83.6987691434,272.751831055,0.001089,0.0,0.0,0.0,0.001089,0.0,0.0,0.0,0.005184,2
1672944650173962186,139532,1672944650196497442,gps,2,1,42.3015143269,-83.698769223,272.751220703,0.001089,0.0,0.0,0.0,0.001089,0.0,0.0,0.0,0.005184,2
1672944650194111906,139533,1672944650216567398,gps,2,1,42.3015141042,-83.6987692999,272.750427246,0.001089,0.0,0.0,0.0,0.001089,0.0,0.0,0.0,0.005184,2
1672944650213969584,139534,1672944650236551964,gps,2,1,42.3015138755,-83.6987693806,272.749633789,0.001089,0.0,0.0,0.0,0.001089,0.0,0.0,0.0,0.005184,2
1672944650233915939,139535,1672944650256482543,gps,2,1,42.3015136454,-83.6987694616,272.748840332,0.001089,0.0,0.0,0.0,0.001089,0.0,0.0,0.0,0.005184,2
1672944650254012160,139536,1672944650276557135,gps,2,1,42.3015134042,-83.6987695399,272.747955322,0.001089,0.0,0.0,0.0,0.001089,0.0,0.0,0.0,0.005184,2
1672944650274080686,139537,1672944650296510776,gps,2,1,42.3015131556,-83.6987696218,272.747009277,0.001089,0.0,0.0,0.0,0.001089,0.0,0.0,0.0,0.005184,2
1672944650294008033,139538,1672944650316493514,gps,2,1,42.3015129054,-83.6987697048,272.746063232,0.001089,0.0,0.0,0.0,0.001089,0.0,0.0,0.0,0.005184,2
1672944650313572680,139539,1672944650336462093,gps,2,1,42.3015126441,-83.6987697847,272.745056152,0.001089,0.0,0.0,0.0,0.001089,0.0,0.0,0.0,0.005184,2
1672944650333918673,139540,1672944650356536141,gps,2,1,42.3015123748,-83.6987698686,272.743988037,0.001089,0.0,0.0,0.0,0.001089,0.0,0.0,0.0,0.005184,2
1672944650353901954,139541,1672944650376469452,gps,2,1,42.3015121047,-83.6987699528,272.742889404,0.001089,0.0,0.0,0.0,0.001089,0.0,0.0,0.0,0.005184,2
1672944650373889620,139542,1672944650396510303,gps,2,1,42.3015118237,-83.6987700349,272.741729736,0.001089,0.0,0.0,0.0,0.001089,0.0,0.0,0.0,0.005184,2
1672944650393938914,139543,1672944650416545151,gps,2,1,42.3015115351,-83.6987701218,272.740600586,0.001089,0.0,0.0,0.0,0.001089,0.0,0.0,0.0,0.005184,2
1672944650413888051,139544,1672944650436479412,gps,2,1,42.3015112454,-83.6987702084,272.739471436,0.001089,0.0,0.0,0.0,0.001089,0.0,0.0,0.0,0.005184,2
1672944650434060426,139545,1672944650456584327,gps,2,1,42.3015109444,-83.6987702928,272.738250732,0.001089,0.0,0.0,0.0,0.001089,0.0,0.0,0.0,0.005184,2
1672944650454156454,139546,1672944650476591886,gps,2,1,42.3015106355,-83.6987703816,272.737121582,0.001089,0.0,0.0,0.0,0.001089,0.0,0.0,0.0,0.005184,2
1672944650474139180,139547,1672944650496542481,gps,2,1,42.3015103276,-83.6987704716,272.735992432,0.001089,0.0,0.0,0.0,0.001089,0.0,0.0,0.0,0.005184,2
1672944650494134772,139548,1672944650516656289,gps,2,1,42.3015100061,-83.6987705579,272.734832764,0.001089,0.0,0.0,0.0,0.001089,0.0,0.0,0.0,0.005184,2
1672944650514235082,139549,1672944650536563958,gps,2,1,42.301509678,-83.6987706493,272.733764648,0.001089,0.0,0.0,0.0,0.001089,0.0,0.0,0.0,0.005184,2
1672944650534023178,139550,1672944650556607209,gps,2,1,42.3015093524,-83.6987707422,272.732910156,0.001089,0.0,0.0,0.0,0.001089,0.0,0.0,0.0,0.005184,2
1672944650553846130,139551,1672944650576645778,gps,2,1,42.3015090105,-83.6987708289,272.731781006,0.001089,0.0,0.0,0.0,0.001089,0.0,0.0,0.0,0.005184,2
1672944650573940458,139552,1672944650596564690,gps,2,1,42.3015086653,-83.6987709209,272.730957031,0.001089,0.0,0.0,0.0,0.001089,0.0,0.0,0.0,0.005184,2
1672944650593732620,139553,1672944650616533866,gps,2,1,42.3015083173,-83.6987710132,272.730102539,0.001089,0.0,0.0,0.0,0.001089,0.0,0.0,0.0,0.005184,2
1672944650614040620,139554,1672944650636533949,gps,2,1,42.3015079554,-83.6987710987,272.728973389,0.001089,0.0,0.0,0.0,0.001089,0.0,0.0,0.0,0.005184,2
1672944650634079759,139555,1672944650656579146,gps,2,1,42.3015075884,-83.6987711882,272.728118896,0.001089,0.0,0.0,0.0,0.001089,0.0,0.0,0.0,0.005184,2
1672944650653949199,139556,1672944650676512686,gps,2,1,42.30150722,-83.6987712772,272.727264404,0.001089,0.0,0.0,0.0,0.001089,0.0,0.0,0.0,0.005184,2
1672944650673752314,139557,1672944650696601182,gps,2,1,42.3015068381,-83.6987713592,272.726135254,0.001089,0.0,0.0,0.0,0.001089,0.0,0.0,0.0,0.005184,2
1672944650693992980,139558,1672944650716635790,gps,2,1,42.3015064509,-83.6987714435,272.725189209,0.001089,0.0,0.0,0.0,0.001089,0.0,0.0,0.0,0.005184,2
1672944650714153299,139559,1672944650736550245,gps,2,1,42.3015060641,-83.6987715309,272.724121094,0.001089,0.0,0.0,0.0,0.001089,0.0,0.0,0.0,0.005184,2
1672944650734088030,139560,1672944650756595323,gps,2,1,42.3015056631,-83.6987716073,272.722930908,0.001089,0.0,0.0,0.0,0.001089,0.0,0.0,0.0,0.005184,2
1672944650754006713,139561,1672944650776599340,gps,2,1,42.3015052583,-83.6987716881,272.721862793,0.001089,0.0,0.0,0.0,0.001089,0.0,0.0,0.0,0.005184,2
1672944650774040153,139562,1672944650796556315,gps,2,1,42.3015048526,-83.698771767,272.72088623,0.001089,0.0,0.0,0.0,0.001089,0.0,0.0,0.0,0.005184,2
1672944650794093588,139563,1672944650816583233,gps,2,1,42.3015044336,-83.6987718367,272.719726562,0.001089,0.0,0.0,0.0,0.001089,0.0,0.0,0.0,0.005184,2
1672944650814079556,139564,1672944650836711519,gps,2,1,42.3015040104,-83.6987719086,272.718841553,0.001089,0.0,0.0,0.0,0.001089,0.0,0.0,0.0,0.005184,2
1672944650834033039,139565,1672944650856505754,gps,2,1,42.3015035862,-83.6987719799,272.717895508,0.001089,0.0,0.0,0.0,0.001089,0.0,0.0,0.0,0.005184,2
1672944650853854264,139566,1672944650876579042,gps,2,1,42.3015031492,-83.698772042,272.71685791,0.001089,0.0,0.0,0.0,0.001089,0.0,0.0,0.0,0.005184,2
1672944650874118032,139567,1672944650896518570,gps,2,1,42.3015027076,-83.6987721059,272.716003418,0.001089,0.0,0.0,0.0,0.001089,0.0,0.0,0.0,0.005184,2
1672944650893962770,139568,1672944650916560124,gps,2,1,42.3015022652,-83.6987721693,272.715118408,0.001089,0.0,0.0,0.0,0.001089,0.0,0.0,0.0,0.005184,2
1672944650913935168,139569,1672944650936572907,gps,2,1,42.3015018102,-83.6987722233,272.714080811,0.001089,0.0,0.0,0.0,0.001089,0.0,0.0,0.0,0.005184,2
1672944650934076029,139570,1672944650956575456,gps,2,1,42.3015013509,-83.6987722784,272.713256836,0.001089,0.0,0.0,0.0,0.001089,0.0,0.0,0.0,0.005184,2
1672944650953992345,139571,1672944650976478859,gps,2,1,42.3015008908,-83.6987723325,272.712371826,0.001089,0.0,0.0,0.0,0.001089,0.0,0.0,0.0,0.005184,2
1672944650974036066,139572,1672944650996591774,gps,2,1,42.3015004178,-83.6987723766,272.711334229,0.001089,0.0,0.0,0.0,0.001089,0.0,0.0,0.0,0.005184,2
1672944650993839974,139573,1672944651016666304,gps,2,1,42.3014999407,-83.6987724198,272.710418701,0.001089,0.0,0.0,0.0,0.001089,0.0,0.0,0.0,0.005184,2
1672944651014029454,139574,1672944651036589967,gps,2,1,42.3014994631,-83.6987724651,272.709411621,0.001089,0.0,0.0,0.0,0.001089,0.0,0.0,0.0,0.005184,2
1672944651033684376,139575,1672944651056586638,gps,2,1,42.3014989733,-83.6987724968,272.708251953,0.001089,0.0,0.0,0.0,0.001089,0.0,0.0,0.0,0.005184,2
1672944651054241252,139576,1672944651076574333,gps,2,1,42.3014984831,-83.6987725314,272.707244873,0.001089,0.0,0.0,0.0,0.001089,0.0,0.0,0.0,0.005184,2
1672944651074014206,139577,1672944651096656888,gps,2,1,42.3014979916,-83.6987725651,272.706207275,0.001089,0.0,0.0,0.0,0.001089,0.0,0.0,0.0,0.005184,2
1672944651093987937,139578,1672944651116538254,gps,2,1,42.3014974862,-83.6987725839,272.70489502,0.001089,0.0,0.0,0.0,0.001089,0.0,0.0,0.0,0.005184,2
1672944651114067028,139579,1672944651136503421,gps,2,1,42.3014969804,-83.6987726045,272.703674316,0.001089,0.0,0.0,0.0,0.001089,0.0,0.0,0.0,0.005184,2
1672944651133837164,139580,1672944651156554092,gps,2,1,42.3014964737,-83.6987726239,272.702423096,0.001089,0.0,0.0,0.0,0.001089,0.0,0.0,0.0,0.005184,2
1672944651153939524,139581,1672944651176517764,gps,2,1,42.3014959525,-83.6987726302,272.70098877,0.001089,0.0,0.0,0.0,0.001089,0.0,0.0,0.0,0.005184,2
1672944651174025832,139582,1672944651196493322,gps,2,1,42.3014954305,-83.6987726374,272.699707031,0.001089,0.0,0.0,0.0,0.001089,0.0,0.0,0.0,0.005184,2
1672944651194108515,139583,1672944651216525555,gps,2,1,42.3014949078,-83.6987726433,272.698425293,0.001089,0.0,0.0,0.0,0.001089,0.0,0.0,0.0,0.005184,2
1672944651213969298,139584,1672944651236536200,gps,2,1,42.3014943714,-83.6987726358,272.696990967,0.001089,0.0,0.0,0.0,0.001089,0.0,0.0,0.0,0.005184,2
1672944651233946643,139585,1672944651256463248,gps,2,1,42.3014938339,-83.6987726284,272.695770264,0.001089,0.0,0.0,0.0,0.001089,0.0,0.0,0.0,0.005184,2
1672944651253848520,139586,1672944651276411187,gps,2,1,42.3014932947,-83.698772621,272.694580078,0.001089,0.0,0.0,0.0,0.001089,0.0,0.0,0.0,0.005184,2
1672944651273954240,139587,1672944651296513590,gps,2,1,42.3014927446,-83.6987725975,272.693237305,0.001089,0.0,0.0,0.0,0.001089,0.0,0.0,0.0,0.005184,2
1672944651294111545,139588,1672944651316521260,gps,2,1,42.301492193,-83.6987725734,272.692108154,0.001089,0.0,0.0,0.0,0.001089,0.0,0.0,0.0,0.005184,2
1672944651313957160,139589,1672944651336519843,gps,2,1,42.3014916419,-83.6987725501,272.691040039,0.001089,0.0,0.0,0.0,0.001089,0.0,0.0,0.0,0.005184,2
1672944651334124850,139590,1672944651356538605,gps,2,1,42.301491079,-83.6987725107,272.689758301,0.001089,0.0,0.0,0.0,0.001089,0.0,0.0,0.0,0.005184,2
1672944651354018419,139591,1672944651376499547,gps,2,1,42.3014905159,-83.6987724728,272.688720703,0.001089,0.0,0.0,0.0,0.001089,0.0,0.0,0.0,0.005184,2
1672944651374005821,139592,1672944651396546710,gps,2,1,42.3014899523,-83.6987724339,272.687683105,0.001089,0.0,0.0,0.0,0.001089,0.0,0.0,0.0,0.005184,2
1672944651393970488,139593,1672944651416581119,gps,2,1,42.3014893776,-83.6987723797,272.686462402,0.001089,0.0,0.0,0.0,0.001089,0.0,0.0,0.0,0.005184,2
1672944651414071074,139594,1672944651436520040,gps,2,1,42.3014888035,-83.6987723278,272.685333252,0.001089,0.0,0.0,0.0,0.001089,0.0,0.0,0.0,0.005184,2
1672944651433839784,139595,1672944651456506074,gps,2,1,42.3014882284,-83.6987722749,272.684234619,0.001089,0.0,0.0,0.0,0.001089,0.0,0.0,0.0,0.005184,2
1672944651454098107,139596,1672944651476572193,gps,2,1,42.3014876426,-83.6987722047,272.682983398,0.001089,0.0,0.0,0.0,0.001089,0.0,0.0,0.0,0.005184,2
1672944651473955821,139597,1672944651496502502,gps,2,1,42.3014870569,-83.698772136,272.68170166,0.001089,0.0,0.0,0.0,0.001089,0.0,0.0,0.0,0.005184,2
1672944651494166776,139598,1672944651516624823,gps,2,1,42.3014864702,-83.6987720663,272.680419922,0.001089,0.0,0.0,0.0,0.001089,0.0,0.0,0.0,0.005184,2
1672944651514106789,139599,1672944651536643816,gps,2,1,42.301485874,-83.69877198,272.678985596,0.001089,0.0,0.0,0.0,0.001089,0.0,0.0,0.0,0.005184,2
1672944651533994244,139600,1672944651556615785,gps,2,1,42.3014852782,-83.6987718965,272.677459717,0.001089,0.0,0.0,0.0,0.001089,0.0,0.0,0.0,0.005184,2
1672944651553873474,139601,1672944651576539873,gps,2,1,42.3014846841,-83.698771816,272.676025391,0.001089,0.0,0.0,0.0,0.001089,0.0,0.0,0.0,0.005184,2
1672944651574027636,139602,1672944651596633325,gps,2,1,42.3014840792,-83.6987717126,272.674560547,0.001089,0.0,0.0,0.0,0.001089,0.0,0.0,0.0,0.005184,2
1672944651593974899,139603,1672944651616518656,gps,2,1,42.3014834774,-83.6987716131,272.673217773,0.001089,0.0,0.0,0.0,0.001089,0.0,0.0,0.0,0.005184,2
1672944651614124739,139604,1672944651636552959,gps,2,1,42.3014828746,-83.698771511,272.671936035,0.001089,0.0,0.0,0.0,0.001089,0.0,0.0,0.0,0.005184,2
1672944651634213836,139605,1672944651656610743,gps,2,1,42.3014822632,-83.6987713871,272.67074585,0.001089,0.0,0.0,0.0,0.001089,0.0,0.0,0.0,0.005184,2
1672944651654058294,139606,1672944651676602599,gps,2,1,42.3014816549,-83.6987712635,272.669830322,0.001089,0.0,0.0,0.0,0.001089,0.0,0.0,0.0,0.005184,2
1672944651673970101,139607,1672944651696533031,gps,2,1,42.301481046,-83.6987711385,272.668884277,0.001089,0.0,0.0,0.0,0.001089,0.0,0.0,0.0,0.005184,2
1672944651693882492,139608,1672944651716582627,gps,2,1,42.3014804295,-83.698770992,272.66796875,0.001089,0.0,0.0,0.0,0.001089,0.0,0.0,0.0,0.005184,2
1672944651713985478,139609,1672944651736525776,gps,2,1,42.3014798169,-83.6987708478,272.667266846,0.001089,0.0,0.0,0.0,0.001089,0.0,0.0,0.0,0.005184,2
1672944651733973783,139610,1672944651756542102,gps,2,1,42.3014792041,-83.6987707025,272.666564941,0.001089,0.0,0.0,0.0,0.001089,0.0,0.0,0.0,0.005184,2
1672944651754026968,139611,1672944651776557381,gps,2,1,42.3014785833,-83.6987705347,272.665863037,0.001089,0.0,0.0,0.0,0.001089,0.0,0.0,0.0,0.005184,2
1672944651774001312,139612,1672944651796520067,gps,2,1,42.3014779672,-83.6987703687,272.665405273,0.001089,0.0,0.0,0.0,0.001156,0.0,0.0,0.0,0.005041,2
1672944651793962615,139613,1672944651816498340,gps,2,1,42.3014773505,-83.698770201,272.664916992,0.001089,0.0,0.0,0.0,0.001156,0.0,0.0,0.0,0.005041,2
1672944651814174556,139614,1672944651836549255,gps,2,1,42.3014767264,-83.6987700119,272.664367676,0.001089,0.0,0.0,0.0,0.001156,0.0,0.0,0.0,0.005041,2
1672944651833975267,139615,1672944651856477025,gps,2,1,42.3014761059,-83.698769825,272.663665771,0.001089,0.0,0.0,0.0,0.001156,0.0,0.0,0.0,0.005041,2
1672944651853792636,139616,1672944651876527553,gps,2,1,42.3014754853,-83.6987696369,272.66305542,0.001089,0.0,0.0,0.0,0.001156,0.0,0.0,0.0,0.005041,2
1672944651874092638,139617,1672944651896559925,gps,2,1,42.3014748583,-83.6987694273,272.662261963,0.001089,0.0,0.0,0.0,0.001156,0.0,0.0,0.0,0.005041,2
1672944651894120402,139618,1672944651916513186,gps,2,1,42.3014742358,-83.698769223,272.661376953,0.001089,0.0,0.0,0.0,0.001156,0.0,0.0,0.0,0.005041,2
1672944651913659938,139619,1672944651936497614,gps,2,1,42.301473613,-83.6987690172,272.660583496,0.001089,0.0,0.0,0.0,0.001156,0.0,0.0,0.0,0.005041,2
1672944651934019339,139620,1672944651956579236,gps,2,1,42.3014729833,-83.6987687935,272.659637451,0.001089,0.0,0.0,0.0,0.001156,0.0,0.0,0.0,0.005041,2
1672944651953931618,139621,1672944651976518648,gps,2,1,42.3014723574,-83.6987685767,272.658660889,0.001089,0.0,0.0,0.0,0.001156,0.0,0.0,0.0,0.005041,2
1672944651973923711,139622,1672944651996537582,gps,2,1,42.3014717306,-83.6987683585,272.657745361,0.001089,0.0,0.0,0.0,0.001156,0.0,0.0,0.0,0.005041,2
1672944651994126515,139623,1672944652016675791,gps,2,1,42.3014710978,-83.6987681252,272.656677246,0.001089,0.0,0.0,0.0,0.001156,0.0,0.0,0.0,0.005041,2
1672944652014088409,139624,1672944652036598394,gps,2,1,42.301470466,-83.6987679022,272.655487061,0.001089,0.0,0.0,0.0,0.001156,0.0,0.0,0.0,0.005041,2
1672944652033667031,139625,1672944652056575286,gps,2,1,42.3014698343,-83.698767678,272.654296875,0.001089,0.0,0.0,0.0,0.001156,0.0,0.0,0.0,0.005041,2
1672944652054178034,139626,1672944652076628945,gps,2,1,42.3014691975,-83.6987674365,272.653045654,0.001089,0.0,0.0,0.0,0.001156,0.0,0.0,0.0,0.005041,2
1672944652074084382,139627,1672944652096521208,gps,2,1,42.3014685629,-83.6987672072,272.651733398,0.001089,0.0,0.0,0.0,0.001156,0.0,0.0,0.0,0.005041,2
1672944652093969723,139628,1672944652116533830,gps,2,1,42.301467928,-83.6987669765,272.650421143,0.001089,0.0,0.0,0.0,0.001156,0.0,0.0,0.0,0.005041,2
1672944652113888326,139629,1672944652136645502,gps,2,1,42.3014672881,-83.6987667244,272.648925781,0.001089,0.0,0.0,0.0,0.001156,0.0,0.0,0.0,0.005041,2
1672944652133819124,139630,1672944652156557339,gps,2,1,42.3014666515,-83.6987664841,272.647521973,0.001089,0.0,0.0,0.0,0.001156,0.0,0.0,0.0,0.005041,2
1672944652153969416,139631,1672944652176525578,gps,2,1,42.3014660142,-83.698766243,272.646118164,0.001089,0.0,0.0,0.0,0.001156,0.0,0.0,0.0,0.005041,2
1672944652174077204,139632,1672944652196609276,gps,2,1,42.301465372,-83.6987659789,272.64465332,0.001089,0.0,0.0,0.0,0.001156,0.0,0.0,0.0,0.005041,2
1672944652194139721,139633,1672944652216584241,gps,2,1,42.3014647336,-83.6987657258,272.64352417,0.001089,0.0,0.0,0.0,0.001156,0.0,0.0,0.0,0.005041,2
1672944652213916195,139634,1672944652236482937,gps,2,1,42.3014640948,-83.6987654735,272.642364502,0.001089,0.0,0.0,0.0,0.001156,0.0,0.0,0.0,0.005041,2
1672944652233991499,139635,1672944652256507058,gps,2,1,42.3014634514,-83.6987651977,272.641448975,0.001089,0.0,0.0,0.0,0.001156,0.0,0.0,0.0,0.005041,2
1672944652253959893,139636,1672944652276552099,gps,2,1,42.3014628108,-83.698764933,272.640899658,0.001089,0.0,0.0,0.0,0.001156,0.0,0.0,0.0,0.005041,2
1672944652273806811,139637,1672944652296492141,gps,2,1,42.3014621723,-83.6987646689,272.640594482,0.001089,0.0,0.0,0.0,0.001156,0.0,0.0,0.0,0.005041,2
1672944652293938489,139638,1672944652316544758,gps,2,1,42.3014615278,-83.6987643812,272.640167236,0.001089,0.0,0.0,0.0,0.001156,0.0,0.0,0.0,0.005041,2
1672944652314177737,139639,1672944652336494937,gps,2,1,42.3014608879,-83.6987641051,272.640197754,0.001089,0.0,0.0,0.0,0.001156,0.0,0.0,0.0,0.005041,2
1672944652333959302,139640,1672944652356524650,gps,2,1,42.301460248,-83.6987638281,272.640197754,0.001089,0.0,0.0,0.0,0.001156,0.0,0.0,0.0,0.005041,2
1672944652354181765,139641,1672944652376589176,gps,2,1,42.3014596026,-83.6987635287,272.640045166,0.001089,0.0,0.0,0.0,0.001156,0.0,0.0,0.0,0.005041,2
1672944652374044109,139642,1672944652396491851,gps,2,1,42.3014589616,-83.6987632401,272.640075684,0.001089,0.0,0.0,0.0,0.001156,0.0,0.0,0.0,0.005041,2
1672944652394044558,139643,1672944652416557906,gps,2,1,42.3014583206,-83.6987629505,272.640106201,0.001089,0.0,0.0,0.0,0.001156,0.0,0.0,0.0,0.005041,2
1672944652413956577,139644,1672944652436583828,gps,2,1,42.3014576744,-83.6987626401,272.639831543,0.001089,0.0,0.0,0.0,0.001156,0.0,0.0,0.0,0.005041,2
1672944652433782679,139645,1672944652456531443,gps,2,1,42.301457031,-83.6987623435,272.63961792,0.001089,0.0,0.0,0.0,0.001156,0.0,0.0,0.0,0.005041,2
1672944652454126371,139646,1672944652476533167,gps,2,1,42.3014563871,-83.698762046,272.639404297,0.001089,0.0,0.0,0.0,0.001156,0.0,0.0,0.0,0.005041,2
1672944652474021887,139647,1672944652496584867,gps,2,1,42.3014557404,-83.6987617252,272.639038086,0.001089,0.0,0.0,0.0,0.001156,0.0,0.0,0.0,0.005041,2
1672944652493954848,139648,1672944652516598259,gps,2,1,42.3014550963,-83.6987614167,272.63873291,0.001089,0.0,0.0,0.0,0.001156,0.0,0.0,0.0,0.005041,2
1672944652513542878,139649,1672944652536460290,gps,2,1,42.301454453,-83.6987611081,272.638519287,0.001089,0.0,0.0,0.0,0.001156,0.0,0.0,0.0,0.005041,2
1672944652533978480,139650,1672944652556678621,gps,2,1,42.301453806,-83.6987607771,272.638031006,0.001089,0.0,0.0,0.0,0.001156,0.0,0.0,0.0,0.005041,2
1672944652554081859,139651,1672944652576596338,gps,2,1,42.3014531627,-83.698760458,272.637756348,0.001089,0.0,0.0,0.0,0.001156,0.0,0.0,0.0,0.005041,2
1672944652574141391,139652,1672944652596581826,gps,2,1,42.30145252,-83.6987601457,272.637573242,0.001089,0.0,0.0,0.0,0.001156,0.0,0.0,0.0,0.005041,2
1672944652594019126,139653,1672944652616629605,gps,2,1,42.3014518727,-83.6987598051,272.637054443,0.001089,0.0,0.0,0.0,0.001156,0.0,0.0,0.0,0.005041,2
1672944652614003746,139654,1672944652636527204,gps,2,1,42.3014512273,-83.6987594908,272.63684082,0.001089,0.0,0.0,0.0,0.001156,0.0,0.0,0.0,0.005041,2
1672944652634236269,139655,1672944652656562413,gps,2,1,42.3014505816,-83.6987591755,272.636657715,0.001089,0.0,0.0,0.0,0.001156,0.0,0.0,0.0,0.005041,2
1672944652653953096,139656,1672944652676582322,gps,2,1,42.3014499338,-83.6987588268,272.636291504,0.001089,0.0,0.0,0.0,0.001156,0.0,0.0,0.0,0.005041,2
1672944652674092533,139657,1672944652696512041,gps,2,1,42.301449287,-83.6987585033,272.636230469,0.001089,0.0,0.0,0.0,0.001156,0.0,0.0,0.0,0.005041,2
1672944652693889991,139658,1672944652716542730,gps,2,1,42.3014486404,-83.6987581779,272.636169434,0.001089,0.0,0.0,0.0,0.001156,0.0,0.0,0.0,0.005041,2
1672944652713983383,139659,1672944652736582455,gps,2,1,42.3014479914,-83.6987578218,272.635925293,0.001089,0.0,0.0,0.0,0.001156,0.0,0.0,0.0,0.005041,2
1672944652733672005,139660,1672944652756496431,gps,2,1,42.3014473435,-83.6987574858,272.635803223,0.001089,0.0,0.0,0.0,0.001156,0.0,0.0,0.0,0.005041,2
1672944652754083432,139661,1672944652776516476,gps,2,1,42.3014466953,-83.698757149,272.635772705,0.001089,0.0,0.0,0.0,0.001156,0.0,0.0,0.0,0.005041,2
1672944652773997784,139662,1672944652796599743,gps,2,1,42.3014460448,-83.6987567861,272.635345459,0.001089,0.0,0.0,0.0,0.001156,0.0,0.0,0.0,0.005041,2
1672944652793879099,139663,1672944652816522964,gps,2,1,42.3014453945,-83.6987564426,272.635040283,0.001089,0.0,0.0,0.0,0.001156,0.0,0.0,0.0,0.005041,2
1672944652813944450,139664,1672944652836503367,gps,2,1,42.3014447448,-83.6987560986,272.634857178,0.001089,0.0,0.0,0.0,0.001156,0.0,0.0,0.0,0.005041,2
1672944652833874338,139665,1672944652856589080,gps,2,1,42.301444092,-83.6987557305,272.634155273,0.001089,0.0,0.0,0.0,0.001156,0.0,0.0,0.0,0.005041,2
1672944652853863911,139666,1672944652876517519,gps,2,1,42.3014434401,-83.6987553808,272.63369751,0.001089,0.0,0.0,0.0,0.001156,0.0,0.0,0.0,0.005041,2
1672944652873998070,139667,1672944652896548411,gps,2,1,42.3014427882,-83.6987550302,272.633209229,0.001089,0.0,0.0,0.0,0.001156,0.0,0.0,0.0,0.005041,2
1672944652893997143,139668,1672944652916533098,gps,2,1,42.3014421339,-83.6987546566,272.632232666,0.001089,0.0,0.0,0.0,0.001156,0.0,0.0,0.0,0.005041,2
1672944652914160615,139669,1672944652936568002,gps,2,1,42.3014414762,-83.6987543013,272.631347656,0.001089,0.0,0.0,0.0,0.001156,0.0,0.0,0.0,0.005041,2
1672944652934036537,139670,1672944652956535092,gps,2,1,42.3014408188,-83.6987539457,272.630432129,0.001089,0.0,0.0,0.0,0.001156,0.0,0.0,0.0,0.005041,2
1672944652953944175,139671,1672944652976586415,gps,2,1,42.3014401634,-83.6987535647,272.629272461,0.001089,0.0,0.0,0.0,0.001156,0.0,0.0,0.0,0.005041,2
1672944652973997730,139672,1672944652996537594,gps,2,1,42.3014395052,-83.6987532007,272.628234863,0.001089,0.0,0.0,0.0,0.001156,0.0,0.0,0.0,0.005041,2
1672944652994123759,139673,1672944653016638248,gps,2,1,42.3014388457,-83.6987528369,272.627227783,0.001089,0.0,0.0,0.0,0.001156,0.0,0.0,0.0,0.005041,2
1672944653014287790,139674,1672944653036593639,gps,2,1,42.3014381887,-83.6987524503,272.62612915,0.001089,0.0,0.0,0.0,0.001156,0.0,0.0,0.0,0.005041,2
1672944653034252817,139675,1672944653056588919,gps,2,1,42.3014375266,-83.6987520834,272.625335693,0.001089,0.0,0.0,0.0,0.001156,0.0,0.0,0.0,0.005041,2
1672944653053947716,139676,1672944653076517211,gps,2,1,42.301436866,-83.6987517191,272.624542236,0.001089,0.0,0.0,0.0,0.001156,0.0,0.0,0.0,0.005041,2
1672944653074104271,139677,1672944653096624989,gps,2,1,42.3014362059,-83.6987513317,272.623748779,0.001089,0.0,0.0,0.0,0.001156,0.0,0.0,0.0,0.005041,2
1672944653093972440,139678,1672944653116516253,gps,2,1,42.3014355415,-83.6987509668,272.62322998,0.001089,0.0,0.0,0.0,0.001156,0.0,0.0,0.0,0.005041,2
1672944653114069031,139679,1672944653136522444,gps,2,1,42.3014348775,-83.6987505983,272.622619629,0.001089,0.0,0.0,0.0,0.001156,0.0,0.0,0.0,0.005041,2
1672944653133820351,139680,1672944653156582477,gps,2,1,42.3014342138,-83.6987502096,272.621948242,0.001089,0.0,0.0,0.0,0.001156,0.0,0.0,0.0,0.005041,2
1672944653153994301,139681,1672944653176623095,gps,2,1,42.3014335461,-83.6987498383,272.621246338,0.001089,0.0,0.0,0.0,0.001156,0.0,0.0,0.0,0.005041,2
1672944653173980741,139682,1672944653196505227,gps,2,1,42.3014328801,-83.6987494677,272.620758057,0.001089,0.0,0.0,0.0,0.001156,0.0,0.0,0.0,0.005041,2
1672944653193963792,139683,1672944653216513075,gps,2,1,42.3014322134,-83.698749076,272.6199646,0.001089,0.0,0.0,0.0,0.001156,0.0,0.0,0.0,0.005041,2
1672944653213906721,139684,1672944653236536970,gps,2,1,42.3014315446,-83.6987487008,272.619354248,0.001089,0.0,0.0,0.0,0.001156,0.0,0.0,0.0,0.005041,2
1672944653233916062,139685,1672944653256513873,gps,2,1,42.3014308758,-83.6987483249,272.618743896,0.001089,0.0,0.0,0.0,0.001156,0.0,0.0,0.0,0.005041,2
1672944653253886714,139686,1672944653276590239,gps,2,1,42.3014302065,-83.6987479296,272.617950439,0.001089,0.0,0.0,0.0,0.001156,0.0,0.0,0.0,0.005041,2
1672944653273893894,139687,1672944653296475960,gps,2,1,42.3014295351,-83.6987475496,272.617370605,0.001089,0.0,0.0,0.0,0.001156,0.0,0.0,0.0,0.005041,2
1672944653294048193,139688,1672944653316566790,gps,2,1,42.3014288636,-83.6987471693,272.616821289,0.001089,0.0,0.0,0.0,0.001156,0.0,0.0,0.0,0.005041,2
1672944653313702056,139689,1672944653336580675,gps,2,1,42.3014281914,-83.6987467708,272.616088867,0.001089,0.0,0.0,0.0,0.001156,0.0,0.0,0.0,0.005041,2
1672944653334095201,139690,1672944653356516858,gps,2,1,42.3014275171,-83.6987463861,272.615631104,0.001089,0.0,0.0,0.0,0.001156,0.0,0.0,0.0,0.005041,2
1672944653353946906,139691,1672944653376522091,gps,2,1,42.3014268428,-83.6987460009,272.61517334,0.001089,0.0,0.0,0.0,0.001156,0.0,0.0,0.0,0.005041,2
1672944653373941646,139692,1672944653396557977,gps,2,1,42.3014261682,-83.6987455992,272.614685059,0.001089,0.0,0.0,0.0,0.001156,0.0,0.0,0.0,0.005041,2
1672944653393885533,139693,1672944653416590153,gps,2,1,42.3014254916,-83.6987452101,272.614501953,0.001089,0.0,0.0,0.0,0.001156,0.0,0.0,0.0,0.005041,2
1672944653413778238,139694,1672944653436514649,gps,2,1,42.3014248132,-83.698744823,272.61416626,0.001089,0.0,0.0,0.0,0.001156,0.0,0.0,0.0,0.005041,2
1672944653433994775,139695,1672944653456574773,gps,2,1,42.3014241362,-83.698744418,272.613891602,0.001089,0.0,0.0,0.0,0.001156,0.0,0.0,0.0,0.005041,2
1672944653453699972,139696,1672944653476581145,gps,2,1,42.3014234551,-83.6987440269,272.613586426,0.001089,0.0,0.0,0.0,0.001156,0.0,0.0,0.0,0.005041,2
1672944653474100592,139697,1672944653496552211,gps,2,1,42.301422775,-83.6987436309,272.613525391,0.001089,0.0,0.0,0.0,0.001156,0.0,0.0,0.0,0.005041,2
1672944653494193829,139698,1672944653516652107,gps,2,1,42.3014220951,-83.6987432224,272.613037109,0.001089,0.0,0.0,0.0,0.001156,0.0,0.0,0.0,0.005041,2
1672944653514162245,139699,1672944653536630915,gps,2,1,42.3014214122,-83.6987428225,272.612670898,0.001089,0.0,0.0,0.0,0.001156,0.0,0.0,0.0,0.005041,2
1672944653534084195,139700,1672944653556635681,gps,2,1,42.3014207298,-83.6987424252,272.612335205,0.001089,0.0,0.0,0.0,0.001156,0.0,0.0,0.0,0.005041,2
1672944653554051650,139701,1672944653576697901,gps,2,1,42.3014200461,-83.6987420141,272.611450195,0.001089,0.0,0.0,0.0,0.001156,0.0,0.0,0.0,0.005041,2
1672944653573705537,139702,1672944653596571329,gps,2,1,42.3014193595,-83.6987416156,272.610839844,0.001089,0.0,0.0,0.0,0.001156,0.0,0.0,0.0,0.005041,2
1672944653594064178,139703,1672944653616615882,gps,2,1,42.301418673,-83.6987412167,272.610168457,0.001089,0.0,0.0,0.0,0.001156,0.0,0.0,0.0,0.005041,2
1672944653614257948,139704,1672944653636686920,gps,2,1,42.3014179846,-83.6987408072,272.609069824,0.001089,0.0,0.0,0.0,0.001156,0.0,0.0,0.0,0.005041,2
1672944653634043432,139705,1672944653656603658,gps,2,1,42.3014172923,-83.6987404117,272.608276367,0.001089,0.0,0.0,0.0,0.001156,0.0,0.0,0.0,0.005041,2
1672944653653771145,139706,1672944653676529924,gps,2,1,42.3014165994,-83.698740016,272.607452393,0.001089,0.0,0.0,0.0,0.001156,0.0,0.0,0.0,0.005041,2
1672944653673988975,139707,1672944653696587400,gps,2,1,42.3014159047,-83.698739612,272.606384277,0.001089,0.0,0.0,0.0,0.001156,0.0,0.0,0.0,0.005041,2
1672944653693888342,139708,1672944653716609130,gps,2,1,42.3014152057,-83.698739222,272.605651855,0.001089,0.0,0.0,0.0,0.001156,0.0,0.0,0.0,0.005041,2
1672944653713770860,139709,1672944653736484079,gps,2,1,42.3014145072,-83.6987388329,272.604980469,0.001089,0.0,0.0,0.0,0.001156,0.0,0.0,0.0,0.005041,2
1672944653734179656,139710,1672944653756609802,gps,2,1,42.3014138058,-83.6987384351,272.603973389,0.001089,0.0,0.0,0.0,0.001156,0.0,0.0,0.0,0.005041,2
1672944653753876754,139711,1672944653776573503,gps,2,1,42.3014131003,-83.6987380518,272.603302002,0.001089,0.0,0.0,0.0,0.001156,0.0,0.0,0.0,0.005041,2
1672944653773901443,139712,1672944653796599579,gps,2,1,42.3014123948,-83.6987376654,272.60269165,0.0009,0.0,0.0,0.0,0.0009,0.0,0.0,0.0,0.005041,2
1672944653794104246,139713,1672944653816603196,gps,2,1,42.3014116865,-83.698737273,272.601745605,0.0009,0.0,0.0,0.0,0.0009,0.0,0.0,0.0,0.005041,2
1672944653814158331,139714,1672944653836656319,gps,2,1,42.3014109749,-83.6987368903,272.601165771,0.0009,0.0,0.0,0.0,0.0009,0.0,0.0,0.0,0.005041,2
1672944653833809661,139715,1672944653856536791,gps,2,1,42.3014102629,-83.6987365077,272.600585938,0.0009,0.0,0.0,0.0,0.0009,0.0,0.0,0.0,0.005041,2
1672944653853991512,139716,1672944653876587438,gps,2,1,42.3014095491,-83.6987361187,272.599700928,0.0009,0.0,0.0,0.0,0.0009,0.0,0.0,0.0,0.005041,2
1672944653873647969,139717,1672944653896540699,gps,2,1,42.3014088322,-83.6987357382,272.599090576,0.0009,0.0,0.0,0.0,0.0009,0.0,0.0,0.0,0.005041,2
1672944653893990579,139718,1672944653916542883,gps,2,1,42.3014081154,-83.6987353576,272.598480225,0.0009,0.0,0.0,0.0,0.0009,0.0,0.0,0.0,0.005041,2
1672944653914021847,139719,1672944653936606097,gps,2,1,42.3014073963,-83.6987349704,272.597595215,0.0009,0.0,0.0,0.0,0.0009,0.0,0.0,0.0,0.005041,2
1672944653933857466,139720,1672944653956493444,gps,2,1,42.3014066739,-83.6987345922,272.596710205,0.0009,0.0,0.0,0.0,0.0009,0.0,0.0,0.0,0.005041,2
1672944653953899532,139721,1672944653976514414,gps,2,1,42.3014059514,-83.6987342134,272.595825195,0.0009,0.0,0.0,0.0,0.0009,0.0,0.0,0.0,0.005041,2
1672944653973931672,139722,1672944653996591128,gps,2,1,42.3014052278,-83.6987338266,272.594818115,0.0009,0.0,0.0,0.0,0.0009,0.0,0.0,0.0,0.005041,2
1672944653993843675,139723,1672944654016621787,gps,2,1,42.3014045007,-83.6987334476,272.593841553,0.0009,0.0,0.0,0.0,0.0009,0.0,0.0,0.0,0.005041,2
1672944654013860204,139724,1672944654036529051,gps,2,1,42.3014037731,-83.6987330687,272.593017578,0.0009,0.0,0.0,0.0,0.0009,0.0,0.0,0.0,0.005041,2
1672944654034165044,139725,1672944654056727317,gps,2,1,42.3014030449,-83.6987326816,272.591949463,0.0009,0.0,0.0,0.0,0.0009,0.0,0.0,0.0,0.005041,2
1672944654053905401,139726,1672944654076537975,gps,2,1,42.3014023116,-83.6987323031,272.591278076,0.0009,0.0,0.0,0.0,0.0009,0.0,0.0,0.0,0.005041,2
1672944654073908867,139727,1672944654096638330,gps,2,1,42.3014015781,-83.6987319242,272.590606689,0.0009,0.0,0.0,0.0,0.0009,0.0,0.0,0.0,0.005041,2
1672944654093964827,139728,1672944654116569974,gps,2,1,42.3014008464,-83.6987315334,272.589782715,0.0009,0.0,0.0,0.0,0.0009,0.0,0.0,0.0,0.005041,2
1672944654114048974,139729,1672944654136534958,gps,2,1,42.3014001122,-83.6987311473,272.589385986,0.0009,0.0,0.0,0.0,0.0009,0.0,0.0,0.0,0.005041,2
1672944654133723204,139730,1672944654156598313,gps,2,1,42.301399378,-83.6987307607,272.589019775,0.0009,0.0,0.0,0.0,0.0009,0.0,0.0,0.0,0.005041,2
1672944654154146141,139731,1672944654176604426,gps,2,1,42.3013986441,-83.6987303648,272.588439941,0.0009,0.0,0.0,0.0,0.0009,0.0,0.0,0.0,0.005041,2
1672944654174008650,139732,1672944654196520587,gps,2,1,42.3013979086,-83.6987299743,272.588287354,0.0009,0.0,0.0,0.0,0.0009,0.0,0.0,0.0,0.005041,2
1672944654193612723,139733,1672944654216561859,gps,2,1,42.3013971722,-83.6987295844,272.588043213,0.0009,0.0,0.0,0.0,0.0009,0.0,0.0,0.0,0.005041,2
1672944654214031260,139734,1672944654236584843,gps,2,1,42.3013964358,-83.6987291867,272.587554932,0.0009,0.0,0.0,0.0,0.0009,0.0,0.0,0.0,0.005041,2
1672944654233895732,139735,1672944654256516084,gps,2,1,42.3013956938,-83.6987287969,272.587310791,0.0009,0.0,0.0,0.0,0.0009,0.0,0.0,0.0,0.005041,2
1672944654253824965,139736,1672944654276513951,gps,2,1,42.301394952,-83.6987284062,272.587036133,0.0009,0.0,0.0,0.0,0.0009,0.0,0.0,0.0,0.005041,2
1672944654274039910,139737,1672944654296591414,gps,2,1,42.3013942109,-83.698728009,272.586517334,0.0009,0.0,0.0,0.0,0.0009,0.0,0.0,0.0,0.005041,2
1672944654293886346,139738,1672944654316531367,gps,2,1,42.3013934631,-83.6987276216,272.586090088,0.0009,0.0,0.0,0.0,0.0009,0.0,0.0,0.0,0.005041,2
1672944654314094612,139739,1672944654336534525,gps,2,1,42.3013927174,-83.6987272355,272.585662842,0.0009,0.0,0.0,0.0,0.0009,0.0,0.0,0.0,0.005041,2
1672944654334088984,139740,1672944654356612559,gps,2,1,42.3013919702,-83.6987268433,272.584991455,0.0009,0.0,0.0,0.0,0.0009,0.0,0.0,0.0,0.005041,2
1672944654353922900,139741,1672944654376519072,gps,2,1,42.301391218,-83.6987264626,272.584411621,0.0009,0.0,0.0,0.0,0.0009,0.0,0.0,0.0,0.005041,2
1672944654373901470,139742,1672944654396560969,gps,2,1,42.3013904649,-83.6987260822,272.583770752,0.0009,0.0,0.0,0.0,0.0009,0.0,0.0,0.0,0.005041,2
1672944654393828444,139743,1672944654416579233,gps,2,1,42.3013897107,-83.6987256974,272.582794189,0.0009,0.0,0.0,0.0,0.0009,0.0,0.0,0.0,0.005041,2
1672944654413883000,139744,1672944654436526163,gps,2,1,42.3013889478,-83.6987253241,272.581604004,0.0009,0.0,0.0,0.0,0.0009,0.0,0.0,0.0,0.005041,2
1672944654433879953,139745,1672944654456499001,gps,2,1,42.3013881847,-83.6987249512,272.580474854,0.0009,0.0,0.0,0.0,0.0009,0.0,0.0,0.0,0.005041,2
1672944654453930366,139746,1672944654476552580,gps,2,1,42.3013874225,-83.6987245761,272.57913208,0.0009,0.0,0.0,0.0,0.0009,0.0,0.0,0.0,0.005041,2
1672944654473490860,139747,1672944654496483668,gps,2,1,42.3013866526,-83.6987242133,272.577758789,0.0009,0.0,0.0,0.0,0.0009,0.0,0.0,0.0,0.005041,2
1672944654494029656,139748,1672944654516595676,gps,2,1,42.3013858825,-83.698723851,272.576385498,0.0009,0.0,0.0,0.0,0.0009,0.0,0.0,0.0,0.005041,2
1672944654514108285,139749,1672944654536595571,gps,2,1,42.3013851137,-83.6987234866,272.575073242,0.0009,0.0,0.0,0.0,0.0009,0.0,0.0,0.0,0.005041,2
1672944654533853752,139750,1672944654556597988,gps,2,1,42.3013843356,-83.6987231338,272.574127197,0.0009,0.0,0.0,0.0,0.0009,0.0,0.0,0.0,0.005041,2
1672944654554019504,139751,1672944654576588719,gps,2,1,42.3013835556,-83.6987227814,272.573120117,0.0009,0.0,0.0,0.0,0.0009,0.0,0.0,0.0,0.005041,2
1672944654574047978,139752,1672944654596645696,gps,2,1,42.3013827811,-83.6987224245,272.571960449,0.0009,0.0,0.0,0.0,0.0009,0.0,0.0,0.0,0.005041,2
1672944654593905708,139753,1672944654616545912,gps,2,1,42.3013819964,-83.6987220757,272.571044922,0.0009,0.0,0.0,0.0,0.0009,0.0,0.0,0.0,0.005041,2
1672944654613926633,139754,1672944654636582102,gps,2,1,42.3013812149,-83.6987217269,272.570159912,0.0009,0.0,0.0,0.0,0.0009,0.0,0.0,0.0,0.005041,2
1672944654633964426,139755,1672944654656613697,gps,2,1,42.3013804358,-83.6987213726,272.569061279,0.0009,0.0,0.0,0.0,0.0009,0.0,0.0,0.0,0.005041,2
1672944654653970516,139756,1672944654676504222,gps,2,1,42.3013796503,-83.698721025,272.56817627,0.0009,0.0,0.0,0.0,0.0009,0.0,0.0,0.0,0.005041,2
1672944654673714189,139757,1672944654696595436,gps,2,1,42.3013788647,-83.6987206777,272.567260742,0.0009,0.0,0.0,0.0,0.0009,0.0,0.0,0.0,0.005041,2
1672944654693866272,139758,1672944654716479481,gps,2,1,42.3013780805,-83.6987203259,272.566131592,0.0009,0.0,0.0,0.0,0.0009,0.0,0.0,0.0,0.005041,2
1672944654714190959,139759,1672944654736615599,gps,2,1,42.3013772887,-83.6987199797,272.565032959,0.0009,0.0,0.0,0.0,0.0009,0.0,0.0,0.0,0.005041,2
1672944654734056570,139760,1672944654756545369,gps,2,1,42.3013764969,-83.6987196333,272.563934326,0.0009,0.0,0.0,0.0,0.0009,0.0,0.0,0.0,0.005041,2
1672944654753980942,139761,1672944654776598192,gps,2,1,42.3013757074,-83.6987192857,272.562744141,0.0009,0.0,0.0,0.0,0.0009,0.0,0.0,0.0,0.005041,2
1672944654773994021,139762,1672944654796538798,gps,2,1,42.3013749112,-83.6987189436,272.561828613,0.0009,0.0,0.0,0.0,0.0009,0.0,0.0,0.0,0.005041,2
1672944654793952183,139763,1672944654816509267,gps,2,1,42.3013741148,-83.6987186025,272.560913086,0.0009,0.0,0.0,0.0,0.0009,0.0,0.0,0.0,0.005041,2
1672944654814031933,139764,1672944654836584969,gps,2,1,42.30137332,-83.6987182625,272.560119629,0.0009,0.0,0.0,0.0,0.0009,0.0,0.0,0.0,0.005041,2
1672944654833853532,139765,1672944654856530993,gps,2,1,42.3013725173,-83.698717931,272.559692383,0.0009,0.0,0.0,0.0,0.0009,0.0,0.0,0.0,0.005041,2
1672944654853927579,139766,1672944654876532488,gps,2,1,42.3013717147,-83.6987175995,272.559326172,0.0009,0.0,0.0,0.0,0.0009,0.0,0.0,0.0,0.005041,2
1672944654874061375,139767,1672944654896591603,gps,2,1,42.3013709146,-83.6987172674,272.558868408,0.0009,0.0,0.0,0.0,0.0009,0.0,0.0,0.0,0.005041,2
1672944654893942315,139768,1672944654916530536,gps,2,1,42.3013701077,-83.6987169435,272.558624268,0.0009,0.0,0.0,0.0,0.0009,0.0,0.0,0.0,0.005041,2
1672944654913808156,139769,1672944654936522461,gps,2,1,42.3013693018,-83.6987166205,272.558380127,0.0009,0.0,0.0,0.0,0.0009,0.0,0.0,0.0,0.005041,2
1672944654934000291,139770,1672944654956586155,gps,2,1,42.301368496,-83.6987162976,272.557830811,0.0009,0.0,0.0,0.0,0.0009,0.0,0.0,0.0,0.005041,2
1672944654953920090,139771,1672944654976528331,gps,2,1,42.3013676834,-83.6987159854,272.557128906,0.0009,0.0,0.0,0.0,0.0009,0.0,0.0,0.0,0.005041,2
1672944654973670618,139772,1672944654996574035,gps,2,1,42.301366871,-83.698715674,272.55645752,0.0009,0.0,0.0,0.0,0.0009,0.0,0.0,0.0,0.005041,2
1672944654994033615,139773,1672944655016694313,gps,2,1,42.3013660588,-83.6987153649,272.555328369,0.0009,0.0,0.0,0.0,0.0009,0.0,0.0,0.0,0.005041,2
1672944655014122129,139774,1672944655036715443,gps,2,1,42.3013652385,-83.6987150706,272.554077148,0.0009,0.0,0.0,0.0,0.0009,0.0,0.0,0.0,0.005041,2
1672944655033595313,139775,1672944655056543752,gps,2,1,42.3013644178,-83.698714778,272.55279541,0.0009,0.0,0.0,0.0,0.0009,0.0,0.0,0.0,0.005041,2
1672944655053910815,139776,1672944655076638998,gps,2,1,42.3013635985,-83.6987144872,272.551239014,0.0009,0.0,0.0,0.0,0.0009,0.0,0.0,0.0,0.005041,2
1672944655074018618,139777,1672944655096569518,gps,2,1,42.3013627706,-83.6987142127,272.549591064,0.0009,0.0,0.0,0.0,0.0009,0.0,0.0,0.0,0.005041,2
1672944655093946471,139778,1672944655116597407,gps,2,1,42.3013619425,-83.6987139386,272.547973633,0.0009,0.0,0.0,0.0,0.0009,0.0,0.0,0.0,0.005041,2
1672944655113884859,139779,1672944655136588789,gps,2,1,42.301361116,-83.6987136643,272.546203613,0.0009,0.0,0.0,0.0,0.0009,0.0,0.0,0.0,0.005041,2
1672944655133988611,139780,1672944655156541888,gps,2,1,42.3013602807,-83.6987134035,272.544494629,0.0009,0.0,0.0,0.0,0.0009,0.0,0.0,0.0,0.005041,2
1672944655154153481,139781,1672944655176498568,gps,2,1,42.3013594458,-83.6987131426,272.542816162,0.0009,0.0,0.0,0.0,0.0009,0.0,0.0,0.0,0.005041,2
1672944655173983580,139782,1672944655196576702,gps,2,1,42.3013586133,-83.6987128771,272.541259766,0.0009,0.0,0.0,0.0,0.0009,0.0,0.0,0.0,0.005041,2
1672944655193902933,139783,1672944655216544052,gps,2,1,42.301357774,-83.6987126201,272.539978027,0.0009,0.0,0.0,0.0,0.0009,0.0,0.0,0.0,0.005041,2
1672944655213916212,139784,1672944655236488104,gps,2,1,42.3013569334,-83.6987123618,272.538665771,0.0009,0.0,0.0,0.0,0.0009,0.0,0.0,0.0,0.005041,2
1672944655233868400,139785,1672944655256608049,gps,2,1,42.3013560968,-83.6987120988,272.537384033,0.0009,0.0,0.0,0.0,0.0009,0.0,0.0,0.0,0.005041,2
1672944655253879260,139786,1672944655276558743,gps,2,1,42.3013552522,-83.6987118413,272.536132812,0.0009,0.0,0.0,0.0,0.0009,0.0,0.0,0.0,0.005041,2
1672944655273741885,139787,1672944655296529164,gps,2,1,42.3013544079,-83.6987115836,272.534912109,0.0009,0.0,0.0,0.0,0.0009,0.0,0.0,0.0,0.005041,2
1672944655294085992,139788,1672944655316556610,gps,2,1,42.3013535669,-83.698711323,272.533691406,0.0009,0.0,0.0,0.0,0.0009,0.0,0.0,0.0,0.005041,2
1672944655313911049,139789,1672944655336580432,gps,2,1,42.3013527201,-83.6987110722,272.532531738,0.0009,0.0,0.0,0.0,0.0009,0.0,0.0,0.0,0.005041,2
1672944655333538427,139790,1672944655356538575,gps,2,1,42.3013518729,-83.6987108216,272.531341553,0.0009,0.0,0.0,0.0,0.0009,0.0,0.0,0.0,0.005041,2
1672944655353943139,139791,1672944655376593815,gps,2,1,42.3013510272,-83.6987105692,272.530090332,0.0009,0.0,0.0,0.0,0.0009,0.0,0.0,0.0,0.005041,2
1672944655373939944,139792,1672944655396488922,gps,2,1,42.3013501757,-83.6987103294,272.528900146,0.0009,0.0,0.0,0.0,0.0009,0.0,0.0,0.0,0.005041,2
1672944655393854830,139793,1672944655416651182,gps,2,1,42.3013493242,-83.6987100901,272.527740479,0.0009,0.0,0.0,0.0,0.0009,0.0,0.0,0.0,0.005041,2
1672944655413696105,139794,1672944655436595595,gps,2,1,42.3013484732,-83.6987098509,272.526550293,0.0009,0.0,0.0,0.0,0.0009,0.0,0.0,0.0,0.005041,2
1672944655433911381,139795,1672944655456536025,gps,2,1,42.3013476172,-83.6987096242,272.525512695,0.0009,0.0,0.0,0.0,0.0009,0.0,0.0,0.0,0.005041,2
1672944655453853117,139796,1672944655476522161,gps,2,1,42.3013467611,-83.6987093977,272.524536133,0.0009,0.0,0.0,0.0,0.0009,0.0,0.0,0.0,0.005041,2
1672944655473676709,139797,1672944655496600103,gps,2,1,42.3013459052,-83.6987091712,272.52355957,0.0009,0.0,0.0,0.0,0.0009,0.0,0.0,0.0,0.005041,2
1672944655494093552,139798,1672944655516694934,gps,2,1,42.3013450442,-83.6987089555,272.522857666,0.0009,0.0,0.0,0.0,0.0009,0.0,0.0,0.0,0.005041,2
1672944655513980968,139799,1672944655536587694,gps,2,1,42.3013441778,-83.698708741,272.521850586,0.0009,0.0,0.0,0.0,0.0009,0.0,0.0,0.0,0.005041,2
1672944655533968237,139800,1672944655556688568,gps,2,1,42.3013433168,-83.6987085252,272.521026611,0.0009,0.0,0.0,0.0,0.0009,0.0,0.0,0.0,0.005041,2
1672944655553975679,139801,1672944655576574370,gps,2,1,42.3013424457,-83.6987083205,272.519958496,0.0009,0.0,0.0,0.0,0.0009,0.0,0.0,0.0,0.005041,2
1672944655573948164,139802,1672944655596580024,gps,2,1,42.3013415736,-83.6987081179,272.518890381,0.0009,0.0,0.0,0.0,0.0009,0.0,0.0,0.0,0.005041,2
1672944655594072002,139803,1672944655616656182,gps,2,1,42.3013407073,-83.6987079134,272.517791748,0.0009,0.0,0.0,0.0,0.0009,0.0,0.0,0.0,0.005041,2
1672944655613900613,139804,1672944655636514825,gps,2,1,42.3013398323,-83.6987077251,272.516540527,0.0009,0.0,0.0,0.0,0.0009,0.0,0.0,0.0,0.005041,2
1672944655633891842,139805,1672944655656509382,gps,2,1,42.3013389576,-83.6987075371,272.515319824,0.0009,0.0,0.0,0.0,0.0009,0.0,0.0,0.0,0.005041,2
1672944655653973736,139806,1672944655676534780,gps,2,1,42.3013380858,-83.6987073455,272.514068604,0.0009,0.0,0.0,0.0,0.0009,0.0,0.0,0.0,0.005041,2
1672944655673901273,139807,1672944655696615748,gps,2,1,42.3013372065,-83.6987071688,272.512695312,0.0009,0.0,0.0,0.0,0.0009,0.0,0.0,0.0,0.005041,2
1672944655693839098,139808,1672944655716545116,gps,2,1,42.3013363272,-83.6987069929,272.511352539,0.0009,0.0,0.0,0.0,0.0009,0.0,0.0,0.0,0.005041,2
1672944655713875002,139809,1672944655736605874,gps,2,1,42.3013354506,-83.6987068123,272.509979248,0.0009,0.0,0.0,0.0,0.0009,0.0,0.0,0.0,0.005041,2
1672944655734008056,139810,1672944655756583928,gps,2,1,42.3013345673,-83.6987066457,272.508575439,0.0009,0.0,0.0,0.0,0.0009,0.0,0.0,0.0,0.005041,2
1672944655753868334,139811,1672944655776532114,gps,2,1,42.3013336839,-83.6987064791,272.507141113,0.0009,0.0,0.0,0.0,0.0009,0.0,0.0,0.0,0.005041,2
1672944655773936580,139812,1672944655796563858,gps,2,1,42.3013328027,-83.698706308,272.505767822,0.001089,0.0,0.0,0.0,0.001156,0.0,0.0,0.0,0.005476,2
1672944655793862581,139813,1672944655816523236,gps,2,1,42.3013319157,-83.6987061494,272.504486084,0.001089,0.0,0.0,0.0,0.001156,0.0,0.0,0.0,0.005476,2
1672944655813894863,139814,1672944655836547195,gps,2,1,42.3013310286,-83.6987059933,272.503082275,0.001089,0.0,0.0,0.0,0.001156,0.0,0.0,0.0,0.005476,2
1672944655833630057,139815,1672944655856599584,gps,2,1,42.3013301434,-83.6987058309,272.501800537,0.001089,0.0,0.0,0.0,0.001156,0.0,0.0,0.0,0.005476,2
1672944655853604535,139816,1672944655876537103,gps,2,1,42.3013292519,-83.6987056831,272.500518799,0.001089,0.0,0.0,0.0,0.001156,0.0,0.0,0.0,0.005476,2
1672944655873572633,139817,1672944655896573096,gps,2,1,42.3013283602,-83.6987055353,272.499206543,0.001089,0.0,0.0,0.0,0.001156,0.0,0.0,0.0,0.005476,2
1672944655893999032,139818,1672944655916528861,gps,2,1,42.3013274703,-83.6987053823,272.498016357,0.001089,0.0,0.0,0.0,0.001156,0.0,0.0,0.0,0.005476,2
1672944655913872852,139819,1672944655936554237,gps,2,1,42.3013265716,-83.698705244,272.496948242,0.001089,0.0,0.0,0.0,0.001156,0.0,0.0,0.0,0.005476,2
1672944655933945920,139820,1672944655956541966,gps,2,1,42.3013256733,-83.6987051059,272.495880127,0.001089,0.0,0.0,0.0,0.001156,0.0,0.0,0.0,0.005476,2
1672944655953814091,139821,1672944655976545562,gps,2,1,42.3013247782,-83.6987049621,272.494812012,0.001089,0.0,0.0,0.0,0.001156,0.0,0.0,0.0,0.005476,2
1672944655974182549,139822,1672944655996600646,gps,2,1,42.3013238754,-83.69870483,272.493804932,0.001089,0.0,0.0,0.0,0.001156,0.0,0.0,0.0,0.005476,2
1672944655994276352,139823,1672944656016622470,gps,2,1,42.3013229733,-83.698704699,272.492675781,0.001089,0.0,0.0,0.0,0.001156,0.0,0.0,0.0,0.005476,2
1672944656014146549,139824,1672944656036703532,gps,2,1,42.3013220738,-83.6987045624,272.491607666,0.001089,0.0,0.0,0.0,0.001156,0.0,0.0,0.0,0.005476,2
1672944656034077686,139825,1672944656056658611,gps,2,1,42.3013211678,-83.6987044365,272.490386963,0.001089,0.0,0.0,0.0,0.001156,0.0,0.0,0.0,0.005476,2
1672944656053893394,139826,1672944656076587357,gps,2,1,42.3013202606,-83.6987043161,272.488952637,0.001089,0.0,0.0,0.0,0.001156,0.0,0.0,0.0,0.005476,2
1672944656074032229,139827,1672944656096714802,gps,2,1,42.301319357,-83.6987041853,272.487701416,0.001089,0.0,0.0,0.0,0.001156,0.0,0.0,0.0,0.005476,2
1672944656093826455,139828,1672944656116503964,gps,2,1,42.3013184466,-83.6987040697,272.486053467,0.001089,0.0,0.0,0.0,0.001156,0.0,0.0,0.0,0.005476,2
1672944656113786631,139829,1672944656136587665,gps,2,1,42.3013175358,-83.6987039548,272.484405518,0.001089,0.0,0.0,0.0,0.001156,0.0,0.0,0.0,0.005476,2
1672944656134091302,139830,1672944656156615270,gps,2,1,42.3013166289,-83.6987038308,272.483032227,0.001089,0.0,0.0,0.0,0.001156,0.0,0.0,0.0,0.005476,2
1672944656153892122,139831,1672944656176508325,gps,2,1,42.3013157148,-83.6987037233,272.481262207,0.001089,0.0,0.0,0.0,0.001156,0.0,0.0,0.0,0.005476,2
1672944656174129665,139832,1672944656196576766,gps,2,1,42.3013148009,-83.6987036159,272.479522705,0.001089,0.0,0.0,0.0,0.001156,0.0,0.0,0.0,0.005476,2
1672944656193853697,139833,1672944656216547470,gps,2,1,42.3013138898,-83.6987035015,272.477966309,0.001089,0.0,0.0,0.0,0.001156,0.0,0.0,0.0,0.005476,2
