%time,field.header.seq,field.header.stamp,field.header.frame_id,field.twist.twist.linear.x,field.twist.twist.linear.y,field.twist.twist.linear.z,field.twist.twist.angular.x,field.twist.twist.angular.y,field.twist.twist.angular.z,field.twist.covariance0,field.twist.covariance1,field.twist.covariance2,field.twist.covariance3,field.twist.covariance4,field.twist.covariance5,field.twist.covariance6,field.twist.covariance7,field.twist.covariance8,field.twist.covariance9,field.twist.covariance10,field.twist.covariance11,field.twist.covariance12,field.twist.covariance13,field.twist.covariance14,field.twist.covariance15,field.twist.covariance16,field.twist.covariance17,field.twist.covariance18,field.twist.covariance19,field.twist.covariance20,field.twist.covariance21,field.twist.covariance22,field.twist.covariance23,field.twist.covariance24,field.twist.covariance25,field.twist.covariance26,field.twist.covariance27,field.twist.covariance28,field.twist.covariance29,field.twist.covariance30,field.twist.covariance31,field.twist.covariance32,field.twist.covariance33,field.twist.covariance34,field.twist.covariance35
1672944648214270828,139434,1672944648236562062,enu,-0.1953,-0.4911,-0.019,0.0,0.0,0.0,0.000169,0.0,0.0,0.0,0.0,0.0,0.0,0.000169,0.0,0.0,0.0,0.0,0.0,0.0,0.0001,0.0,0.0,0.0,0.0,0.0,0.0,0.0,0.0,0.0,0.0,0.0,0.0,0.0,0.0,0.0,0.0,0.0,0.0,0.0,0.0,0.0
1672944648234241591,139435,1672944648256510789,enu,-0.1923,-0.4854,-0.0187,0.0,0.0,0.0,0.000169,0.0,0.0,0.0,0.0,0.0,0.0,0.000169,0.0,0.0,0.0,0.0,0.0,0.0,0.0001,0.0,0.0,0.0,0.0,0.0,0.0,0.0,0.0,0.0,0.0,0.0,0.0,0.0,0.0,0.0,0.0,0.0,0.0,0.0,0.0,0.0
1672944648254291211,139436,1672944648276530424,enu,-0.1894,-0.4801,-0.0185,0.0,0.0,0.0,0.000169,0.0,0.0,0.0,0.0,0.0,0.0,0.000169,0.0,0.0,0.0,0.0,0.0,0.0,0.0001,0.0,0.0,0.0,0.0,0.0,0.0,0.0,0.0,0.0,0.0,0.0,0.0,0.0,0.0,0.0,0.0,0.0,0.0,0.0,0.0,0.0
1672944648274291613,139437,1672944648296566603,enu,-0.1862,-0.4745,-0.0182,0.0,0.0,0.0,0.000169,0.0,0.0,0.0,0.0,0.0,0.0,0.000169,0.0,0.0,0.0,0.0,0.0,0.0,0.0001,0.0,0.0,0.0,0.0,0.0,0.0,0.0,0.0,0.0,0.0,0.0,0.0,0.0,0.0,0.0,0.0,0.0,0.0,0.0,0.0,0.0
1672944648294369282,139438,1672944648316519751,enu,-0.1827,-0.4684,-0.0179,0.0,0.0,0.0,0.000169,0.0,0.0,0.0,0.0,0.0,0.0,0.000169,0.0,0.0,0.0,0.0,0.0,0.0,0.0001,0.0,0.0,0.0,0.0,0.0,0.0,0.0,0.0,0.0,0.0,0.0,0.0,0.0,0.0,0.0,0.0,0.0,0.0,0.0,0.0,0.0
1672944648314552484,139439,1672944648336594273,enu,-0.1792,-0.462,-0.0178,0.0,0.0,0.0,0.000169,0.0,0.0,0.0,0.0,0.0,0.0,0.000169,0.0,0.0,0.0,0.0,0.0,0.0,0.0001,0.0,0.0,0.0,0.0,0.0,0.0,0.0,0.0,0.0,0.0,0.0,0.0,0.0,0.0,0.0,0.0,0.0,0.0,0.0,0.0,0.0
1672944648334081082,139440,1672944648356580288,enu,-0.1756,-0.4552,-0.0176,0.0,0.0,0.0,0.000169,0.0,0.0,0.0,0.0,0.0,0.0,0.000169,0.0,0.0,0.0,0.0,0.0,0.0,0.0001,0.0,0.0,0.0,0.0,0.0,0.0,0.0,0.0,0.0,0.0,0.0,0.0,0.0,0.0,0.0,0.0,0.0,0.0,0.0,0.0,0.0
1672944648354101690,139441,1672944648376522456,enu,-0.172,-0.4479,-0.0171,0.0,0.0,0.0,0.000169,0.0,0.0,0.0,0.0,0.0,0.0,0.000169,0.0,0.0,0.0,0.0,0.0,0.0,0.0001,0.0,0.0,0.0,0.0,0.0,0.0,0.0,0.0,0.0,0.0,0.0,0.0,0.0,0.0,0.0,0.0,0.0,0.0,0.0,0.0,0.0
1672944648373923965,139442,1672944648396515548,enu,-0.1684,-0.44,-0.0168,0.0,0.0,0.0,0.000169,0.0,0.0,0.0,0.0,0.0,0.0,0.000169,0.0,0.0,0.0,0.0,0.0,0.0,0.0001,0.0,0.0,0.0,0.0,0.0,0.0,0.0,0.0,0.0,0.0,0.0,0.0,0.0,0.0,0.0,0.0,0.0,0.0,0.0,0.0,0.0
1672944648393866651,139443,1672944648416477695,enu,-0.1647,-0.432,-0.0166,0.0,0.0,0.0,0.000169,0.0,0.0,0.0,0.0,0.0,0.0,0.000169,0.0,0.0,0.0,0.0,0.0,0.0,0.0001,0.0,0.0,0.0,0.0,0.0,0.0,0.0,0.0,0.0,0.0,0.0,0.0,0.0,0.0,0.0,0.0,0.0,0.0,0.0,0.0,0.0
1672944648414133633,139444,1672944648436435852,enu,-0.1608,-0.4231,-0.0161,0.0,0.0,0.0,0.000169,0.0,0.0,0.0,0.0,0.0,0.0,0.000169,0.0,0.0,0.0,0.0,0.0,0.0,0.0001,0.0,0.0,0.0,0.0,0.0,0.0,0.0,0.0,0.0,0.0,0.0,0.0,0.0,0.0,0.0,0.0,0.0,0.0,0.0,0.0,0.0
1672944648434119116,139445,1672944648456501140,enu,-0.1564,-0.4135,-0.0157,0.0,0.0,0.0,0.000169,0.0,0.0,0.0,0.0,0.0,0.0,0.000169,0.0,0.0,0.0,0.0,0.0,0.0,0.0001,0.0,0.0,0.0,0.0,0.0,0.0,0.0,0.0,0.0,0.0,0.0,0.0,0.0,0.0,0.0,0.0,0.0,0.0,0.0,0.0,0.0
1672944648454398491,139446,1672944648476579865,enu,-0.1522,-0.404,-0.0154,0.0,0.0,0.0,0.000169,0.0,0.0,0.0,0.0,0.0,0.0,0.000169,0.0,0.0,0.0,0.0,0.0,0.0,0.0001,0.0,0.0,0.0,0.0,0.0,0.0,0.0,0.0,0.0,0.0,0.0,0.0,0.0,0.0,0.0,0.0,0.0,0.0,0.0,0.0,0.0
1672944648474356802,139447,1672944648496493973,enu,-0.1479,-0.3941,-0.0149,0.0,0.0,0.0,0.000169,0.0,0.0,0.0,0.0,0.0,0.0,0.000169,0.0,0.0,0.0,0.0,0.0,0.0,0.0001,0.0,0.0,0.0,0.0,0.0,0.0,0.0,0.0,0.0,0.0,0.0,0.0,0.0,0.0,0.0,0.0,0.0,0.0,0.0,0.0,0.0
1672944648494375103,139448,1672944648516567875,enu,-0.1433,-0.3836,-0.0144,0.0,0.0,0.0,0.000169,0.0,0.0,0.0,0.0,0.0,0.0,0.000169,0.0,0.0,0.0,0.0,0.0,0.0,0.0001,0.0,0.0,0.0,0.0,0.0,0.0,0.0,0.0,0.0,0.0,0.0,0.0,0.0,0.0,0.0,0.0,0.0,0.0,0.0,0.0,0.0
1672944648514278032,139449,1672944648536578861,enu,-0.1387,-0.3731,-0.014,0.0,0.0,0.0,0.000169,0.0,0.0,0.0,0.0,0.0,0.0,0.000169,0.0,0.0,0.0,0.0,0.0,0.0,0.0001,0.0,0.0,0.0,0.0,0.0,0.0,0.0,0.0,0.0,0.0,0.0,0.0,0.0,0.0,0.0,0.0,0.0,0.0,0.0,0.0,0.0
1672944648534083754,139450,1672944648556525657,enu,-0.1338,-0.3624,-0.0138,0.0,0.0,0.0,0.000169,0.0,0.0,0.0,0.0,0.0,0.0,0.000169,0.0,0.0,0.0,0.0,0.0,0.0,0.0001,0.0,0.0,0.0,0.0,0.0,0.0,0.0,0.0,0.0,0.0,0.0,0.0,0.0,0.0,0.0,0.0,0.0,0.0,0.0,0.0,0.0
1672944648554732319,139451,1672944648576628399,enu,-0.129,-0.3513,-0.0136,0.0,0.0,0.0,0.000169,0.0,0.0,0.0,0.0,0.0,0.0,0.000169,0.0,0.0,0.0,0.0,0.0,0.0,0.0001,0.0,0.0,0.0,0.0,0.0,0.0,0.0,0.0,0.0,0.0,0.0,0.0,0.0,0.0,0.0,0.0,0.0,0.0,0.0,0.0,0.0
1672944648574250052,139452,1672944648596667883,enu,-0.1241,-0.3399,-0.0133,0.0,0.0,0.0,0.000169,0.0,0.0,0.0,0.0,0.0,0.0,0.000169,0.0,0.0,0.0,0.0,0.0,0.0,0.0001,0.0,0.0,0.0,0.0,0.0,0.0,0.0,0.0,0.0,0.0,0.0,0.0,0.0,0.0,0.0,0.0,0.0,0.0,0.0,0.0,0.0
1672944648593984218,139453,1672944648616512012,enu,-0.1191,-0.3285,-0.013,0.0,0.0,0.0,0.000169,0.0,0.0,0.0,0.0,0.0,0.0,0.000169,0.0,0.0,0.0,0.0,0.0,0.0,0.0001,0.0,0.0,0.0,0.0,0.0,0.0,0.0,0.0,0.0,0.0,0.0,0.0,0.0,0.0,0.0,0.0,0.0,0.0,0.0,0.0,0.0
1672944648614341241,139454,1672944648636556129,enu,-0.114,-0.3167,-0.0128,0.0,0.0,0.0,0.000169,0.0,0.0,0.0,0.0,0.0,0.0,0.000169,0.0,0.0,0.0,0.0,0.0,0.0,0.0001,0.0,0.0,0.0,0.0,0.0,0.0,0.0,0.0,0.0,0.0,0.0,0.0,0.0,0.0,0.0,0.0,0.0,0.0,0.0,0.0,0.0
1672944648634153526,139455,1672944648656547909,enu,-0.1091,-0.3051,-0.0124,0.0,0.0,0.0,0.000169,0.0,0.0,0.0,0.0,0.0,0.0,0.000169,0.0,0.0,0.0,0.0,0.0,0.0,0.0001,0.0,0.0,0.0,0.0,0.0,0.0,0.0,0.0,0.0,0.0,0.0,0.0,0.0,0.0,0.0,0.0,0.0,0.0,0.0,0.0,0.0
1672944648654234266,139456,1672944648676528635,enu,-0.1042,-0.2929,-0.012,0.0,0.0,0.0,0.000169,0.0,0.0,0.0,0.0,0.0,0.0,0.000169,0.0,0.0,0.0,0.0,0.0,0.0,0.0001,0.0,0.0,0.0,0.0,0.0,0.0,0.0,0.0,0.0,0.0,0.0,0.0,0.0,0.0,0.0,0.0,0.0,0.0,0.0,0.0,0.0
1672944648674114352,139457,1672944648696502753,enu,-0.0989,-0.2808,-0.0116,0.0,0.0,0.0,0.000169,0.0,0.0,0.0,0.0,0.0,0.0,0.000169,0.0,0.0,0.0,0.0,0.0,0.0,0.0001,0.0,0.0,0.0,0.0,0.0,0.0,0.0,0.0,0.0,0.0,0.0,0.0,0.0,0.0,0.0,0.0,0.0,0.0,0.0,0.0,0.0
1672944648694396477,139458,1672944648716556323,enu,-0.094,-0.2689,-0.0114,0.0,0.0,0.0,0.000169,0.0,0.0,0.0,0.0,0.0,0.0,0.000169,0.0,0.0,0.0,0.0,0.0,0.0,0.0001,0.0,0.0,0.0,0.0,0.0,0.0,0.0,0.0,0.0,0.0,0.0,0.0,0.0,0.0,0.0,0.0,0.0,0.0,0.0,0.0,0.0
1672944648714185061,139459,1672944648736480126,enu,-0.0891,-0.2569,-0.0112,0.0,0.0,0.0,0.000169,0.0,0.0,0.0,0.0,0.0,0.0,0.000169,0.0,0.0,0.0,0.0,0.0,0.0,0.0001,0.0,0.0,0.0,0.0,0.0,0.0,0.0,0.0,0.0,0.0,0.0,0.0,0.0,0.0,0.0,0.0,0.0,0.0,0.0,0.0,0.0
1672944648733974232,139460,1672944648756508475,enu,-0.0842,-0.2446,-0.0107,0.0,0.0,0.0,0.000169,0.0,0.0,0.0,0.0,0.0,0.0,0.000169,0.0,0.0,0.0,0.0,0.0,0.0,0.0001,0.0,0.0,0.0,0.0,0.0,0.0,0.0,0.0,0.0,0.0,0.0,0.0,0.0,0.0,0.0,0.0,0.0,0.0,0.0,0.0,0.0
1672944648754578767,139461,1672944648776603431,enu,-0.0794,-0.2325,-0.0105,0.0,0.0,0.0,0.000169,0.0,0.0,0.0,0.0,0.0,0.0,0.000169,0.0,0.0,0.0,0.0,0.0,0.0,0.0001,0.0,0.0,0.0,0.0,0.0,0.0,0.0,0.0,0.0,0.0,0.0,0.0,0.0,0.0,0.0,0.0,0.0,0.0,0.0,0.0,0.0
1672944648774315238,139462,1672944648796507520,enu,-0.0746,-0.2204,-0.0101,0.0,0.0,0.0,0.000169,0.0,0.0,0.0,0.0,0.0,0.0,0.000169,0.0,0.0,0.0,0.0,0.0,0.0,0.0001,0.0,0.0,0.0,0.0,0.0,0.0,0.0,0.0,0.0,0.0,0.0,0.0,0.0,0.0,0.0,0.0,0.0,0.0,0.0,0.0,0.0
1672944648793907933,139463,1672944648816540829,enu,-0.0699,-0.2085,-0.0098,0.0,0.0,0.0,0.000169,0.0,0.0,0.0,0.0,0.0,0.0,0.000169,0.0,0.0,0.0,0.0,0.0,0.0,0.0001,0.0,0.0,0.0,0.0,0.0,0.0,0.0,0.0,0.0,0.0,0.0,0.0,0.0,0.0,0.0,0.0,0.0,0.0,0.0,0.0,0.0
1672944648814464034,139464,1672944648836659899,enu,-0.0651,-0.1964,-0.0094,0.0,0.0,0.0,0.000169,0.0,0.0,0.0,0.0,0.0,0.0,0.000169,0.0,0.0,0.0,0.0,0.0,0.0,0.0001,0.0,0.0,0.0,0.0,0.0,0.0,0.0,0.0,0.0,0.0,0.0,0.0,0.0,0.0,0.0,0.0,0.0,0.0,0.0,0.0,0.0
1672944648834212158,139465,1672944648856511910,enu,-0.0603,-0.1846,-0.0089,0.0,0.0,0.0,0.000169,0.0,0.0,0.0,0.0,0.0,0.0,0.000169,0.0,0.0,0.0,0.0,0.0,0.0,0.0001,0.0,0.0,0.0,0.0,0.0,0.0,0.0,0.0,0.0,0.0,0.0,0.0,0.0,0.0,0.0,0.0,0.0,0.0,0.0,0.0,0.0
1672944648854246552,139466,1672944648876523970,enu,-0.0557,-0.1732,-0.0084,0.0,0.0,0.0,0.000169,0.0,0.0,0.0,0.0,0.0,0.0,0.000169,0.0,0.0,0.0,0.0,0.0,0.0,0.0001,0.0,0.0,0.0,0.0,0.0,0.0,0.0,0.0,0.0,0.0,0.0,0.0,0.0,0.0,0.0,0.0,0.0,0.0,0.0,0.0,0.0
1672944648874155275,139467,1672944648896560083,enu,-0.0515,-0.1632,-0.0082,0.0,0.0,0.0,0.000169,0.0,0.0,0.0,0.0,0.0,0.0,0.000169,0.0,0.0,0.0,0.0,0.0,0.0,0.0001,0.0,0.0,0.0,0.0,0.0,0.0,0.0,0.0,0.0,0.0,0.0,0.0,0.0,0.0,0.0,0.0,0.0,0.0,0.0,0.0,0.0
1672944648894138441,139468,1672944648916508184,enu,-0.0488,-0.157,-0.0084,0.0,0.0,0.0,0.000169,0.0,0.0,0.0,0.0,0.0,0.0,0.000169,0.0,0.0,0.0,0.0,0.0,0.0,0.0001,0.0,0.0,0.0,0.0,0.0,0.0,0.0,0.0,0.0,0.0,0.0,0.0,0.0,0.0,0.0,0.0,0.0,0.0,0.0,0.0,0.0
1672944648914154410,139469,1672944648936460394,enu,-0.0474,-0.1539,-0.0093,0.0,0.0,0.0,0.000169,0.0,0.0,0.0,0.0,0.0,0.0,0.000169,0.0,0.0,0.0,0.0,0.0,0.0,0.0001,0.0,0.0,0.0,0.0,0.0,0.0,0.0,0.0,0.0,0.0,0.0,0.0,0.0,0.0,0.0,0.0,0.0,0.0,0.0,0.0,0.0
1672944648934177742,139470,1672944648956597679,enu,-0.0472,-0.1525,-0.0103,0.0,0.0,0.0,0.000169,0.0,0.0,0.0,0.0,0.0,0.0,0.000169,0.0,0.0,0.0,0.0,0.0,0.0,0.0001,0.0,0.0,0.0,0.0,0.0,0.0,0.0,0.0,0.0,0.0,0.0,0.0,0.0,0.0,0.0,0.0,0.0,0.0,0.0,0.0,0.0
1672944648954267620,139471,1672944648976546800,enu,-0.0476,-0.1534,-0.0109,0.0,0.0,0.0,0.000169,0.0,0.0,0.0,0.0,0.0,0.0,0.000169,0.0,0.0,0.0,0.0,0.0,0.0,0.0001,0.0,0.0,0.0,0.0,0.0,0.0,0.0,0.0,0.0,0.0,0.0,0.0,0.0,0.0,0.0,0.0,0.0,0.0,0.0,0.0,0.0
1672944648974339157,139472,1672944648996532204,enu,-0.0484,-0.1562,-0.0112,0.0,0.0,0.0,0.000169,0.0,0.0,0.0,0.0,0.0,0.0,0.000169,0.0,0.0,0.0,0.0,0.0,0.0,0.0001,0.0,0.0,0.0,0.0,0.0,0.0,0.0,0.0,0.0,0.0,0.0,0.0,0.0,0.0,0.0,0.0,0.0,0.0,0.0,0.0,0.0
1672944648994510148,139473,1672944649016670441,enu,-0.0504,-0.1613,-0.0113,0.0,0.0,0.0,0.000169,0.0,0.0,0.0,0.0,0.0,0.0,0.000169,0.0,0.0,0.0,0.0,0.0,0.0,0.0001,0.0,0.0,0.0,0.0,0.0,0.0,0.0,0.0,0.0,0.0,0.0,0.0,0.0,0.0,0.0,0.0,0.0,0.0,0.0,0.0,0.0
1672944649014068770,139474,1672944649036554857,enu,-0.0526,-0.1672,-0.0111,0.0,0.0,0.0,0.000169,0.0,0.0,0.0,0.0,0.0,0.0,0.000169,0.0,0.0,0.0,0.0,0.0,0.0,0.0001,0.0,0.0,0.0,0.0,0.0,0.0,0.0,0.0,0.0,0.0,0.0,0.0,0.0,0.0,0.0,0.0,0.0,0.0,0.0,0.0,0.0
1672944649034417418,139475,1672944649056637479,enu,-0.055,-0.1739,-0.0108,0.0,0.0,0.0,0.000169,0.0,0.0,0.0,0.0,0.0,0.0,0.000169,0.0,0.0,0.0,0.0,0.0,0.0,0.0001,0.0,0.0,0.0,0.0,0.0,0.0,0.0,0.0,0.0,0.0,0.0,0.0,0.0,0.0,0.0,0.0,0.0,0.0,0.0,0.0,0.0
1672944649054241732,139476,1672944649076608604,enu,-0.0575,-0.1813,-0.0104,0.0,0.0,0.0,0.000169,0.0,0.0,0.0,0.0,0.0,0.0,0.000169,0.0,0.0,0.0,0.0,0.0,0.0,0.0001,0.0,0.0,0.0,0.0,0.0,0.0,0.0,0.0,0.0,0.0,0.0,0.0,0.0,0.0,0.0,0.0,0.0,0.0,0.0,0.0,0.0
1672944649074304560,139477,1672944649096512938,enu,-0.0597,-0.1889,-0.0098,0.0,0.0,0.0,0.000169,0.0,0.0,0.0,0.0,0.0,0.0,0.000169,0.0,0.0,0.0,0.0,0.0,0.0,0.0001,0.0,0.0,0.0,0.0,0.0,0.0,0.0,0.0,0.0,0.0,0.0,0.0,0.0,0.0,0.0,0.0,0.0,0.0,0.0,0.0,0.0
1672944649094319413,139478,1672944649116587192,enu,-0.0626,-0.1978,-0.0096,0.0,0.0,0.0,0.000169,0.0,0.0,0.0,0.0,0.0,0.0,0.000169,0.0,0.0,0.0,0.0,0.0,0.0,0.0001,0.0,0.0,0.0,0.0,0.0,0.0,0.0,0.0,0.0,0.0,0.0,0.0,0.0,0.0,0.0,0.0,0.0,0.0,0.0,0.0,0.0
1672944649114198072,139479,1672944649136606483,enu,-0.0653,-0.2062,-0.0093,0.0,0.0,0.0,0.000169,0.0,0.0,0.0,0.0,0.0,0.0,0.000169,0.0,0.0,0.0,0.0,0.0,0.0,0.0001,0.0,0.0,0.0,0.0,0.0,0.0,0.0,0.0,0.0,0.0,0.0,0.0,0.0,0.0,0.0,0.0,0.0,0.0,0.0,0.0,0.0
1672944649134287559,139480,1672944649156517794,enu,-0.0682,-0.2154,-0.0092,0.0,0.0,0.0,0.000169,0.0,0.0,0.0,0.0,0.0,0.0,0.000169,0.0,0.0,0.0,0.0,0.0,0.0,0.0001,0.0,0.0,0.0,0.0,0.0,0.0,0.0,0.0,0.0,0.0,0.0,0.0,0.0,0.0,0.0,0.0,0.0,0.0,0.0,0.0,0.0
1672944649154150321,139481,1672944649176553444,enu,-0.0712,-0.2246,-0.0091,0.0,0.0,0.0,0.000169,0.0,0.0,0.0,0.0,0.0,0.0,0.000169,0.0,0.0,0.0,0.0,0.0,0.0,0.0001,0.0,0.0,0.0,0.0,0.0,0.0,0.0,0.0,0.0,0.0,0.0,0.0,0.0,0.0,0.0,0.0,0.0,0.0,0.0,0.0,0.0
1672944649173902487,139482,1672944649196550034,enu,-0.0744,-0.2342,-0.0094,0.0,0.0,0.0,0.000169,0.0,0.0,0.0,0.0,0.0,0.0,0.000169,0.0,0.0,0.0,0.0,0.0,0.0,0.0001,0.0,0.0,0.0,0.0,0.0,0.0,0.0,0.0,0.0,0.0,0.0,0.0,0.0,0.0,0.0,0.0,0.0,0.0,0.0,0.0,0.0
1672944649193832634,139483,1672944649216518603,enu,-0.0779,-0.2443,-0.0098,0.0,0.0,0.0,0.000169,0.0,0.0,0.0,0.0,0.0,0.0,0.000169,0.0,0.0,0.0,0.0,0.0,0.0,0.0001,0.0,0.0,0.0,0.0,0.0,0.0,0.0,0.0,0.0,0.0,0.0,0.0,0.0,0.0,0.0,0.0,0.0,0.0,0.0,0.0,0.0
1672944649213898816,139484,1672944649236497556,enu,-0.0819,-0.2542,-0.0101,0.0,0.0,0.0,0.000169,0.0,0.0,0.0,0.0,0.0,0.0,0.000169,0.0,0.0,0.0,0.0,0.0,0.0,0.0001,0.0,0.0,0.0,0.0,0.0,0.0,0.0,0.0,0.0,0.0,0.0,0.0,0.0,0.0,0.0,0.0,0.0,0.0,0.0,0.0,0.0
1672944649233895642,139485,1672944649256583428,enu,-0.0859,-0.264,-0.0105,0.0,0.0,0.0,0.000169,0.0,0.0,0.0,0.0,0.0,0.0,0.000169,0.0,0.0,0.0,0.0,0.0,0.0,0.0001,0.0,0.0,0.0,0.0,0.0,0.0,0.0,0.0,0.0,0.0,0.0,0.0,0.0,0.0,0.0,0.0,0.0,0.0,0.0,0.0,0.0
1672944649254073863,139486,1672944649276492429,enu,-0.0899,-0.2737,-0.0111,0.0,0.0,0.0,0.000169,0.0,0.0,0.0,0.0,0.0,0.0,0.000169,0.0,0.0,0.0,0.0,0.0,0.0,0.0001,0.0,0.0,0.0,0.0,0.0,0.0,0.0,0.0,0.0,0.0,0.0,0.0,0.0,0.0,0.0,0.0,0.0,0.0,0.0,0.0,0.0
1672944649274515804,139487,1672944649296552696,enu,-0.094,-0.2834,-0.0117,0.0,0.0,0.0,0.000169,0.0,0.0,0.0,0.0,0.0,0.0,0.000169,0.0,0.0,0.0,0.0,0.0,0.0,0.0001,0.0,0.0,0.0,0.0,0.0,0.0,0.0,0.0,0.0,0.0,0.0,0.0,0.0,0.0,0.0,0.0,0.0,0.0,0.0,0.0,0.0
1672944649294145620,139488,1672944649316574514,enu,-0.0981,-0.2934,-0.0123,0.0,0.0,0.0,0.000169,0.0,0.0,0.0,0.0,0.0,0.0,0.000169,0.0,0.0,0.0,0.0,0.0,0.0,0.0001,0.0,0.0,0.0,0.0,0.0,0.0,0.0,0.0,0.0,0.0,0.0,0.0,0.0,0.0,0.0,0.0,0.0,0.0,0.0,0.0,0.0
1672944649314265750,139489,1672944649336580943,enu,-0.1023,-0.3038,-0.013,0.0,0.0,0.0,0.000169,0.0,0.0,0.0,0.0,0.0,0.0,0.000169,0.0,0.0,0.0,0.0,0.0,0.0,0.0001,0.0,0.0,0.0,0.0,0.0,0.0,0.0,0.0,0.0,0.0,0.0,0.0,0.0,0.0,0.0,0.0,0.0,0.0,0.0,0.0,0.0
1672944649334051401,139490,1672944649356478143,enu,-0.1066,-0.3148,-0.0135,0.0,0.0,0.0,0.000169,0.0,0.0,0.0,0.0,0.0,0.0,0.000169,0.0,0.0,0.0,0.0,0.0,0.0,0.0001,0.0,0.0,0.0,0.0,0.0,0.0,0.0,0.0,0.0,0.0,0.0,0.0,0.0,0.0,0.0,0.0,0.0,0.0,0.0,0.0,0.0
1672944649354399924,139491,1672944649376592069,enu,-0.1107,-0.3255,-0.0138,0.0,0.0,0.0,0.000169,0.0,0.0,0.0,0.0,0.0,0.0,0.000169,0.0,0.0,0.0,0.0,0.0,0.0,0.0001,0.0,0.0,0.0,0.0,0.0,0.0,0.0,0.0,0.0,0.0,0.0,0.0,0.0,0.0,0.0,0.0,0.0,0.0,0.0,0.0,0.0
1672944649374065803,139492,1672944649396475624,enu,-0.1148,-0.3362,-0.014,0.0,0.0,0.0,0.000169,0.0,0.0,0.0,0.0,0.0,0.0,0.000169,0.0,0.0,0.0,0.0,0.0,0.0,0.0001,0.0,0.0,0.0,0.0,0.0,0.0,0.0,0.0,0.0,0.0,0.0,0.0,0.0,0.0,0.0,0.0,0.0,0.0,0.0,0.0,0.0
1672944649394011616,139493,1672944649416503755,enu,-0.1189,-0.3472,-0.0143,0.0,0.0,0.0,0.000169,0.0,0.0,0.0,0.0,0.0,0.0,0.000169,0.0,0.0,0.0,0.0,0.0,0.0,0.0001,0.0,0.0,0.0,0.0,0.0,0.0,0.0,0.0,0.0,0.0,0.0,0.0,0.0,0.0,0.0,0.0,0.0,0.0,0.0,0.0,0.0
1672944649414216866,139494,1672944649436623802,enu,-0.1229,-0.3583,-0.0144,0.0,0.0,0.0,0.000169,0.0,0.0,0.0,0.0,0.0,0.0,0.000169,0.0,0.0,0.0,0.0,0.0,0.0,0.0001,0.0,0.0,0.0,0.0,0.0,0.0,0.0,0.0,0.0,0.0,0.0,0.0,0.0,0.0,0.0,0.0,0.0,0.0,0.0,0.0,0.0
1672944649433848473,139495,1672944649456557304,enu,-0.1268,-0.3694,-0.0147,0.0,0.0,0.0,0.000169,0.0,0.0,0.0,0.0,0.0,0.0,0.000169,0.0,0.0,0.0,0.0,0.0,0.0,0.0001,0.0,0.0,0.0,0.0,0.0,0.0,0.0,0.0,0.0,0.0,0.0,0.0,0.0,0.0,0.0,0.0,0.0,0.0,0.0,0.0,0.0
1672944649453988186,139496,1672944649476525049,enu,-0.1307,-0.3809,-0.0152,0.0,0.0,0.0,0.000169,0.0,0.0,0.0,0.0,0.0,0.0,0.000169,0.0,0.0,0.0,0.0,0.0,0.0,0.0001,0.0,0.0,0.0,0.0,0.0,0.0,0.0,0.0,0.0,0.0,0.0,0.0,0.0,0.0,0.0,0.0,0.0,0.0,0.0,0.0,0.0
1672944649474166995,139497,1672944649496686822,enu,-0.1342,-0.3926,-0.0158,0.0,0.0,0.0,0.000169,0.0,0.0,0.0,0.0,0.0,0.0,0.000169,0.0,0.0,0.0,0.0,0.0,0.0,0.0001,0.0,0.0,0.0,0.0,0.0,0.0,0.0,0.0,0.0,0.0,0.0,0.0,0.0,0.0,0.0,0.0,0.0,0.0,0.0,0.0,0.0
1672944649494158702,139498,1672944649516650381,enu,-0.1377,-0.404,-0.0164,0.0,0.0,0.0,0.000169,0.0,0.0,0.0,0.0,0.0,0.0,0.000169,0.0,0.0,0.0,0.0,0.0,0.0,0.0001,0.0,0.0,0.0,0.0,0.0,0.0,0.0,0.0,0.0,0.0,0.0,0.0,0.0,0.0,0.0,0.0,0.0,0.0,0.0,0.0,0.0
1672944649514037622,139499,1672944649536577927,enu,-0.1414,-0.4157,-0.0167,0.0,0.0,0.0,0.000169,0.0,0.0,0.0,0.0,0.0,0.0,0.000169,0.0,0.0,0.0,0.0,0.0,0.0,0.0001,0.0,0.0,0.0,0.0,0.0,0.0,0.0,0.0,0.0,0.0,0.0,0.0,0.0,0.0,0.0,0.0,0.0,0.0,0.0,0.0,0.0
1672944649533992432,139500,1672944649556612676,enu,-0.1453,-0.4274,-0.0175,0.0,0.0,0.0,0.000169,0.0,0.0,0.0,0.0,0.0,0.0,0.000169,0.0,0.0,0.0,0.0,0.0,0.0,0.0001,0.0,0.0,0.0,0.0,0.0,0.0,0.0,0.0,0.0,0.0,0.0,0.0,0.0,0.0,0.0,0.0,0.0,0.0,0.0,0.0,0.0
1672944649553978706,139501,1672944649576579645,enu,-0.1491,-0.4396,-0.0176,0.0,0.0,0.0,0.000169,0.0,0.0,0.0,0.0,0.0,0.0,0.000169,0.0,0.0,0.0,0.0,0.0,0.0,0.0001,0.0,0.0,0.0,0.0,0.0,0.0,0.0,0.0,0.0,0.0,0.0,0.0,0.0,0.0,0.0,0.0,0.0,0.0,0.0,0.0,0.0
1672944649573772859,139502,1672944649596567898,enu,-0.1532,-0.4523,-0.0185,0.0,0.0,0.0,0.000169,0.0,0.0,0.0,0.0,0.0,0.0,0.000169,0.0,0.0,0.0,0.0,0.0,0.0,0.0001,0.0,0.0,0.0,0.0,0.0,0.0,0.0,0.0,0.0,0.0,0.0,0.0,0.0,0.0,0.0,0.0,0.0,0.0,0.0,0.0,0.0
1672944649594002897,139503,1672944649616582159,enu,-0.1578,-0.4658,-0.0191,0.0,0.0,0.0,0.000169,0.0,0.0,0.0,0.0,0.0,0.0,0.000169,0.0,0.0,0.0,0.0,0.0,0.0,0.0001,0.0,0.0,0.0,0.0,0.0,0.0,0.0,0.0,0.0,0.0,0.0,0.0,0.0,0.0,0.0,0.0,0.0,0.0,0.0,0.0,0.0
1672944649614091321,139504,1672944649636579774,enu,-0.1622,-0.4803,-0.0208,0.0,0.0,0.0,0.000169,0.0,0.0,0.0,0.0,0.0,0.0,0.000169,0.0,0.0,0.0,0.0,0.0,0.0,0.0001,0.0,0.0,0.0,0.0,0.0,0.0,0.0,0.0,0.0,0.0,0.0,0.0,0.0,0.0,0.0,0.0,0.0,0.0,0.0,0.0,0.0
1672944649633659282,139505,1672944649656494475,enu,-0.1677,-0.4966,-0.0228,0.0,0.0,0.0,0.000169,0.0,0.0,0.0,0.0,0.0,0.0,0.000169,0.0,0.0,0.0,0.0,0.0,0.0,0.0001,0.0,0.0,0.0,0.0,0.0,0.0,0.0,0.0,0.0,0.0,0.0,0.0,0.0,0.0,0.0,0.0,0.0,0.0,0.0,0.0,0.0
1672944649653954167,139506,1672944649676475337,enu,-0.1722,-0.5122,-0.0242,0.0,0.0,0.0,0.000169,0.0,0.0,0.0,0.0,0.0,0.0,0.000169,0.0,0.0,0.0,0.0,0.0,0.0,0.0001,0.0,0.0,0.0,0.0,0.0,0.0,0.0,0.0,0.0,0.0,0.0,0.0,0.0,0.0,0.0,0.0,0.0,0.0,0.0,0.0,0.0
1672944649673996105,139507,1672944649696561995,enu,-0.1777,-0.5305,-0.0257,0.0,0.0,0.0,0.000169,0.0,0.0,0.0,0.0,0.0,0.0,0.000169,0.0,0.0,0.0,0.0,0.0,0.0,0.0001,0.0,0.0,0.0,0.0,0.0,0.0,0.0,0.0,0.0,0.0,0.0,0.0,0.0,0.0,0.0,0.0,0.0,0.0,0.0,0.0,0.0
1672944649693959002,139508,1672944649716515095,enu,-0.1837,-0.5494,-0.0267,0.0,0.0,0.0,0.000169,0.0,0.0,0.0,0.0,0.0,0.0,0.000169,0.0,0.0,0.0,0.0,0.0,0.0,0.0001,0.0,0.0,0.0,0.0,0.0,0.0,0.0,0.0,0.0,0.0,0.0,0.0,0.0,0.0,0.0,0.0,0.0,0.0,0.0,0.0,0.0
1672944649713916346,139509,1672944649736525612,enu,-0.1897,-0.5687,-0.0281,0.0,0.0,0.0,0.000169,0.0,0.0,0.0,0.0,0.0,0.0,0.000169,0.0,0.0,0.0,0.0,0.0,0.0,0.0001,0.0,0.0,0.0,0.0,0.0,0.0,0.0,0.0,0.0,0.0,0.0,0.0,0.0,0.0,0.0,0.0,0.0,0.0,0.0,0.0,0.0
1672944649734161550,139510,1672944649756589272,enu,-0.1971,-0.5919,-0.03,0.0,0.0,0.0,0.000169,0.0,0.0,0.0,0.0,0.0,0.0,0.000169,0.0,0.0,0.0,0.0,0.0,0.0,0.0001,0.0,0.0,0.0,0.0,0.0,0.0,0.0,0.0,0.0,0.0,0.0,0.0,0.0,0.0,0.0,0.0,0.0,0.0,0.0,0.0,0.0
1672944649754131435,139511,1672944649776513571,enu,-0.2029,-0.613,-0.0307,0.0,0.0,0.0,0.000169,0.0,0.0,0.0,0.0,0.0,0.0,0.000169,0.0,0.0,0.0,0.0,0.0,0.0,0.0001,0.0,0.0,0.0,0.0,0.0,0.0,0.0,0.0,0.0,0.0,0.0,0.0,0.0,0.0,0.0,0.0,0.0,0.0,0.0,0.0,0.0
1672944649773636888,139512,1672944649796550698,enu,-0.2099,-0.6349,-0.0316,0.0,0.0,0.0,0.000169,0.0,0.0,0.0,0.0,0.0,0.0,0.000169,0.0,0.0,0.0,0.0,0.0,0.0,0.0001,0.0,0.0,0.0,0.0,0.0,0.0,0.0,0.0,0.0,0.0,0.0,0.0,0.0,0.0,0.0,0.0,0.0,0.0,0.0,0.0,0.0
1672944649793920572,139513,1672944649816484829,enu,-0.2162,-0.6564,-0.0319,0.0,0.0,0.0,0.000225,0.0,0.0,0.0,0.0,0.0,0.0,0.000225,0.0,0.0,0.0,0.0,0.0,0.0,0.0001,0.0,0.0,0.0,0.0,0.0,0.0,0.0,0.0,0.0,0.0,0.0,0.0,0.0,0.0,0.0,0.0,0.0,0.0,0.0,0.0,0.0
1672944649813993851,139514,1672944649836495226,enu,-0.2234,-0.68,-0.033,0.0,0.0,0.0,0.000225,0.0,0.0,0.0,0.0,0.0,0.0,0.000225,0.0,0.0,0.0,0.0,0.0,0.0,0.0001,0.0,0.0,0.0,0.0,0.0,0.0,0.0,0.0,0.0,0.0,0.0,0.0,0.0,0.0,0.0,0.0,0.0,0.0,0.0,0.0,0.0
1672944649833994909,139515,1672944649856572195,enu,-0.2315,-0.7076,-0.0332,0.0,0.0,0.0,0.000225,0.0,0.0,0.0,0.0,0.0,0.0,0.000225,0.0,0.0,0.0,0.0,0.0,0.0,0.0001,0.0,0.0,0.0,0.0,0.0,0.0,0.0,0.0,0.0,0.0,0.0,0.0,0.0,0.0,0.0,0.0,0.0,0.0,0.0,0.0,0.0
1672944649854005137,139516,1672944649876517695,enu,-0.2381,-0.7308,-0.0342,0.0,0.0,0.0,0.000225,0.0,0.0,0.0,0.0,0.0,0.0,0.000225,0.0,0.0,0.0,0.0,0.0,0.0,0.0001,0.0,0.0,0.0,0.0,0.0,0.0,0.0,0.0,0.0,0.0,0.0,0.0,0.0,0.0,0.0,0.0,0.0,0.0,0.0,0.0,0.0
1672944649874363458,139517,1672944649896501192,enu,-0.2454,-0.7601,-0.035,0.0,0.0,0.0,0.000225,0.0,0.0,0.0,0.0,0.0,0.0,0.000225,0.0,0.0,0.0,0.0,0.0,0.0,0.0001,0.0,0.0,0.0,0.0,0.0,0.0,0.0,0.0,0.0,0.0,0.0,0.0,0.0,0.0,0.0,0.0,0.0,0.0,0.0,0.0,0.0
1672944649894016734,139518,1672944649916521308,enu,-0.2529,-0.7879,-0.0353,0.0,0.0,0.0,0.000225,0.0,0.0,0.0,0.0,0.0,0.0,0.000225,0.0,0.0,0.0,0.0,0.0,0.0,0.0001,0.0,0.0,0.0,0.0,0.0,0.0,0.0,0.0,0.0,0.0,0.0,0.0,0.0,0.0,0.0,0.0,0.0,0.0,0.0,0.0,0.0
1672944649913656708,139519,1672944649936478480,enu,-0.2592,-0.8119,-0.0352,0.0,0.0,0.0,0.000225,0.0,0.0,0.0,0.0,0.0,0.0,0.000225,0.0,0.0,0.0,0.0,0.0,0.0,0.0001,0.0,0.0,0.0,0.0,0.0,0.0,0.0,0.0,0.0,0.0,0.0,0.0,0.0,0.0,0.0,0.0,0.0,0.0,0.0,0.0,0.0
1672944649934118127,139520,1672944649956458409,enu,-0.2651,-0.8368,-0.0337,0.0,0.0,0.0,0.000225,0.0,0.0,0.0,0.0,0.0,0.0,0.000225,0.0,0.0,0.0,0.0,0.0,0.0,0.0001,0.0,0.0,0.0,0.0,0.0,0.0,0.0,0.0,0.0,0.0,0.0,0.0,0.0,0.0,0.0,0.0,0.0,0.0,0.0,0.0,0.0
1672944649953991202,139521,1672944649976511351,enu,-0.2735,-0.8718,-0.0335,0.0,0.0,0.0,0.000225,0.0,0.0,0.0,0.0,0.0,0.0,0.000225,0.0,0.0,0.0,0.0,0.0,0.0,0.0001,0.0,0.0,0.0,0.0,0.0,0.0,0.0,0.0,0.0,0.0,0.0,0.0,0.0,0.0,0.0,0.0,0.0,0.0,0.0,0.0,0.0
1672944649974126364,139522,1672944649996573021,enu,-0.2804,-0.8995,-0.0338,0.0,0.0,0.0,0.000225,0.0,0.0,0.0,0.0,0.0,0.0,0.000225,0.0,0.0,0.0,0.0,0.0,0.0,0.0001,0.0,0.0,0.0,0.0,0.0,0.0,0.0,0.0,0.0,0.0,0.0,0.0,0.0,0.0,0.0,0.0,0.0,0.0,0.0,0.0,0.0
1672944649993992401,139523,1672944650016592292,enu,-0.282,-0.926,-0.0331,0.0,0.0,0.0,0.000225,0.0,0.0,0.0,0.0,0.0,0.0,0.000225,0.0,0.0,0.0,0.0,0.0,0.0,0.0001,0.0,0.0,0.0,0.0,0.0,0.0,0.0,0.0,0.0,0.0,0.0,0.0,0.0,0.0,0.0,0.0,0.0,0.0,0.0,0.0,0.0
1672944650014231928,139524,1672944650036604299,enu,-0.2895,-0.9576,-0.0344,0.0,0.0,0.0,0.000225,0.0,0.0,0.0,0.0,0.0,0.0,0.000225,0.0,0.0,0.0,0.0,0.0,0.0,0.0001,0.0,0.0,0.0,0.0,0.0,0.0,0.0,0.0,0.0,0.0,0.0,0.0,0.0,0.0,0.0,0.0,0.0,0.0,0.0,0.0,0.0
1672944650034111092,139525,1672944650056612249,enu,-0.2925,-0.9852,-0.0321,0.0,0.0,0.0,0.000225,0.0,0.0,0.0,0.0,0.0,0.0,0.000225,0.0,0.0,0.0,0.0,0.0,0.0,0.0001,0.0,0.0,0.0,0.0,0.0,0.0,0.0,0.0,0.0,0.0,0.0,0.0,0.0,0.0,0.0,0.0,0.0,0.0,0.0,0.0,0.0
1672944650054132633,139526,1672944650076623933,enu,-0.3,-1.0229,-0.0357,0.0,0.0,0.0,0.000225,0.0,0.0,0.0,0.0,0.0,0.0,0.000225,0.0,0.0,0.0,0.0,0.0,0.0,0.0001,0.0,0.0,0.0,0.0,0.0,0.0,0.0,0.0,0.0,0.0,0.0,0.0,0.0,0.0,0.0,0.0,0.0,0.0,0.0,0.0,0.0
1672944650074136292,139527,1672944650096593326,enu,-0.3021,-1.053,-0.0335,0.0,0.0,0.0,0.000225,0.0,0.0,0.0,0.0,0.0,0.0,0.000225,0.0,0.0,0.0,0.0,0.0,0.0,0.0001,0.0,0.0,0.0,0.0,0.0,0.0,0.0,0.0,0.0,0.0,0.0,0.0,0.0,0.0,0.0,0.0,0.0,0.0,0.0,0.0,0.0
1672944650094229780,139528,1672944650116618768,enu,-0.3085,-1.0923,-0.0372,0.0,0.0,0.0,0.000225,0.0,0.0,0.0,0.0,0.0,0.0,0.000225,0.0,0.0,0.0,0.0,0.0,0.0,0.0001,0.0,0.0,0.0,0.0,0.0,0.0,0.0,0.0,0.0,0.0,0.0,0.0,0.0,0.0,0.0,0.0,0.0,0.0,0.0,0.0,0.0
1672944650114017737,139529,1672944650136565525,enu,-0.3074,-1.1179,-0.0347,0.0,0.0,0.0,0.000225,0.0,0.0,0.0,0.0,0.0,0.0,0.000225,0.0,0.0,0.0,0.0,0.0,0.0,0.0001,0.0,0.0,0.0,0.0,0.0,0.0,0.0,0.0,0.0,0.0,0.0,0.0,0.0,0.0,0.0,0.0,0.0,0.0,0.0,0.0,0.0
1672944650133934805,139530,1672944650156536010,enu,-0.3116,-1.1504,-0.035,0.0,0.0,0.0,0.000225,0.0,0.0,0.0,0.0,0.0,0.0,0.000225,0.0,0.0,0.0,0.0,0.0,0.0,0.0001,0.0,0.0,0.0,0.0,0.0,0.0,0.0,0.0,0.0,0.0,0.0,0.0,0.0,0.0,0.0,0.0,0.0,0.0,0.0,0.0,0.0
1672944650154128168,139531,1672944650176608527,enu,-0.3139,-1.1868,-0.0377,0.0,0.0,0.0,0.000225,0.0,0.0,0.0,0.0,0.0,0.0,0.000225,0.0,0.0,0.0,0.0,0.0,0.0,0.0001,0.0,0.0,0.0,0.0,0.0,0.0,0.0,0.0,0.0,0.0,0.0,0.0,0.0,0.0,0.0,0.0,0.0,0.0,0.0,0.0,0.0
1672944650173958826,139532,1672944650196497442,enu,-0.3182,-1.222,-0.0363,0.0,0.0,0.0,0.000225,0.0,0.0,0.0,0.0,0.0,0.0,0.000225,0.0,0.0,0.0,0.0,0.0,0.0,0.0001,0.0,0.0,0.0,0.0,0.0,0.0,0.0,0.0,0.0,0.0,0.0,0.0,0.0,0.0,0.0,0.0,0.0,0.0,0.0,0.0,0.0
1672944650194111906,139533,1672944650216567398,enu,-0.3193,-1.2588,-0.0391,0.0,0.0,0.0,0.000225,0.0,0.0,0.0,0.0,0.0,0.0,0.000225,0.0,0.0,0.0,0.0,0.0,0.0,0.0001,0.0,0.0,0.0,0.0,0.0,0.0,0.0,0.0,0.0,0.0,0.0,0.0,0.0,0.0,0.0,0.0,0.0,0.0,0.0,0.0,0.0
1672944650214111781,139534,1672944650236551964,enu,-0.3198,-1.2916,-0.042,0.0,0.0,0.0,0.000225,0.0,0.0,0.0,0.0,0.0,0.0,0.000225,0.0,0.0,0.0,0.0,0.0,0.0,0.0001,0.0,0.0,0.0,0.0,0.0,0.0,0.0,0.0,0.0,0.0,0.0,0.0,0.0,0.0,0.0,0.0,0.0,0.0,0.0,0.0,0.0
1672944650233915938,139535,1672944650256482543,enu,-0.3215,-1.3277,-0.0446,0.0,0.0,0.0,0.000225,0.0,0.0,0.0,0.0,0.0,0.0,0.000225,0.0,0.0,0.0,0.0,0.0,0.0,0.0001,0.0,0.0,0.0,0.0,0.0,0.0,0.0,0.0,0.0,0.0,0.0,0.0,0.0,0.0,0.0,0.0,0.0,0.0,0.0,0.0,0.0
1672944650254018146,139536,1672944650276557135,enu,-0.3243,-1.3619,-0.0459,0.0,0.0,0.0,0.000225,0.0,0.0,0.0,0.0,0.0,0.0,0.000225,0.0,0.0,0.0,0.0,0.0,0.0,0.0001,0.0,0.0,0.0,0.0,0.0,0.0,0.0,0.0,0.0,0.0,0.0,0.0,0.0,0.0,0.0,0.0,0.0,0.0,0.0,0.0,0.0
1672944650274086809,139537,1672944650296510776,enu,-0.3258,-1.4007,-0.0484,0.0,0.0,0.0,0.000225,0.0,0.0,0.0,0.0,0.0,0.0,0.000225,0.0,0.0,0.0,0.0,0.0,0.0,0.0001,0.0,0.0,0.0,0.0,0.0,0.0,0.0,0.0,0.0,0.0,0.0,0.0,0.0,0.0,0.0,0.0,0.0,0.0,0.0,0.0,0.0
1672944650294009664,139538,1672944650316493514,enu,-0.3303,-1.4392,-0.0511,0.0,0.0,0.0,0.000225,0.0,0.0,0.0,0.0,0.0,0.0,0.000225,0.0,0.0,0.0,0.0,0.0,0.0,0.0001,0.0,0.0,0.0,0.0,0.0,0.0,0.0,0.0,0.0,0.0,0.0,0.0,0.0,0.0,0.0,0.0,0.0,0.0,0.0,0.0,0.0
1672944650314086803,139539,1672944650336462093,enu,-0.3315,-1.4741,-0.0522,0.0,0.0,0.0,0.000225,0.0,0.0,0.0,0.0,0.0,0.0,0.000225,0.0,0.0,0.0,0.0,0.0,0.0,0.0001,0.0,0.0,0.0,0.0,0.0,0.0,0.0,0.0,0.0,0.0,0.0,0.0,0.0,0.0,0.0,0.0,0.0,0.0,0.0,0.0,0.0
1672944650333925045,139540,1672944650356536141,enu,-0.3329,-1.5094,-0.0542,0.0,0.0,0.0,0.000225,0.0,0.0,0.0,0.0,0.0,0.0,0.000225,0.0,0.0,0.0,0.0,0.0,0.0,0.0001,0.0,0.0,0.0,0.0,0.0,0.0,0.0,0.0,0.0,0.0,0.0,0.0,0.0,0.0,0.0,0.0,0.0,0.0,0.0,0.0,0.0
1672944650353908774,139541,1672944650376469452,enu,-0.3353,-1.5445,-0.0557,0.0,0.0,0.0,0.000225,0.0,0.0,0.0,0.0,0.0,0.0,0.000225,0.0,0.0,0.0,0.0,0.0,0.0,0.0001,0.0,0.0,0.0,0.0,0.0,0.0,0.0,0.0,0.0,0.0,0.0,0.0,0.0,0.0,0.0,0.0,0.0,0.0,0.0,0.0,0.0
1672944650373896941,139542,1672944650396510303,enu,-0.3392,-1.5838,-0.0576,0.0,0.0,0.0,0.000225,0.0,0.0,0.0,0.0,0.0,0.0,0.000225,0.0,0.0,0.0,0.0,0.0,0.0,0.0001,0.0,0.0,0.0,0.0,0.0,0.0,0.0,0.0,0.0,0.0,0.0,0.0,0.0,0.0,0.0,0.0,0.0,0.0,0.0,0.0,0.0
1672944650393946556,139543,1672944650416545151,enu,-0.3435,-1.6211,-0.059,0.0,0.0,0.0,0.000225,0.0,0.0,0.0,0.0,0.0,0.0,0.000225,0.0,0.0,0.0,0.0,0.0,0.0,0.0001,0.0,0.0,0.0,0.0,0.0,0.0,0.0,0.0,0.0,0.0,0.0,0.0,0.0,0.0,0.0,0.0,0.0,0.0,0.0,0.0,0.0
1672944650413893733,139544,1672944650436479412,enu,-0.3463,-1.6583,-0.0595,0.0,0.0,0.0,0.000225,0.0,0.0,0.0,0.0,0.0,0.0,0.000225,0.0,0.0,0.0,0.0,0.0,0.0,0.0001,0.0,0.0,0.0,0.0,0.0,0.0,0.0,0.0,0.0,0.0,0.0,0.0,0.0,0.0,0.0,0.0,0.0,0.0,0.0,0.0,0.0
1672944650434062793,139545,1672944650456584327,enu,-0.349,-1.6945,-0.0595,0.0,0.0,0.0,0.000225,0.0,0.0,0.0,0.0,0.0,0.0,0.000225,0.0,0.0,0.0,0.0,0.0,0.0,0.0001,0.0,0.0,0.0,0.0,0.0,0.0,0.0,0.0,0.0,0.0,0.0,0.0,0.0,0.0,0.0,0.0,0.0,0.0,0.0,0.0,0.0
1672944650454160490,139546,1672944650476591886,enu,-0.3521,-1.7326,-0.0588,0.0,0.0,0.0,0.000225,0.0,0.0,0.0,0.0,0.0,0.0,0.000225,0.0,0.0,0.0,0.0,0.0,0.0,0.0001,0.0,0.0,0.0,0.0,0.0,0.0,0.0,0.0,0.0,0.0,0.0,0.0,0.0,0.0,0.0,0.0,0.0,0.0,0.0,0.0,0.0
1672944650474146606,139547,1672944650496542481,enu,-0.3548,-1.77,-0.058,0.0,0.0,0.0,0.000225,0.0,0.0,0.0,0.0,0.0,0.0,0.000225,0.0,0.0,0.0,0.0,0.0,0.0,0.0001,0.0,0.0,0.0,0.0,0.0,0.0,0.0,0.0,0.0,0.0,0.0,0.0,0.0,0.0,0.0,0.0,0.0,0.0,0.0,0.0,0.0
1672944650494138888,139548,1672944650516656289,enu,-0.3571,-1.8092,-0.0575,0.0,0.0,0.0,0.000225,0.0,0.0,0.0,0.0,0.0,0.0,0.000225,0.0,0.0,0.0,0.0,0.0,0.0,0.0001,0.0,0.0,0.0,0.0,0.0,0.0,0.0,0.0,0.0,0.0,0.0,0.0,0.0,0.0,0.0,0.0,0.0,0.0,0.0,0.0,0.0
1672944650514242567,139549,1672944650536563958,enu,-0.3581,-1.8475,-0.0565,0.0,0.0,0.0,0.000225,0.0,0.0,0.0,0.0,0.0,0.0,0.000225,0.0,0.0,0.0,0.0,0.0,0.0,0.0001,0.0,0.0,0.0,0.0,0.0,0.0,0.0,0.0,0.0,0.0,0.0,0.0,0.0,0.0,0.0,0.0,0.0,0.0,0.0,0.0,0.0
1672944650534044235,139550,1672944650556607209,enu,-0.3582,-1.8846,-0.056,0.0,0.0,0.0,0.000225,0.0,0.0,0.0,0.0,0.0,0.0,0.000225,0.0,0.0,0.0,0.0,0.0,0.0,0.0001,0.0,0.0,0.0,0.0,0.0,0.0,0.0,0.0,0.0,0.0,0.0,0.0,0.0,0.0,0.0,0.0,0.0,0.0,0.0,0.0,0.0
1672944650553869326,139551,1672944650576645778,enu,-0.3571,-1.9223,-0.0554,0.0,0.0,0.0,0.000225,0.0,0.0,0.0,0.0,0.0,0.0,0.000225,0.0,0.0,0.0,0.0,0.0,0.0,0.0001,0.0,0.0,0.0,0.0,0.0,0.0,0.0,0.0,0.0,0.0,0.0,0.0,0.0,0.0,0.0,0.0,0.0,0.0,0.0,0.0,0.0
1672944650573952202,139552,1672944650596564690,enu,-0.3552,-1.9589,-0.0547,0.0,0.0,0.0,0.000225,0.0,0.0,0.0,0.0,0.0,0.0,0.000225,0.0,0.0,0.0,0.0,0.0,0.0,0.0001,0.0,0.0,0.0,0.0,0.0,0.0,0.0,0.0,0.0,0.0,0.0,0.0,0.0,0.0,0.0,0.0,0.0,0.0,0.0,0.0,0.0
1672944650593737557,139553,1672944650616533866,enu,-0.3537,-1.9976,-0.0544,0.0,0.0,0.0,0.000225,0.0,0.0,0.0,0.0,0.0,0.0,0.000225,0.0,0.0,0.0,0.0,0.0,0.0,0.0001,0.0,0.0,0.0,0.0,0.0,0.0,0.0,0.0,0.0,0.0,0.0,0.0,0.0,0.0,0.0,0.0,0.0,0.0,0.0,0.0,0.0
1672944650614062175,139554,1672944650636533949,enu,-0.35,-2.034,-0.0542,0.0,0.0,0.0,0.000225,0.0,0.0,0.0,0.0,0.0,0.0,0.000225,0.0,0.0,0.0,0.0,0.0,0.0,0.0001,0.0,0.0,0.0,0.0,0.0,0.0,0.0,0.0,0.0,0.0,0.0,0.0,0.0,0.0,0.0,0.0,0.0,0.0,0.0,0.0,0.0
1672944650634079758,139555,1672944650656579146,enu,-0.3454,-2.07,-0.0552,0.0,0.0,0.0,0.000225,0.0,0.0,0.0,0.0,0.0,0.0,0.000225,0.0,0.0,0.0,0.0,0.0,0.0,0.0001,0.0,0.0,0.0,0.0,0.0,0.0,0.0,0.0,0.0,0.0,0.0,0.0,0.0,0.0,0.0,0.0,0.0,0.0,0.0,0.0,0.0
1672944650653955002,139556,1672944650676512686,enu,-0.3388,-2.1071,-0.0558,0.0,0.0,0.0,0.000225,0.0,0.0,0.0,0.0,0.0,0.0,0.000225,0.0,0.0,0.0,0.0,0.0,0.0,0.0001,0.0,0.0,0.0,0.0,0.0,0.0,0.0,0.0,0.0,0.0,0.0,0.0,0.0,0.0,0.0,0.0,0.0,0.0,0.0,0.0,0.0
1672944650673758345,139557,1672944650696601182,enu,-0.3335,-2.1437,-0.0571,0.0,0.0,0.0,0.000225,0.0,0.0,0.0,0.0,0.0,0.0,0.000225,0.0,0.0,0.0,0.0,0.0,0.0,0.0001,0.0,0.0,0.0,0.0,0.0,0.0,0.0,0.0,0.0,0.0,0.0,0.0,0.0,0.0,0.0,0.0,0.0,0.0,0.0,0.0,0.0
1672944650693998966,139558,1672944650716635790,enu,-0.3257,-2.1794,-0.0584,0.0,0.0,0.0,0.000225,0.0,0.0,0.0,0.0,0.0,0.0,0.000225,0.0,0.0,0.0,0.0,0.0,0.0,0.0001,0.0,0.0,0.0,0.0,0.0,0.0,0.0,0.0,0.0,0.0,0.0,0.0,0.0,0.0,0.0,0.0,0.0,0.0,0.0,0.0,0.0
1672944650714162843,139559,1672944650736550245,enu,-0.3177,-2.2135,-0.0591,0.0,0.0,0.0,0.000225,0.0,0.0,0.0,0.0,0.0,0.0,0.000225,0.0,0.0,0.0,0.0,0.0,0.0,0.0001,0.0,0.0,0.0,0.0,0.0,0.0,0.0,0.0,0.0,0.0,0.0,0.0,0.0,0.0,0.0,0.0,0.0,0.0,0.0,0.0,0.0
1672944650734094576,139560,1672944650756595323,enu,-0.3088,-2.2484,-0.0594,0.0,0.0,0.0,0.000225,0.0,0.0,0.0,0.0,0.0,0.0,0.000225,0.0,0.0,0.0,0.0,0.0,0.0,0.0001,0.0,0.0,0.0,0.0,0.0,0.0,0.0,0.0,0.0,0.0,0.0,0.0,0.0,0.0,0.0,0.0,0.0,0.0,0.0,0.0,0.0
1672944650754013710,139561,1672944650776599340,enu,-0.2997,-2.2815,-0.0585,0.0,0.0,0.0,0.000225,0.0,0.0,0.0,0.0,0.0,0.0,0.000225,0.0,0.0,0.0,0.0,0.0,0.0,0.0001,0.0,0.0,0.0,0.0,0.0,0.0,0.0,0.0,0.0,0.0,0.0,0.0,0.0,0.0,0.0,0.0,0.0,0.0,0.0,0.0,0.0
1672944650774042031,139562,1672944650796556315,enu,-0.2904,-2.3157,-0.0571,0.0,0.0,0.0,0.000225,0.0,0.0,0.0,0.0,0.0,0.0,0.000225,0.0,0.0,0.0,0.0,0.0,0.0,0.0001,0.0,0.0,0.0,0.0,0.0,0.0,0.0,0.0,0.0,0.0,0.0,0.0,0.0,0.0,0.0,0.0,0.0,0.0,0.0,0.0,0.0
1672944650794098808,139563,1672944650816583233,enu,-0.2806,-2.3488,-0.0553,0.0,0.0,0.0,0.000225,0.0,0.0,0.0,0.0,0.0,0.0,0.000225,0.0,0.0,0.0,0.0,0.0,0.0,0.0001,0.0,0.0,0.0,0.0,0.0,0.0,0.0,0.0,0.0,0.0,0.0,0.0,0.0,0.0,0.0,0.0,0.0,0.0,0.0,0.0,0.0
1672944650814086225,139564,1672944650836711519,enu,-0.2708,-2.382,-0.0535,0.0,0.0,0.0,0.000225,0.0,0.0,0.0,0.0,0.0,0.0,0.000225,0.0,0.0,0.0,0.0,0.0,0.0,0.0001,0.0,0.0,0.0,0.0,0.0,0.0,0.0,0.0,0.0,0.0,0.0,0.0,0.0,0.0,0.0,0.0,0.0,0.0,0.0,0.0,0.0
1672944650834039434,139565,1672944650856505754,enu,-0.2604,-2.4168,-0.0528,0.0,0.0,0.0,0.000225,0.0,0.0,0.0,0.0,0.0,0.0,0.000225,0.0,0.0,0.0,0.0,0.0,0.0,0.0001,0.0,0.0,0.0,0.0,0.0,0.0,0.0,0.0,0.0,0.0,0.0,0.0,0.0,0.0,0.0,0.0,0.0,0.0,0.0,0.0,0.0
1672944650853857683,139566,1672944650876579042,enu,-0.2497,-2.4488,-0.0514,0.0,0.0,0.0,0.000225,0.0,0.0,0.0,0.0,0.0,0.0,0.000225,0.0,0.0,0.0,0.0,0.0,0.0,0.0001,0.0,0.0,0.0,0.0,0.0,0.0,0.0,0.0,0.0,0.0,0.0,0.0,0.0,0.0,0.0,0.0,0.0,0.0,0.0,0.0,0.0
1672944650874122149,139567,1672944650896518570,enu,-0.2392,-2.4821,-0.0513,0.0,0.0,0.0,0.000225,0.0,0.0,0.0,0.0,0.0,0.0,0.000225,0.0,0.0,0.0,0.0,0.0,0.0,0.0001,0.0,0.0,0.0,0.0,0.0,0.0,0.0,0.0,0.0,0.0,0.0,0.0,0.0,0.0,0.0,0.0,0.0,0.0,0.0,0.0,0.0
1672944650893967812,139568,1672944650916560124,enu,-0.229,-2.5156,-0.052,0.0,0.0,0.0,0.000225,0.0,0.0,0.0,0.0,0.0,0.0,0.000225,0.0,0.0,0.0,0.0,0.0,0.0,0.0001,0.0,0.0,0.0,0.0,0.0,0.0,0.0,0.0,0.0,0.0,0.0,0.0,0.0,0.0,0.0,0.0,0.0,0.0,0.0,0.0,0.0
1672944650913935893,139569,1672944650936572907,enu,-0.2159,-2.5481,-0.0516,0.0,0.0,0.0,0.000225,0.0,0.0,0.0,0.0,0.0,0.0,0.000225,0.0,0.0,0.0,0.0,0.0,0.0,0.0001,0.0,0.0,0.0,0.0,0.0,0.0,0.0,0.0,0.0,0.0,0.0,0.0,0.0,0.0,0.0,0.0,0.0,0.0,0.0,0.0,0.0
1672944650934082524,139570,1672944650956575456,enu,-0.2035,-2.5816,-0.0515,0.0,0.0,0.0,0.000225,0.0,0.0,0.0,0.0,0.0,0.0,0.000225,0.0,0.0,0.0,0.0,0.0,0.0,0.0001,0.0,0.0,0.0,0.0,0.0,0.0,0.0,0.0,0.0,0.0,0.0,0.0,0.0,0.0,0.0,0.0,0.0,0.0,0.0,0.0,0.0
1672944650953988602,139571,1672944650976478859,enu,-0.1889,-2.6142,-0.0533,0.0,0.0,0.0,0.000225,0.0,0.0,0.0,0.0,0.0,0.0,0.000225,0.0,0.0,0.0,0.0,0.0,0.0,0.0001,0.0,0.0,0.0,0.0,0.0,0.0,0.0,0.0,0.0,0.0,0.0,0.0,0.0,0.0,0.0,0.0,0.0,0.0,0.0,0.0,0.0
1672944650974042066,139572,1672944650996591774,enu,-0.1722,-2.6482,-0.0541,0.0,0.0,0.0,0.000225,0.0,0.0,0.0,0.0,0.0,0.0,0.000225,0.0,0.0,0.0,0.0,0.0,0.0,0.0001,0.0,0.0,0.0,0.0,0.0,0.0,0.0,0.0,0.0,0.0,0.0,0.0,0.0,0.0,0.0,0.0,0.0,0.0,0.0,0.0,0.0
1672944650993846051,139573,1672944651016666304,enu,-0.1564,-2.6783,-0.0549,0.0,0.0,0.0,0.000225,0.0,0.0,0.0,0.0,0.0,0.0,0.000225,0.0,0.0,0.0,0.0,0.0,0.0,0.0001,0.0,0.0,0.0,0.0,0.0,0.0,0.0,0.0,0.0,0.0,0.0,0.0,0.0,0.0,0.0,0.0,0.0,0.0,0.0,0.0,0.0
1672944651014035146,139574,1672944651036589967,enu,-0.1382,-2.7089,-0.0581,0.0,0.0,0.0,0.000225,0.0,0.0,0.0,0.0,0.0,0.0,0.000225,0.0,0.0,0.0,0.0,0.0,0.0,0.0001,0.0,0.0,0.0,0.0,0.0,0.0,0.0,0.0,0.0,0.0,0.0,0.0,0.0,0.0,0.0,0.0,0.0,0.0,0.0,0.0,0.0
1672944651033685217,139575,1672944651056586638,enu,-0.12,-2.7393,-0.0603,0.0,0.0,0.0,0.000225,0.0,0.0,0.0,0.0,0.0,0.0,0.000225,0.0,0.0,0.0,0.0,0.0,0.0,0.0001,0.0,0.0,0.0,0.0,0.0,0.0,0.0,0.0,0.0,0.0,0.0,0.0,0.0,0.0,0.0,0.0,0.0,0.0,0.0,0.0,0.0
1672944651054248701,139576,1672944651076574333,enu,-0.1021,-2.7675,-0.0633,0.0,0.0,0.0,0.000225,0.0,0.0,0.0,0.0,0.0,0.0,0.000225,0.0,0.0,0.0,0.0,0.0,0.0,0.0001,0.0,0.0,0.0,0.0,0.0,0.0,0.0,0.0,0.0,0.0,0.0,0.0,0.0,0.0,0.0,0.0,0.0,0.0,0.0,0.0,0.0
1672944651074014829,139577,1672944651096656888,enu,-0.0848,-2.797,-0.0666,0.0,0.0,0.0,0.000225,0.0,0.0,0.0,0.0,0.0,0.0,0.000225,0.0,0.0,0.0,0.0,0.0,0.0,0.0001,0.0,0.0,0.0,0.0,0.0,0.0,0.0,0.0,0.0,0.0,0.0,0.0,0.0,0.0,0.0,0.0,0.0,0.0,0.0,0.0,0.0
1672944651093991069,139578,1672944651116538254,enu,-0.0669,-2.8258,-0.0697,0.0,0.0,0.0,0.000225,0.0,0.0,0.0,0.0,0.0,0.0,0.000225,0.0,0.0,0.0,0.0,0.0,0.0,0.0001,0.0,0.0,0.0,0.0,0.0,0.0,0.0,0.0,0.0,0.0,0.0,0.0,0.0,0.0,0.0,0.0,0.0,0.0,0.0,0.0,0.0
1672944651114209552,139579,1672944651136503421,enu,-0.0504,-2.8548,-0.071,0.0,0.0,0.0,0.000225,0.0,0.0,0.0,0.0,0.0,0.0,0.000225,0.0,0.0,0.0,0.0,0.0,0.0,0.0001,0.0,0.0,0.0,0.0,0.0,0.0,0.0,0.0,0.0,0.0,0.0,0.0,0.0,0.0,0.0,0.0,0.0,0.0,0.0,0.0,0.0
1672944651133840273,139580,1672944651156554092,enu,-0.0331,-2.8835,-0.0737,0.0,0.0,0.0,0.000225,0.0,0.0,0.0,0.0,0.0,0.0,0.000225,0.0,0.0,0.0,0.0,0.0,0.0,0.0001,0.0,0.0,0.0,0.0,0.0,0.0,0.0,0.0,0.0,0.0,0.0,0.0,0.0,0.0,0.0,0.0,0.0,0.0,0.0,0.0,0.0
1672944651153944649,139581,1672944651176517764,enu,-0.0157,-2.9127,-0.0739,0.0,0.0,0.0,0.000225,0.0,0.0,0.0,0.0,0.0,0.0,0.000225,0.0,0.0,0.0,0.0,0.0,0.0,0.0001,0.0,0.0,0.0,0.0,0.0,0.0,0.0,0.0,0.0,0.0,0.0,0.0,0.0,0.0,0.0,0.0,0.0,0.0,0.0,0.0,0.0
1672944651174031934,139582,1672944651196493322,enu,0.0025,-2.9415,-0.0738,0.0,0.0,0.0,0.000225,0.0,0.0,0.0,0.0,0.0,0.0,0.000225,0.0,0.0,0.0,0.0,0.0,0.0,0.0001,0.0,0.0,0.0,0.0,0.0,0.0,0.0,0.0,0.0,0.0,0.0,0.0,0.0,0.0,0.0,0.0,0.0,0.0,0.0,0.0,0.0
1672944651194114727,139583,1672944651216525555,enu,0.0229,-2.9687,-0.0736,0.0,0.0,0.0,0.000225,0.0,0.0,0.0,0.0,0.0,0.0,0.000225,0.0,0.0,0.0,0.0,0.0,0.0,0.0001,0.0,0.0,0.0,0.0,0.0,0.0,0.0,0.0,0.0,0.0,0.0,0.0,0.0,0.0,0.0,0.0,0.0,0.0,0.0,0.0,0.0
1672944651213975122,139584,1672944651236536200,enu,0.042,-2.9968,-0.0728,0.0,0.0,0.0,0.000225,0.0,0.0,0.0,0.0,0.0,0.0,0.000225,0.0,0.0,0.0,0.0,0.0,0.0,0.0001,0.0,0.0,0.0,0.0,0.0,0.0,0.0,0.0,0.0,0.0,0.0,0.0,0.0,0.0,0.0,0.0,0.0,0.0,0.0,0.0,0.0
1672944651233967419,139585,1672944651256463248,enu,0.0664,-3.0204,-0.0708,0.0,0.0,0.0,0.000225,0.0,0.0,0.0,0.0,0.0,0.0,0.000225,0.0,0.0,0.0,0.0,0.0,0.0,0.0001,0.0,0.0,0.0,0.0,0.0,0.0,0.0,0.0,0.0,0.0,0.0,0.0,0.0,0.0,0.0,0.0,0.0,0.0,0.0,0.0,0.0
1672944651253843441,139586,1672944651276411187,enu,0.0875,-3.0489,-0.0686,0.0,0.0,0.0,0.000225,0.0,0.0,0.0,0.0,0.0,0.0,0.000225,0.0,0.0,0.0,0.0,0.0,0.0,0.0001,0.0,0.0,0.0,0.0,0.0,0.0,0.0,0.0,0.0,0.0,0.0,0.0,0.0,0.0,0.0,0.0,0.0,0.0,0.0,0.0,0.0
1672944651273954758,139587,1672944651296513590,enu,0.1108,-3.0715,-0.0673,0.0,0.0,0.0,0.000225,0.0,0.0,0.0,0.0,0.0,0.0,0.000225,0.0,0.0,0.0,0.0,0.0,0.0,0.0001,0.0,0.0,0.0,0.0,0.0,0.0,0.0,0.0,0.0,0.0,0.0,0.0,0.0,0.0,0.0,0.0,0.0,0.0,0.0,0.0,0.0
1672944651294116132,139588,1672944651316521260,enu,0.1324,-3.0962,-0.0664,0.0,0.0,0.0,0.000225,0.0,0.0,0.0,0.0,0.0,0.0,0.000225,0.0,0.0,0.0,0.0,0.0,0.0,0.0001,0.0,0.0,0.0,0.0,0.0,0.0,0.0,0.0,0.0,0.0,0.0,0.0,0.0,0.0,0.0,0.0,0.0,0.0,0.0,0.0,0.0
1672944651313962336,139589,1672944651336519843,enu,0.1542,-3.1186,-0.0644,0.0,0.0,0.0,0.000225,0.0,0.0,0.0,0.0,0.0,0.0,0.000225,0.0,0.0,0.0,0.0,0.0,0.0,0.0001,0.0,0.0,0.0,0.0,0.0,0.0,0.0,0.0,0.0,0.0,0.0,0.0,0.0,0.0,0.0,0.0,0.0,0.0,0.0,0.0,0.0
1672944651334131902,139590,1672944651356538605,enu,0.1749,-3.14,-0.0633,0.0,0.0,0.0,0.000225,0.0,0.0,0.0,0.0,0.0,0.0,0.000225,0.0,0.0,0.0,0.0,0.0,0.0,0.0001,0.0,0.0,0.0,0.0,0.0,0.0,0.0,0.0,0.0,0.0,0.0,0.0,0.0,0.0,0.0,0.0,0.0,0.0,0.0,0.0,0.0
1672944651354048143,139591,1672944651376499547,enu,0.1947,-3.1627,-0.0629,0.0,0.0,0.0,0.000225,0.0,0.0,0.0,0.0,0.0,0.0,0.000225,0.0,0.0,0.0,0.0,0.0,0.0,0.0001,0.0,0.0,0.0,0.0,0.0,0.0,0.0,0.0,0.0,0.0,0.0,0.0,0.0,0.0,0.0,0.0,0.0,0.0,0.0,0.0,0.0
1672944651374049595,139592,1672944651396546710,enu,0.2141,-3.1855,-0.0626,0.0,0.0,0.0,0.000225,0.0,0.0,0.0,0.0,0.0,0.0,0.000225,0.0,0.0,0.0,0.0,0.0,0.0,0.0001,0.0,0.0,0.0,0.0,0.0,0.0,0.0,0.0,0.0,0.0,0.0,0.0,0.0,0.0,0.0,0.0,0.0,0.0,0.0,0.0,0.0
1672944651393975878,139593,1672944651416581119,enu,0.2357,-3.2064,-0.0623,0.0,0.0,0.0,0.000225,0.0,0.0,0.0,0.0,0.0,0.0,0.000225,0.0,0.0,0.0,0.0,0.0,0.0,0.0001,0.0,0.0,0.0,0.0,0.0,0.0,0.0,0.0,0.0,0.0,0.0,0.0,0.0,0.0,0.0,0.0,0.0,0.0,0.0,0.0,0.0
1672944651414074796,139594,1672944651436520040,enu,0.2582,-3.2241,-0.0606,0.0,0.0,0.0,0.000225,0.0,0.0,0.0,0.0,0.0,0.0,0.000225,0.0,0.0,0.0,0.0,0.0,0.0,0.0001,0.0,0.0,0.0,0.0,0.0,0.0,0.0,0.0,0.0,0.0,0.0,0.0,0.0,0.0,0.0,0.0,0.0,0.0,0.0,0.0,0.0
1672944651433848998,139595,1672944651456506074,enu,0.2813,-3.243,-0.0608,0.0,0.0,0.0,0.000225,0.0,0.0,0.0,0.0,0.0,0.0,0.000225,0.0,0.0,0.0,0.0,0.0,0.0,0.0001,0.0,0.0,0.0,0.0,0.0,0.0,0.0,0.0,0.0,0.0,0.0,0.0,0.0,0.0,0.0,0.0,0.0,0.0,0.0,0.0,0.0
1672944651454103641,139596,1672944651476572193,enu,0.3026,-3.2671,-0.0653,0.0,0.0,0.0,0.000225,0.0,0.0,0.0,0.0,0.0,0.0,0.000225,0.0,0.0,0.0,0.0,0.0,0.0,0.0001,0.0,0.0,0.0,0.0,0.0,0.0,0.0,0.0,0.0,0.0,0.0,0.0,0.0,0.0,0.0,0.0,0.0,0.0,0.0,0.0,0.0
1672944651474074418,139597,1672944651496502502,enu,0.3248,-3.2863,-0.0694,0.0,0.0,0.0,0.000225,0.0,0.0,0.0,0.0,0.0,0.0,0.000225,0.0,0.0,0.0,0.0,0.0,0.0,0.0001,0.0,0.0,0.0,0.0,0.0,0.0,0.0,0.0,0.0,0.0,0.0,0.0,0.0,0.0,0.0,0.0,0.0,0.0,0.0,0.0,0.0
1672944651494166774,139598,1672944651516624823,enu,0.3468,-3.3062,-0.0735,0.0,0.0,0.0,0.000225,0.0,0.0,0.0,0.0,0.0,0.0,0.000225,0.0,0.0,0.0,0.0,0.0,0.0,0.0001,0.0,0.0,0.0,0.0,0.0,0.0,0.0,0.0,0.0,0.0,0.0,0.0,0.0,0.0,0.0,0.0,0.0,0.0,0.0,0.0,0.0
1672944651514113637,139599,1672944651536643816,enu,0.3693,-3.3232,-0.0764,0.0,0.0,0.0,0.000225,0.0,0.0,0.0,0.0,0.0,0.0,0.000225,0.0,0.0,0.0,0.0,0.0,0.0,0.0001,0.0,0.0,0.0,0.0,0.0,0.0,0.0,0.0,0.0,0.0,0.0,0.0,0.0,0.0,0.0,0.0,0.0,0.0,0.0,0.0,0.0
1672944651534000051,139600,1672944651556615785,enu,0.395,-3.3394,-0.0774,0.0,0.0,0.0,0.000225,0.0,0.0,0.0,0.0,0.0,0.0,0.000225,0.0,0.0,0.0,0.0,0.0,0.0,0.0001,0.0,0.0,0.0,0.0,0.0,0.0,0.0,0.0,0.0,0.0,0.0,0.0,0.0,0.0,0.0,0.0,0.0,0.0,0.0,0.0,0.0
1672944651553880939,139601,1672944651576539873,enu,0.4181,-3.355,-0.0768,0.0,0.0,0.0,0.000225,0.0,0.0,0.0,0.0,0.0,0.0,0.000225,0.0,0.0,0.0,0.0,0.0,0.0,0.0001,0.0,0.0,0.0,0.0,0.0,0.0,0.0,0.0,0.0,0.0,0.0,0.0,0.0,0.0,0.0,0.0,0.0,0.0,0.0,0.0,0.0
1672944651574041998,139602,1672944651596633325,enu,0.4419,-3.3683,-0.0744,0.0,0.0,0.0,0.000225,0.0,0.0,0.0,0.0,0.0,0.0,0.000225,0.0,0.0,0.0,0.0,0.0,0.0,0.0001,0.0,0.0,0.0,0.0,0.0,0.0,0.0,0.0,0.0,0.0,0.0,0.0,0.0,0.0,0.0,0.0,0.0,0.0,0.0,0.0,0.0
1672944651593982373,139603,1672944651616518656,enu,0.4702,-3.383,-0.07,0.0,0.0,0.0,0.000225,0.0,0.0,0.0,0.0,0.0,0.0,0.000225,0.0,0.0,0.0,0.0,0.0,0.0,0.0001,0.0,0.0,0.0,0.0,0.0,0.0,0.0,0.0,0.0,0.0,0.0,0.0,0.0,0.0,0.0,0.0,0.0,0.0,0.0,0.0,0.0
1672944651614098053,139604,1672944651636552959,enu,0.4991,-3.3934,-0.0632,0.0,0.0,0.0,0.000225,0.0,0.0,0.0,0.0,0.0,0.0,0.000225,0.0,0.0,0.0,0.0,0.0,0.0,0.0001,0.0,0.0,0.0,0.0,0.0,0.0,0.0,0.0,0.0,0.0,0.0,0.0,0.0,0.0,0.0,0.0,0.0,0.0,0.0,0.0,0.0
1672944651634218477,139605,1672944651656610743,enu,0.5293,-3.4017,-0.0565,0.0,0.0,0.0,0.000225,0.0,0.0,0.0,0.0,0.0,0.0,0.000225,0.0,0.0,0.0,0.0,0.0,0.0,0.0001,0.0,0.0,0.0,0.0,0.0,0.0,0.0,0.0,0.0,0.0,0.0,0.0,0.0,0.0,0.0,0.0,0.0,0.0,0.0,0.0,0.0
1672944651654065622,139606,1672944651676602599,enu,0.5597,-3.4098,-0.0513,0.0,0.0,0.0,0.000225,0.0,0.0,0.0,0.0,0.0,0.0,0.000225,0.0,0.0,0.0,0.0,0.0,0.0,0.0001,0.0,0.0,0.0,0.0,0.0,0.0,0.0,0.0,0.0,0.0,0.0,0.0,0.0,0.0,0.0,0.0,0.0,0.0,0.0,0.0,0.0
1672944651673972033,139607,1672944651696533031,enu,0.5913,-3.42,-0.047,0.0,0.0,0.0,0.000225,0.0,0.0,0.0,0.0,0.0,0.0,0.000225,0.0,0.0,0.0,0.0,0.0,0.0,0.0001,0.0,0.0,0.0,0.0,0.0,0.0,0.0,0.0,0.0,0.0,0.0,0.0,0.0,0.0,0.0,0.0,0.0,0.0,0.0,0.0,0.0
1672944651693889689,139608,1672944651716582627,enu,0.624,-3.4313,-0.0425,0.0,0.0,0.0,0.000225,0.0,0.0,0.0,0.0,0.0,0.0,0.000225,0.0,0.0,0.0,0.0,0.0,0.0,0.0001,0.0,0.0,0.0,0.0,0.0,0.0,0.0,0.0,0.0,0.0,0.0,0.0,0.0,0.0,0.0,0.0,0.0,0.0,0.0,0.0,0.0
1672944651713997910,139609,1672944651736525776,enu,0.653,-3.4398,-0.039,0.0,0.0,0.0,0.000225,0.0,0.0,0.0,0.0,0.0,0.0,0.000225,0.0,0.0,0.0,0.0,0.0,0.0,0.0001,0.0,0.0,0.0,0.0,0.0,0.0,0.0,0.0,0.0,0.0,0.0,0.0,0.0,0.0,0.0,0.0,0.0,0.0,0.0,0.0,0.0
1672944651733980911,139610,1672944651756542102,enu,0.6804,-3.4451,-0.0353,0.0,0.0,0.0,0.000225,0.0,0.0,0.0,0.0,0.0,0.0,0.000225,0.0,0.0,0.0,0.0,0.0,0.0,0.0001,0.0,0.0,0.0,0.0,0.0,0.0,0.0,0.0,0.0,0.0,0.0,0.0,0.0,0.0,0.0,0.0,0.0,0.0,0.0,0.0,0.0
1672944651754031489,139611,1672944651776557381,enu,0.7103,-3.4518,-0.0305,0.0,0.0,0.0,0.000225,0.0,0.0,0.0,0.0,0.0,0.0,0.000225,0.0,0.0,0.0,0.0,0.0,0.0,0.0001,0.0,0.0,0.0,0.0,0.0,0.0,0.0,0.0,0.0,0.0,0.0,0.0,0.0,0.0,0.0,0.0,0.0,0.0,0.0,0.0,0.0
1672944651774120002,139612,1672944651796520067,enu,0.7394,-3.4565,-0.0263,0.0,0.0,0.0,0.000225,0.0,0.0,0.0,0.0,0.0,0.0,0.000225,0.0,0.0,0.0,0.0,0.0,0.0,0.0001,0.0,0.0,0.0,0.0,0.0,0.0,0.0,0.0,0.0,0.0,0.0,0.0,0.0,0.0,0.0,0.0,0.0,0.0,0.0,0.0,0.0
1672944651793967477,139613,1672944651816498340,enu,0.7707,-3.4625,-0.0248,0.0,0.0,0.0,0.000225,0.0,0.0,0.0,0.0,0.0,0.0,0.000225,0.0,0.0,0.0,0.0,0.0,0.0,0.0001,0.0,0.0,0.0,0.0,0.0,0.0,0.0,0.0,0.0,0.0,0.0,0.0,0.0,0.0,0.0,0.0,0.0,0.0,0.0,0.0,0.0
1672944651814181443,139614,1672944651836549255,enu,0.8004,-3.4698,-0.0259,0.0,0.0,0.0,0.000225,0.0,0.0,0.0,0.0,0.0,0.0,0.000225,0.0,0.0,0.0,0.0,0.0,0.0,0.0001,0.0,0.0,0.0,0.0,0.0,0.0,0.0,0.0,0.0,0.0,0.0,0.0,0.0,0.0,0.0,0.0,0.0,0.0,0.0,0.0,0.0
1672944651833982061,139615,1672944651856477025,enu,0.8304,-3.4767,-0.0333,0.0,0.0,0.0,0.000225,0.0,0.0,0.0,0.0,0.0,0.0,0.000225,0.0,0.0,0.0,0.0,0.0,0.0,0.0001,0.0,0.0,0.0,0.0,0.0,0.0,0.0,0.0,0.0,0.0,0.0,0.0,0.0,0.0,0.0,0.0,0.0,0.0,0.0,0.0,0.0
1672944651853791506,139616,1672944651876527553,enu,0.8584,-3.4816,-0.0383,0.0,0.0,0.0,0.000225,0.0,0.0,0.0,0.0,0.0,0.0,0.000225,0.0,0.0,0.0,0.0,0.0,0.0,0.0001,0.0,0.0,0.0,0.0,0.0,0.0,0.0,0.0,0.0,0.0,0.0,0.0,0.0,0.0,0.0,0.0,0.0,0.0,0.0,0.0,0.0
1672944651874100280,139617,1672944651896559925,enu,0.8796,-3.4837,-0.041,0.0,0.0,0.0,0.000225,0.0,0.0,0.0,0.0,0.0,0.0,0.000225,0.0,0.0,0.0,0.0,0.0,0.0,0.0001,0.0,0.0,0.0,0.0,0.0,0.0,0.0,0.0,0.0,0.0,0.0,0.0,0.0,0.0,0.0,0.0,0.0,0.0,0.0,0.0,0.0
1672944651894124879,139618,1672944651916513186,enu,0.898,-3.4858,-0.0432,0.0,0.0,0.0,0.000225,0.0,0.0,0.0,0.0,0.0,0.0,0.000225,0.0,0.0,0.0,0.0,0.0,0.0,0.0001,0.0,0.0,0.0,0.0,0.0,0.0,0.0,0.0,0.0,0.0,0.0,0.0,0.0,0.0,0.0,0.0,0.0,0.0,0.0,0.0,0.0
1672944651913659937,139619,1672944651936497614,enu,0.916,-3.4937,-0.0444,0.0,0.0,0.0,0.000225,0.0,0.0,0.0,0.0,0.0,0.0,0.000225,0.0,0.0,0.0,0.0,0.0,0.0,0.0001,0.0,0.0,0.0,0.0,0.0,0.0,0.0,0.0,0.0,0.0,0.0,0.0,0.0,0.0,0.0,0.0,0.0,0.0,0.0,0.0,0.0
1672944651934022398,139620,1672944651956579236,enu,0.9334,-3.5032,-0.0477,0.0,0.0,0.0,0.000225,0.0,0.0,0.0,0.0,0.0,0.0,0.000225,0.0,0.0,0.0,0.0,0.0,0.0,0.0001,0.0,0.0,0.0,0.0,0.0,0.0,0.0,0.0,0.0,0.0,0.0,0.0,0.0,0.0,0.0,0.0,0.0,0.0,0.0,0.0,0.0
1672944651953938931,139621,1672944651976518648,enu,0.9453,-3.5069,-0.0524,0.0,0.0,0.0,0.000225,0.0,0.0,0.0,0.0,0.0,0.0,0.000225,0.0,0.0,0.0,0.0,0.0,0.0,0.0001,0.0,0.0,0.0,0.0,0.0,0.0,0.0,0.0,0.0,0.0,0.0,0.0,0.0,0.0,0.0,0.0,0.0,0.0,0.0,0.0,0.0
1672944651973925409,139622,1672944651996537582,enu,0.9565,-3.5118,-0.0552,0.0,0.0,0.0,0.000225,0.0,0.0,0.0,0.0,0.0,0.0,0.000225,0.0,0.0,0.0,0.0,0.0,0.0,0.0001,0.0,0.0,0.0,0.0,0.0,0.0,0.0,0.0,0.0,0.0,0.0,0.0,0.0,0.0,0.0,0.0,0.0,0.0,0.0,0.0,0.0
1672944651994129570,139623,1672944652016675791,enu,0.9674,-3.5183,-0.0562,0.0,0.0,0.0,0.000225,0.0,0.0,0.0,0.0,0.0,0.0,0.000225,0.0,0.0,0.0,0.0,0.0,0.0,0.0001,0.0,0.0,0.0,0.0,0.0,0.0,0.0,0.0,0.0,0.0,0.0,0.0,0.0,0.0,0.0,0.0,0.0,0.0,0.0,0.0,0.0
1672944652014091008,139624,1672944652036598394,enu,0.9779,-3.5272,-0.0583,0.0,0.0,0.0,0.000225,0.0,0.0,0.0,0.0,0.0,0.0,0.000225,0.0,0.0,0.0,0.0,0.0,0.0,0.0001,0.0,0.0,0.0,0.0,0.0,0.0,0.0,0.0,0.0,0.0,0.0,0.0,0.0,0.0,0.0,0.0,0.0,0.0,0.0,0.0,0.0
1672944652033674543,139625,1672944652056575286,enu,0.9897,-3.5352,-0.0609,0.0,0.0,0.0,0.000225,0.0,0.0,0.0,0.0,0.0,0.0,0.000225,0.0,0.0,0.0,0.0,0.0,0.0,0.0001,0.0,0.0,0.0,0.0,0.0,0.0,0.0,0.0,0.0,0.0,0.0,0.0,0.0,0.0,0.0,0.0,0.0,0.0,0.0,0.0,0.0
1672944652054181269,139626,1672944652076628945,enu,1.0037,-3.5417,-0.0654,0.0,0.0,0.0,0.000225,0.0,0.0,0.0,0.0,0.0,0.0,0.000225,0.0,0.0,0.0,0.0,0.0,0.0,0.0001,0.0,0.0,0.0,0.0,0.0,0.0,0.0,0.0,0.0,0.0,0.0,0.0,0.0,0.0,0.0,0.0,0.0,0.0,0.0,0.0,0.0
1672944652074088085,139627,1672944652096521208,enu,1.0169,-3.5471,-0.0704,0.0,0.0,0.0,0.000225,0.0,0.0,0.0,0.0,0.0,0.0,0.000225,0.0,0.0,0.0,0.0,0.0,0.0,0.0001,0.0,0.0,0.0,0.0,0.0,0.0,0.0,0.0,0.0,0.0,0.0,0.0,0.0,0.0,0.0,0.0,0.0,0.0,0.0,0.0,0.0
1672944652093977031,139628,1672944652116533830,enu,1.0328,-3.5519,-0.0759,0.0,0.0,0.0,0.000225,0.0,0.0,0.0,0.0,0.0,0.0,0.000225,0.0,0.0,0.0,0.0,0.0,0.0,0.0001,0.0,0.0,0.0,0.0,0.0,0.0,0.0,0.0,0.0,0.0,0.0,0.0,0.0,0.0,0.0,0.0,0.0,0.0,0.0,0.0,0.0
1672944652113892670,139629,1672944652136645502,enu,1.0497,-3.558,-0.076,0.0,0.0,0.0,0.000225,0.0,0.0,0.0,0.0,0.0,0.0,0.000225,0.0,0.0,0.0,0.0,0.0,0.0,0.0001,0.0,0.0,0.0,0.0,0.0,0.0,0.0,0.0,0.0,0.0,0.0,0.0,0.0,0.0,0.0,0.0,0.0,0.0,0.0,0.0,0.0
1672944652133828316,139630,1672944652156557339,enu,1.0673,-3.5616,-0.0768,0.0,0.0,0.0,0.000225,0.0,0.0,0.0,0.0,0.0,0.0,0.000225,0.0,0.0,0.0,0.0,0.0,0.0,0.0001,0.0,0.0,0.0,0.0,0.0,0.0,0.0,0.0,0.0,0.0,0.0,0.0,0.0,0.0,0.0,0.0,0.0,0.0,0.0,0.0,0.0
1672944652153973145,139631,1672944652176525578,enu,1.0846,-3.5678,-0.0775,0.0,0.0,0.0,0.000225,0.0,0.0,0.0,0.0,0.0,0.0,0.000225,0.0,0.0,0.0,0.0,0.0,0.0,0.0001,0.0,0.0,0.0,0.0,0.0,0.0,0.0,0.0,0.0,0.0,0.0,0.0,0.0,0.0,0.0,0.0,0.0,0.0,0.0,0.0,0.0
1672944652174070964,139632,1672944652196609276,enu,1.0992,-3.5683,-0.0714,0.0,0.0,0.0,0.000225,0.0,0.0,0.0,0.0,0.0,0.0,0.000225,0.0,0.0,0.0,0.0,0.0,0.0,0.0001,0.0,0.0,0.0,0.0,0.0,0.0,0.0,0.0,0.0,0.0,0.0,0.0,0.0,0.0,0.0,0.0,0.0,0.0,0.0,0.0,0.0
1672944652194143218,139633,1672944652216584241,enu,1.1148,-3.5699,-0.0623,0.0,0.0,0.0,0.000225,0.0,0.0,0.0,0.0,0.0,0.0,0.000225,0.0,0.0,0.0,0.0,0.0,0.0,0.0001,0.0,0.0,0.0,0.0,0.0,0.0,0.0,0.0,0.0,0.0,0.0,0.0,0.0,0.0,0.0,0.0,0.0,0.0,0.0,0.0,0.0
1672944652213923751,139634,1672944652236482937,enu,1.1303,-3.5713,-0.0504,0.0,0.0,0.0,0.000225,0.0,0.0,0.0,0.0,0.0,0.0,0.000225,0.0,0.0,0.0,0.0,0.0,0.0,0.0001,0.0,0.0,0.0,0.0,0.0,0.0,0.0,0.0,0.0,0.0,0.0,0.0,0.0,0.0,0.0,0.0,0.0,0.0,0.0,0.0,0.0
1672944652233999706,139635,1672944652256507058,enu,1.1479,-3.5759,-0.0393,0.0,0.0,0.0,0.000225,0.0,0.0,0.0,0.0,0.0,0.0,0.000225,0.0,0.0,0.0,0.0,0.0,0.0,0.0001,0.0,0.0,0.0,0.0,0.0,0.0,0.0,0.0,0.0,0.0,0.0,0.0,0.0,0.0,0.0,0.0,0.0,0.0,0.0,0.0,0.0
1672944652253981932,139636,1672944652276552099,enu,1.1648,-3.5785,-0.03,0.0,0.0,0.0,0.000225,0.0,0.0,0.0,0.0,0.0,0.0,0.000225,0.0,0.0,0.0,0.0,0.0,0.0,0.0001,0.0,0.0,0.0,0.0,0.0,0.0,0.0,0.0,0.0,0.0,0.0,0.0,0.0,0.0,0.0,0.0,0.0,0.0,0.0,0.0,0.0
1672944652273807528,139637,1672944652296492141,enu,1.1801,-3.5785,-0.0222,0.0,0.0,0.0,0.000225,0.0,0.0,0.0,0.0,0.0,0.0,0.000225,0.0,0.0,0.0,0.0,0.0,0.0,0.0001,0.0,0.0,0.0,0.0,0.0,0.0,0.0,0.0,0.0,0.0,0.0,0.0,0.0,0.0,0.0,0.0,0.0,0.0,0.0,0.0,0.0
1672944652293942714,139638,1672944652316544758,enu,1.1961,-3.581,-0.0169,0.0,0.0,0.0,0.000225,0.0,0.0,0.0,0.0,0.0,0.0,0.000225,0.0,0.0,0.0,0.0,0.0,0.0,0.0001,0.0,0.0,0.0,0.0,0.0,0.0,0.0,0.0,0.0,0.0,0.0,0.0,0.0,0.0,0.0,0.0,0.0,0.0,0.0,0.0,0.0
1672944652314185142,139639,1672944652336494937,enu,1.2126,-3.5832,-0.0117,0.0,0.0,0.0,0.000225,0.0,0.0,0.0,0.0,0.0,0.0,0.000225,0.0,0.0,0.0,0.0,0.0,0.0,0.0001,0.0,0.0,0.0,0.0,0.0,0.0,0.0,0.0,0.0,0.0,0.0,0.0,0.0,0.0,0.0,0.0,0.0,0.0,0.0,0.0,0.0
1672944652333963992,139640,1672944652356524650,enu,1.2281,-3.5848,-0.0096,0.0,0.0,0.0,0.000225,0.0,0.0,0.0,0.0,0.0,0.0,0.000225,0.0,0.0,0.0,0.0,0.0,0.0,0.0001,0.0,0.0,0.0,0.0,0.0,0.0,0.0,0.0,0.0,0.0,0.0,0.0,0.0,0.0,0.0,0.0,0.0,0.0,0.0,0.0,0.0
1672944652354182996,139641,1672944652376589176,enu,1.2438,-3.5858,-0.009,0.0,0.0,0.0,0.000225,0.0,0.0,0.0,0.0,0.0,0.0,0.000225,0.0,0.0,0.0,0.0,0.0,0.0,0.0001,0.0,0.0,0.0,0.0,0.0,0.0,0.0,0.0,0.0,0.0,0.0,0.0,0.0,0.0,0.0,0.0,0.0,0.0,0.0,0.0,0.0
1672944652374050388,139642,1672944652396491851,enu,1.2593,-3.5873,-0.0104,0.0,0.0,0.0,0.000225,0.0,0.0,0.0,0.0,0.0,0.0,0.000225,0.0,0.0,0.0,0.0,0.0,0.0,0.0001,0.0,0.0,0.0,0.0,0.0,0.0,0.0,0.0,0.0,0.0,0.0,0.0,0.0,0.0,0.0,0.0,0.0,0.0,0.0,0.0,0.0
1672944652394050206,139643,1672944652416557906,enu,1.2742,-3.5884,-0.0131,0.0,0.0,0.0,0.000225,0.0,0.0,0.0,0.0,0.0,0.0,0.000225,0.0,0.0,0.0,0.0,0.0,0.0,0.0001,0.0,0.0,0.0,0.0,0.0,0.0,0.0,0.0,0.0,0.0,0.0,0.0,0.0,0.0,0.0,0.0,0.0,0.0,0.0,0.0,0.0
1672944652413963067,139644,1672944652436583828,enu,1.2892,-3.5905,-0.0163,0.0,0.0,0.0,0.000225,0.0,0.0,0.0,0.0,0.0,0.0,0.000225,0.0,0.0,0.0,0.0,0.0,0.0,0.0001,0.0,0.0,0.0,0.0,0.0,0.0,0.0,0.0,0.0,0.0,0.0,0.0,0.0,0.0,0.0,0.0,0.0,0.0,0.0,0.0,0.0
1672944652433803931,139645,1672944652456531443,enu,1.3029,-3.5902,-0.0183,0.0,0.0,0.0,0.000225,0.0,0.0,0.0,0.0,0.0,0.0,0.000225,0.0,0.0,0.0,0.0,0.0,0.0,0.0001,0.0,0.0,0.0,0.0,0.0,0.0,0.0,0.0,0.0,0.0,0.0,0.0,0.0,0.0,0.0,0.0,0.0,0.0,0.0,0.0,0.0
1672944652454125013,139646,1672944652476533167,enu,1.317,-3.5916,-0.018,0.0,0.0,0.0,0.000225,0.0,0.0,0.0,0.0,0.0,0.0,0.000225,0.0,0.0,0.0,0.0,0.0,0.0,0.0001,0.0,0.0,0.0,0.0,0.0,0.0,0.0,0.0,0.0,0.0,0.0,0.0,0.0,0.0,0.0,0.0,0.0,0.0,0.0,0.0,0.0
1672944652474052184,139647,1672944652496584867,enu,1.3325,-3.5929,-0.019,0.0,0.0,0.0,0.000225,0.0,0.0,0.0,0.0,0.0,0.0,0.000225,0.0,0.0,0.0,0.0,0.0,0.0,0.0001,0.0,0.0,0.0,0.0,0.0,0.0,0.0,0.0,0.0,0.0,0.0,0.0,0.0,0.0,0.0,0.0,0.0,0.0,0.0,0.0,0.0
1672944652493958122,139648,1672944652516598259,enu,1.3466,-3.5927,-0.0213,0.0,0.0,0.0,0.000225,0.0,0.0,0.0,0.0,0.0,0.0,0.000225,0.0,0.0,0.0,0.0,0.0,0.0,0.0001,0.0,0.0,0.0,0.0,0.0,0.0,0.0,0.0,0.0,0.0,0.0,0.0,0.0,0.0,0.0,0.0,0.0,0.0,0.0,0.0,0.0
1672944652513550029,139649,1672944652536460290,enu,1.36,-3.5929,-0.0243,0.0,0.0,0.0,0.000225,0.0,0.0,0.0,0.0,0.0,0.0,0.000225,0.0,0.0,0.0,0.0,0.0,0.0,0.0001,0.0,0.0,0.0,0.0,0.0,0.0,0.0,0.0,0.0,0.0,0.0,0.0,0.0,0.0,0.0,0.0,0.0,0.0,0.0,0.0,0.0
1672944652533977101,139650,1672944652556678621,enu,1.3741,-3.5934,-0.0256,0.0,0.0,0.0,0.000225,0.0,0.0,0.0,0.0,0.0,0.0,0.000225,0.0,0.0,0.0,0.0,0.0,0.0,0.0001,0.0,0.0,0.0,0.0,0.0,0.0,0.0,0.0,0.0,0.0,0.0,0.0,0.0,0.0,0.0,0.0,0.0,0.0,0.0,0.0,0.0
1672944652554093011,139651,1672944652576596338,enu,1.3878,-3.5934,-0.0253,0.0,0.0,0.0,0.000225,0.0,0.0,0.0,0.0,0.0,0.0,0.000225,0.0,0.0,0.0,0.0,0.0,0.0,0.0001,0.0,0.0,0.0,0.0,0.0,0.0,0.0,0.0,0.0,0.0,0.0,0.0,0.0,0.0,0.0,0.0,0.0,0.0,0.0,0.0,0.0
1672944652574147742,139652,1672944652596581826,enu,1.4007,-3.5941,-0.0244,0.0,0.0,0.0,0.000225,0.0,0.0,0.0,0.0,0.0,0.0,0.000225,0.0,0.0,0.0,0.0,0.0,0.0,0.0001,0.0,0.0,0.0,0.0,0.0,0.0,0.0,0.0,0.0,0.0,0.0,0.0,0.0,0.0,0.0,0.0,0.0,0.0,0.0,0.0,0.0
1672944652594024812,139653,1672944652616629605,enu,1.4132,-3.5955,-0.0233,0.0,0.0,0.0,0.000225,0.0,0.0,0.0,0.0,0.0,0.0,0.000225,0.0,0.0,0.0,0.0,0.0,0.0,0.0001,0.0,0.0,0.0,0.0,0.0,0.0,0.0,0.0,0.0,0.0,0.0,0.0,0.0,0.0,0.0,0.0,0.0,0.0,0.0,0.0,0.0
1672944652614005380,139654,1672944652636527204,enu,1.4241,-3.596,-0.022,0.0,0.0,0.0,0.000225,0.0,0.0,0.0,0.0,0.0,0.0,0.000225,0.0,0.0,0.0,0.0,0.0,0.0,0.0001,0.0,0.0,0.0,0.0,0.0,0.0,0.0,0.0,0.0,0.0,0.0,0.0,0.0,0.0,0.0,0.0,0.0,0.0,0.0,0.0,0.0
1672944652634240128,139655,1672944652656562413,enu,1.434,-3.5962,-0.0179,0.0,0.0,0.0,0.000225,0.0,0.0,0.0,0.0,0.0,0.0,0.000225,0.0,0.0,0.0,0.0,0.0,0.0,0.0001,0.0,0.0,0.0,0.0,0.0,0.0,0.0,0.0,0.0,0.0,0.0,0.0,0.0,0.0,0.0,0.0,0.0,0.0,0.0,0.0,0.0
1672944652653956537,139656,1672944652676582322,enu,1.4453,-3.5987,-0.015,0.0,0.0,0.0,0.000225,0.0,0.0,0.0,0.0,0.0,0.0,0.000225,0.0,0.0,0.0,0.0,0.0,0.0,0.0001,0.0,0.0,0.0,0.0,0.0,0.0,0.0,0.0,0.0,0.0,0.0,0.0,0.0,0.0,0.0,0.0,0.0,0.0,0.0,0.0,0.0
1672944652674095213,139657,1672944652696512041,enu,1.4542,-3.6022,-0.0125,0.0,0.0,0.0,0.000225,0.0,0.0,0.0,0.0,0.0,0.0,0.000225,0.0,0.0,0.0,0.0,0.0,0.0,0.0001,0.0,0.0,0.0,0.0,0.0,0.0,0.0,0.0,0.0,0.0,0.0,0.0,0.0,0.0,0.0,0.0,0.0,0.0,0.0,0.0,0.0
1672944652693896429,139658,1672944652716542730,enu,1.4639,-3.604,-0.0128,0.0,0.0,0.0,0.000225,0.0,0.0,0.0,0.0,0.0,0.0,0.000225,0.0,0.0,0.0,0.0,0.0,0.0,0.0001,0.0,0.0,0.0,0.0,0.0,0.0,0.0,0.0,0.0,0.0,0.0,0.0,0.0,0.0,0.0,0.0,0.0,0.0,0.0,0.0,0.0
1672944652713986708,139659,1672944652736582455,enu,1.4745,-3.6063,-0.0143,0.0,0.0,0.0,0.000225,0.0,0.0,0.0,0.0,0.0,0.0,0.000225,0.0,0.0,0.0,0.0,0.0,0.0,0.0001,0.0,0.0,0.0,0.0,0.0,0.0,0.0,0.0,0.0,0.0,0.0,0.0,0.0,0.0,0.0,0.0,0.0,0.0,0.0,0.0,0.0
1672944652733703959,139660,1672944652756496431,enu,1.4831,-3.6087,-0.017,0.0,0.0,0.0,0.000225,0.0,0.0,0.0,0.0,0.0,0.0,0.000225,0.0,0.0,0.0,0.0,0.0,0.0,0.0001,0.0,0.0,0.0,0.0,0.0,0.0,0.0,0.0,0.0,0.0,0.0,0.0,0.0,0.0,0.0,0.0,0.0,0.0,0.0,0.0,0.0
1672944652754086560,139661,1672944652776516476,enu,1.4921,-3.6119,-0.0209,0.0,0.0,0.0,0.000225,0.0,0.0,0.0,0.0,0.0,0.0,0.000225,0.0,0.0,0.0,0.0,0.0,0.0,0.0001,0.0,0.0,0.0,0.0,0.0,0.0,0.0,0.0,0.0,0.0,0.0,0.0,0.0,0.0,0.0,0.0,0.0,0.0,0.0,0.0,0.0
1672944652774003875,139662,1672944652796599743,enu,1.5014,-3.6159,-0.0256,0.0,0.0,0.0,0.000225,0.0,0.0,0.0,0.0,0.0,0.0,0.000225,0.0,0.0,0.0,0.0,0.0,0.0,0.0001,0.0,0.0,0.0,0.0,0.0,0.0,0.0,0.0,0.0,0.0,0.0,0.0,0.0,0.0,0.0,0.0,0.0,0.0,0.0,0.0,0.0
1672944652793883645,139663,1672944652816522964,enu,1.5085,-3.6203,-0.0306,0.0,0.0,0.0,0.000225,0.0,0.0,0.0,0.0,0.0,0.0,0.000225,0.0,0.0,0.0,0.0,0.0,0.0,0.0001,0.0,0.0,0.0,0.0,0.0,0.0,0.0,0.0,0.0,0.0,0.0,0.0,0.0,0.0,0.0,0.0,0.0,0.0,0.0,0.0,0.0
1672944652813950474,139664,1672944652836503367,enu,1.5145,-3.6232,-0.0353,0.0,0.0,0.0,0.000225,0.0,0.0,0.0,0.0,0.0,0.0,0.000225,0.0,0.0,0.0,0.0,0.0,0.0,0.0001,0.0,0.0,0.0,0.0,0.0,0.0,0.0,0.0,0.0,0.0,0.0,0.0,0.0,0.0,0.0,0.0,0.0,0.0,0.0,0.0,0.0
1672944652833877488,139665,1672944652856589080,enu,1.5216,-3.6273,-0.0388,0.0,0.0,0.0,0.000225,0.0,0.0,0.0,0.0,0.0,0.0,0.000225,0.0,0.0,0.0,0.0,0.0,0.0,0.0001,0.0,0.0,0.0,0.0,0.0,0.0,0.0,0.0,0.0,0.0,0.0,0.0,0.0,0.0,0.0,0.0,0.0,0.0,0.0,0.0,0.0
1672944652853868119,139666,1672944652876517519,enu,1.5291,-3.6316,-0.0436,0.0,0.0,0.0,0.000225,0.0,0.0,0.0,0.0,0.0,0.0,0.000225,0.0,0.0,0.0,0.0,0.0,0.0,0.0001,0.0,0.0,0.0,0.0,0.0,0.0,0.0,0.0,0.0,0.0,0.0,0.0,0.0,0.0,0.0,0.0,0.0,0.0,0.0,0.0,0.0
1672944652874004767,139667,1672944652896548411,enu,1.5371,-3.6341,-0.0483,0.0,0.0,0.0,0.000225,0.0,0.0,0.0,0.0,0.0,0.0,0.000225,0.0,0.0,0.0,0.0,0.0,0.0,0.0001,0.0,0.0,0.0,0.0,0.0,0.0,0.0,0.0,0.0,0.0,0.0,0.0,0.0,0.0,0.0,0.0,0.0,0.0,0.0,0.0,0.0
1672944652894000816,139668,1672944652916533098,enu,1.546,-3.6354,-0.0513,0.0,0.0,0.0,0.000225,0.0,0.0,0.0,0.0,0.0,0.0,0.000225,0.0,0.0,0.0,0.0,0.0,0.0,0.0001,0.0,0.0,0.0,0.0,0.0,0.0,0.0,0.0,0.0,0.0,0.0,0.0,0.0,0.0,0.0,0.0,0.0,0.0,0.0,0.0,0.0
1672944652914166722,139669,1672944652936568002,enu,1.5579,-3.6381,-0.0528,0.0,0.0,0.0,0.000225,0.0,0.0,0.0,0.0,0.0,0.0,0.000225,0.0,0.0,0.0,0.0,0.0,0.0,0.0001,0.0,0.0,0.0,0.0,0.0,0.0,0.0,0.0,0.0,0.0,0.0,0.0,0.0,0.0,0.0,0.0,0.0,0.0,0.0,0.0,0.0
1672944652934036540,139670,1672944652956535092,enu,1.5686,-3.6388,-0.0554,0.0,0.0,0.0,0.000225,0.0,0.0,0.0,0.0,0.0,0.0,0.000225,0.0,0.0,0.0,0.0,0.0,0.0,0.0001,0.0,0.0,0.0,0.0,0.0,0.0,0.0,0.0,0.0,0.0,0.0,0.0,0.0,0.0,0.0,0.0,0.0,0.0,0.0,0.0,0.0
1672944652953949801,139671,1672944652976586415,enu,1.5792,-3.6404,-0.0579,0.0,0.0,0.0,0.000225,0.0,0.0,0.0,0.0,0.0,0.0,0.000225,0.0,0.0,0.0,0.0,0.0,0.0,0.0001,0.0,0.0,0.0,0.0,0.0,0.0,0.0,0.0,0.0,0.0,0.0,0.0,0.0,0.0,0.0,0.0,0.0,0.0,0.0,0.0,0.0
1672944652974001750,139672,1672944652996537594,enu,1.5871,-3.642,-0.0604,0.0,0.0,0.0,0.000225,0.0,0.0,0.0,0.0,0.0,0.0,0.000225,0.0,0.0,0.0,0.0,0.0,0.0,0.0001,0.0,0.0,0.0,0.0,0.0,0.0,0.0,0.0,0.0,0.0,0.0,0.0,0.0,0.0,0.0,0.0,0.0,0.0,0.0,0.0,0.0
1672944652994130687,139673,1672944653016638248,enu,1.5931,-3.645,-0.0556,0.0,0.0,0.0,0.000225,0.0,0.0,0.0,0.0,0.0,0.0,0.000225,0.0,0.0,0.0,0.0,0.0,0.0,0.0001,0.0,0.0,0.0,0.0,0.0,0.0,0.0,0.0,0.0,0.0,0.0,0.0,0.0,0.0,0.0,0.0,0.0,0.0,0.0,0.0,0.0
1672944653014290834,139674,1672944653036593639,enu,1.5976,-3.6511,-0.0509,0.0,0.0,0.0,0.000225,0.0,0.0,0.0,0.0,0.0,0.0,0.000225,0.0,0.0,0.0,0.0,0.0,0.0,0.0001,0.0,0.0,0.0,0.0,0.0,0.0,0.0,0.0,0.0,0.0,0.0,0.0,0.0,0.0,0.0,0.0,0.0,0.0,0.0,0.0,0.0
1672944653034273786,139675,1672944653056588919,enu,1.597,-3.6587,-0.0455,0.0,0.0,0.0,0.000225,0.0,0.0,0.0,0.0,0.0,0.0,0.000225,0.0,0.0,0.0,0.0,0.0,0.0,0.0001,0.0,0.0,0.0,0.0,0.0,0.0,0.0,0.0,0.0,0.0,0.0,0.0,0.0,0.0,0.0,0.0,0.0,0.0,0.0,0.0,0.0
