%time,field.header.seq,field.header.stamp,field.header.frame_id,field.status.status,field.status.service,field.latitude,field.longitude,field.altitude,field.position_covariance0,field.position_covariance1,field.position_covariance2,field.position_covariance3,field.position_covariance4,field.position_covariance5,field.position_covariance6,field.position_covariance7,field.position_covariance8,field.position_covariance_type
1671464762723387837,621171,1671464762752367291,gps,2,1,42.3002660396,-83.6986037544,270.969848633,4.9e-05,0.0,0.0,0.0,6.4e-05,0.0,0.0,0.0,0.001024,2
1671464762733455645,621172,1671464762762390756,gps,2,1,42.3002660396,-83.6986037543,270.969909668,4.9e-05,0.0,0.0,0.0,6.4e-05,0.0,0.0,0.0,0.001024,2
1671464762743294654,621173,1671464762772391164,gps,2,1,42.3002660395,-83.6986037545,270.96987915,4.9e-05,0.0,0.0,0.0,6.4e-05,0.0,0.0,0.0,0.001024,2
1671464762753241828,621174,1671464762782443449,gps,2,1,42.3002660395,-83.6986037538,270.969848633,4.9e-05,0.0,0.0,0.0,6.4e-05,0.0,0.0,0.0,0.001024,2
1671464762763327378,621175,1671464762792405627,gps,2,1,42.3002660396,-83.6986037538,270.969909668,4.9e-05,0.0,0.0,0.0,6.4e-05,0.0,0.0,0.0,0.001024,2
1671464762773211069,621176,1671464762802460983,gps,2,1,42.3002660396,-83.6986037534,270.969848633,4.9e-05,0.0,0.0,0.0,6.4e-05,0.0,0.0,0.0,0.001024,2
1671464762783094813,621177,1671464762812394222,gps,2,1,42.3002660396,-83.6986037532,270.969848633,4.9e-05,0.0,0.0,0.0,6.4e-05,0.0,0.0,0.0,0.001024,2
1671464762793149685,621178,1671464762822378968,gps,2,1,42.3002660398,-83.6986037532,270.96987915,4.9e-05,0.0,0.0,0.0,6.4e-05,0.0,0.0,0.0,0.001024,2
1671464762803575260,621179,1671464762832440988,gps,2,1,42.3002660401,-83.6986037527,270.969848633,4.9e-05,0.0,0.0,0.0,6.4e-05,0.0,0.0,0.0,0.001024,2
1671464762813716380,621180,1671464762842393547,gps,2,1,42.3002660403,-83.6986037533,270.969848633,4.9e-05,0.0,0.0,0.0,6.4e-05,0.0,0.0,0.0,0.001024,2
1671464762823524724,621181,1671464762852370175,gps,2,1,42.3002660407,-83.6986037531,270.96987915,4.9e-05,0.0,0.0,0.0,6.4e-05,0.0,0.0,0.0,0.001024,2
1671464762833526940,621182,1671464762862429387,gps,2,1,42.3002660413,-83.698603753,270.96987915,4.9e-05,0.0,0.0,0.0,6.4e-05,0.0,0.0,0.0,0.001024,2
1671464762843480134,621183,1671464762872375325,gps,2,1,42.3002660416,-83.6986037539,270.96987915,4.9e-05,0.0,0.0,0.0,6.4e-05,0.0,0.0,0.0,0.001024,2
1671464762853449512,621184,1671464762882359726,gps,2,1,42.3002660422,-83.6986037537,270.969909668,4.9e-05,0.0,0.0,0.0,6.4e-05,0.0,0.0,0.0,0.001024,2
1671464762863472970,621185,1671464762892360656,gps,2,1,42.300266043,-83.6986037541,270.969909668,4.9e-05,0.0,0.0,0.0,6.4e-05,0.0,0.0,0.0,0.001024,2
1671464762873680322,621186,1671464762902543120,gps,2,1,42.3002660436,-83.6986037545,270.96987915,4.9e-05,0.0,0.0,0.0,6.4e-05,0.0,0.0,0.0,0.001024,2
1671464762883092511,621187,1671464762912368081,gps,2,1,42.3002660443,-83.6986037542,270.969909668,4.9e-05,0.0,0.0,0.0,6.4e-05,0.0,0.0,0.0,0.001024,2
1671464762893251254,621188,1671464762922359615,gps,2,1,42.3002660455,-83.6986037549,270.969909668,4.9e-05,0.0,0.0,0.0,6.4e-05,0.0,0.0,0.0,0.001024,2
1671464762903202896,621189,1671464762932436119,gps,2,1,42.3002660462,-83.6986037547,270.96987915,4.9e-05,0.0,0.0,0.0,6.4e-05,0.0,0.0,0.0,0.001024,2
1671464762913093850,621190,1671464762942376743,gps,2,1,42.3002660473,-83.6986037546,270.969909668,4.9e-05,0.0,0.0,0.0,6.4e-05,0.0,0.0,0.0,0.001024,2
1671464762923158465,621191,1671464762952386508,gps,2,1,42.3002660488,-83.698603755,270.969909668,4.9e-05,0.0,0.0,0.0,6.4e-05,0.0,0.0,0.0,0.001024,2
1671464762933257387,621192,1671464762962444850,gps,2,1,42.3002660499,-83.6986037544,270.969848633,4.9e-05,0.0,0.0,0.0,6.4e-05,0.0,0.0,0.0,0.001024,2
1671464762943572498,621193,1671464762972392252,gps,2,1,42.3002660514,-83.6986037545,270.969909668,4.9e-05,0.0,0.0,0.0,6.4e-05,0.0,0.0,0.0,0.001024,2
1671464762953556743,621194,1671464762982425183,gps,2,1,42.3002660534,-83.6986037544,270.96987915,4.9e-05,0.0,0.0,0.0,6.4e-05,0.0,0.0,0.0,0.001024,2
1671464762963571063,621195,1671464762992373061,gps,2,1,42.300266055,-83.6986037539,270.969848633,4.9e-05,0.0,0.0,0.0,6.4e-05,0.0,0.0,0.0,0.001024,2
1671464762973466485,621196,1671464763002380169,gps,2,1,42.300266057,-83.6986037541,270.96987915,4.9e-05,0.0,0.0,0.0,6.4e-05,0.0,0.0,0.0,0.001024,2
1671464762983475103,621197,1671464763012378604,gps,2,1,42.3002660595,-83.6986037536,270.969848633,4.9e-05,0.0,0.0,0.0,6.4e-05,0.0,0.0,0.0,0.001024,2
1671464762993397809,621198,1671464763022443700,gps,2,1,42.3002660616,-83.698603754,270.969848633,4.9e-05,0.0,0.0,0.0,6.4e-05,0.0,0.0,0.0,0.001024,2
1671464763003313472,621199,1671464763032378607,gps,2,1,42.300266064,-83.6986037526,270.969970703,4.9e-05,0.0,0.0,0.0,6.4e-05,0.0,0.0,0.0,0.001024,2
1671464763013358660,621200,1671464763042503563,gps,2,1,42.300266067,-83.6986037523,270.969970703,4.9e-05,0.0,0.0,0.0,6.4e-05,0.0,0.0,0.0,0.001024,2
1671464763023397873,621201,1671464763052474077,gps,2,1,42.3002660698,-83.6986037532,270.969970703,4.9e-05,0.0,0.0,0.0,6.4e-05,0.0,0.0,0.0,0.001024,2
1671464763033115785,621202,1671464763062410865,gps,2,1,42.3002660727,-83.6986037517,270.970092773,4.9e-05,0.0,0.0,0.0,6.4e-05,0.0,0.0,0.0,0.001024,2
1671464763043195032,621203,1671464763072431057,gps,2,1,42.3002660766,-83.6986037519,270.970092773,4.9e-05,0.0,0.0,0.0,6.4e-05,0.0,0.0,0.0,0.001024,2
1671464763053155102,621204,1671464763082501137,gps,2,1,42.3002660799,-83.6986037526,270.970092773,4.9e-05,0.0,0.0,0.0,6.4e-05,0.0,0.0,0.0,0.001024,2
1671464763063234748,621205,1671464763092391079,gps,2,1,42.3002660836,-83.698603751,270.970184326,4.9e-05,0.0,0.0,0.0,6.4e-05,0.0,0.0,0.0,0.001024,2
1671464763073210120,621206,1671464763102425804,gps,2,1,42.3002660882,-83.6986037519,270.970214844,4.9e-05,0.0,0.0,0.0,6.4e-05,0.0,0.0,0.0,0.001024,2
1671464763083749143,621207,1671464763112527774,gps,2,1,42.3002660923,-83.6986037519,270.970184326,4.9e-05,0.0,0.0,0.0,6.4e-05,0.0,0.0,0.0,0.001024,2
1671464763093387066,621208,1671464763122407477,gps,2,1,42.3002660967,-83.6986037505,270.970306396,4.9e-05,0.0,0.0,0.0,6.4e-05,0.0,0.0,0.0,0.001024,2
1671464763103548244,621209,1671464763132382524,gps,2,1,42.300266102,-83.6986037513,270.970275879,4.9e-05,0.0,0.0,0.0,6.4e-05,0.0,0.0,0.0,0.001024,2
1671464763113420993,621210,1671464763142445168,gps,2,1,42.3002661066,-83.6986037505,270.970245361,4.9e-05,0.0,0.0,0.0,6.4e-05,0.0,0.0,0.0,0.001024,2
1671464763123570625,621211,1671464763152459258,gps,2,1,42.3002661119,-83.6986037495,270.970367432,4.9e-05,0.0,0.0,0.0,6.4e-05,0.0,0.0,0.0,0.001024,2
1671464763133283912,621212,1671464763162381472,gps,2,1,42.3002661179,-83.6986037496,270.970336914,4.9e-05,0.0,0.0,0.0,6.4e-05,0.0,0.0,0.0,0.001024,2
1671464763143262499,621213,1671464763172450821,gps,2,1,42.3002661231,-83.6986037488,270.970306396,4.9e-05,0.0,0.0,0.0,6.4e-05,0.0,0.0,0.0,0.001024,2
1671464763153336626,621214,1671464763182389781,gps,2,1,42.3002661292,-83.6986037482,270.970428467,4.9e-05,0.0,0.0,0.0,6.4e-05,0.0,0.0,0.0,0.001024,2
1671464763163299109,621215,1671464763192372933,gps,2,1,42.3002661358,-83.6986037476,270.970397949,4.9e-05,0.0,0.0,0.0,6.4e-05,0.0,0.0,0.0,0.001024,2
1671464763173377326,621216,1671464763202441992,gps,2,1,42.3002661421,-83.6986037479,270.970397949,4.9e-05,0.0,0.0,0.0,6.4e-05,0.0,0.0,0.0,0.001024,2
1671464763183281933,621217,1671464763212371763,gps,2,1,42.3002661489,-83.6986037472,270.970489502,4.9e-05,0.0,0.0,0.0,6.4e-05,0.0,0.0,0.0,0.001024,2
1671464763193119908,621218,1671464763222374758,gps,2,1,42.3002661564,-83.6986037466,270.970458984,4.9e-05,0.0,0.0,0.0,6.4e-05,0.0,0.0,0.0,0.001024,2
1671464763203279759,621219,1671464763232432175,gps,2,1,42.3002661634,-83.6986037479,270.970489502,4.9e-05,0.0,0.0,0.0,6.4e-05,0.0,0.0,0.0,0.001024,2
1671464763213659479,621220,1671464763242373138,gps,2,1,42.3002661709,-83.6986037469,270.970581055,4.9e-05,0.0,0.0,0.0,6.4e-05,0.0,0.0,0.0,0.001024,2
1671464763223028932,621221,1671464763252375960,gps,2,1,42.3002661793,-83.6986037471,270.970581055,4.9e-05,0.0,0.0,0.0,6.4e-05,0.0,0.0,0.0,0.001024,2
1671464763233462234,621222,1671464763262436474,gps,2,1,42.300266187,-83.6986037483,270.970581055,4.9e-05,0.0,0.0,0.0,6.4e-05,0.0,0.0,0.0,0.001024,2
1671464763243472441,621223,1671464763272366724,gps,2,1,42.3002661953,-83.6986037471,270.970672607,4.9e-05,0.0,0.0,0.0,6.4e-05,0.0,0.0,0.0,0.001024,2
1671464763253541441,621224,1671464763282382482,gps,2,1,42.3002662046,-83.698603748,270.970703125,4.9e-05,0.0,0.0,0.0,6.4e-05,0.0,0.0,0.0,0.000961,2
1671464763263592724,621225,1671464763292451640,gps,2,1,42.300266213,-83.6986037482,270.970672607,4.9e-05,0.0,0.0,0.0,6.4e-05,0.0,0.0,0.0,0.000961,2
1671464763273180831,621226,1671464763302362419,gps,2,1,42.3002662221,-83.6986037472,270.97076416,4.9e-05,0.0,0.0,0.0,6.4e-05,0.0,0.0,0.0,0.000961,2
1671464763283476194,621227,1671464763312464479,gps,2,1,42.3002662322,-83.6986037482,270.97076416,4.9e-05,0.0,0.0,0.0,6.4e-05,0.0,0.0,0.0,0.000961,2
1671464763293204058,621228,1671464763322443661,gps,2,1,42.3002662413,-83.6986037474,270.970733643,4.9e-05,0.0,0.0,0.0,6.4e-05,0.0,0.0,0.0,0.000961,2
1671464763303293377,621229,1671464763332375931,gps,2,1,42.3002662514,-83.6986037467,270.970825195,4.9e-05,0.0,0.0,0.0,6.4e-05,0.0,0.0,0.0,0.000961,2
1671464763313254019,621230,1671464763342375411,gps,2,1,42.3002662623,-83.698603747,270.970825195,4.9e-05,0.0,0.0,0.0,6.4e-05,0.0,0.0,0.0,0.000961,2
1671464763323740949,621231,1671464763352429798,gps,2,1,42.3002662723,-83.698603746,270.970794678,4.9e-05,0.0,0.0,0.0,6.4e-05,0.0,0.0,0.0,0.000961,2
1671464763333255251,621232,1671464763362366648,gps,2,1,42.3002662834,-83.6986037456,270.97088623,4.9e-05,0.0,0.0,0.0,6.4e-05,0.0,0.0,0.0,0.000961,2
1671464763343129444,621233,1671464763372400432,gps,2,1,42.3002662953,-83.6986037451,270.970855713,4.9e-05,0.0,0.0,0.0,6.4e-05,0.0,0.0,0.0,0.000961,2
1671464763353509896,621234,1671464763382514190,gps,2,1,42.3002663064,-83.6986037454,270.97088623,4.9e-05,0.0,0.0,0.0,6.4e-05,0.0,0.0,0.0,0.000961,2
1671464763363183774,621235,1671464763392377395,gps,2,1,42.3002663187,-83.6986037449,270.970947266,4.9e-05,0.0,0.0,0.0,6.4e-05,0.0,0.0,0.0,0.000961,2
1671464763373622005,621236,1671464763402465017,gps,2,1,42.3002663319,-83.6986037443,270.970947266,4.9e-05,0.0,0.0,0.0,6.4e-05,0.0,0.0,0.0,0.000961,2
1671464763383710784,621237,1671464763412496424,gps,2,1,42.3002663441,-83.6986037456,270.970947266,4.9e-05,0.0,0.0,0.0,6.4e-05,0.0,0.0,0.0,0.000961,2
1671464763393214417,621238,1671464763422465746,gps,2,1,42.3002663577,-83.6986037447,270.971038818,4.9e-05,0.0,0.0,0.0,6.4e-05,0.0,0.0,0.0,0.000961,2
1671464763403058834,621239,1671464763432392514,gps,2,1,42.3002663724,-83.6986037448,270.971008301,4.9e-05,0.0,0.0,0.0,6.4e-05,0.0,0.0,0.0,0.000961,2
1671464763413420642,621240,1671464763442452072,gps,2,1,42.3002663862,-83.6986037462,270.971008301,4.9e-05,0.0,0.0,0.0,6.4e-05,0.0,0.0,0.0,0.000961,2
1671464763423360447,621241,1671464763452370078,gps,2,1,42.3002664013,-83.6986037451,270.971069336,4.9e-05,0.0,0.0,0.0,6.4e-05,0.0,0.0,0.0,0.000961,2
1671464763433384200,621242,1671464763462365951,gps,2,1,42.3002664179,-83.6986037461,270.971069336,4.9e-05,0.0,0.0,0.0,6.4e-05,0.0,0.0,0.0,0.000961,2
1671464763443317919,621243,1671464763472424300,gps,2,1,42.3002664327,-83.6986037467,270.971069336,4.9e-05,0.0,0.0,0.0,6.4e-05,0.0,0.0,0.0,0.000961,2
1671464763453258250,621244,1671464763482360404,gps,2,1,42.3002664495,-83.6986037457,270.971130371,4.9e-05,0.0,0.0,0.0,6.4e-05,0.0,0.0,0.0,0.000961,2
1671464763463375315,621245,1671464763492390451,gps,2,1,42.3002664678,-83.6986037471,270.971130371,4.9e-05,0.0,0.0,0.0,6.4e-05,0.0,0.0,0.0,0.000961,2
1671464763473227987,621246,1671464763502448640,gps,2,1,42.3002664843,-83.6986037463,270.971069336,4.9e-05,0.0,0.0,0.0,6.4e-05,0.0,0.0,0.0,0.000961,2
1671464763483203339,621247,1671464763512450621,gps,2,1,42.3002665031,-83.6986037458,270.971130371,4.9e-05,0.0,0.0,0.0,6.4e-05,0.0,0.0,0.0,0.000961,2
1671464763493414751,621248,1671464763522403407,gps,2,1,42.3002665231,-83.6986037465,270.971130371,4.9e-05,0.0,0.0,0.0,6.4e-05,0.0,0.0,0.0,0.000961,2
1671464763503626747,621249,1671464763532645842,gps,2,1,42.3002665414,-83.6986037455,270.971099854,4.9e-05,0.0,0.0,0.0,6.4e-05,0.0,0.0,0.0,0.000961,2
1671464763513608058,621250,1671464763542402779,gps,2,1,42.3002665619,-83.6986037441,270.971008301,4.9e-05,0.0,0.0,0.0,6.4e-05,0.0,0.0,0.0,0.000961,2
1671464763523744772,621251,1671464763552434357,gps,2,1,42.3002665838,-83.6986037437,270.970977783,4.9e-05,0.0,0.0,0.0,6.4e-05,0.0,0.0,0.0,0.000961,2
1671464763533571220,621252,1671464763562504713,gps,2,1,42.3002666043,-83.6986037443,270.970977783,4.9e-05,0.0,0.0,0.0,6.4e-05,0.0,0.0,0.0,0.000961,2
1671464763543376647,621253,1671464763572396106,gps,2,1,42.3002666269,-83.6986037428,270.970916748,4.9e-05,0.0,0.0,0.0,6.4e-05,0.0,0.0,0.0,0.000961,2
1671464763553478867,621254,1671464763582534664,gps,2,1,42.300266651,-83.6986037425,270.97088623,4.9e-05,0.0,0.0,0.0,6.4e-05,0.0,0.0,0.0,0.000961,2
1671464763563423887,621255,1671464763592552100,gps,2,1,42.3002666736,-83.6986037445,270.97088623,4.9e-05,0.0,0.0,0.0,6.4e-05,0.0,0.0,0.0,0.000961,2
1671464763573429374,621256,1671464763602411853,gps,2,1,42.3002666983,-83.6986037427,270.970825195,4.9e-05,0.0,0.0,0.0,6.4e-05,0.0,0.0,0.0,0.000961,2
1671464763583401931,621257,1671464763612393801,gps,2,1,42.3002667248,-83.6986037438,270.970825195,4.9e-05,0.0,0.0,0.0,6.4e-05,0.0,0.0,0.0,0.000961,2
1671464763593268024,621258,1671464763622433872,gps,2,1,42.3002667494,-83.6986037451,270.970825195,4.9e-05,0.0,0.0,0.0,6.4e-05,0.0,0.0,0.0,0.000961,2
1671464763603241967,621259,1671464763632366161,gps,2,1,42.3002667763,-83.6986037434,270.97076416,4.9e-05,0.0,0.0,0.0,6.4e-05,0.0,0.0,0.0,0.000961,2
1671464763613180260,621260,1671464763642381997,gps,2,1,42.3002668052,-83.6986037451,270.97076416,4.9e-05,0.0,0.0,0.0,6.4e-05,0.0,0.0,0.0,0.000961,2
1671464763623849162,621261,1671464763652541026,gps,2,1,42.3002668318,-83.6986037449,270.97076416,4.9e-05,0.0,0.0,0.0,6.4e-05,0.0,0.0,0.0,0.000961,2
1671464763633161794,621262,1671464763662419036,gps,2,1,42.3002668612,-83.6986037437,270.970703125,4.9e-05,0.0,0.0,0.0,6.4e-05,0.0,0.0,0.0,0.000961,2
1671464763643542464,621263,1671464763672384579,gps,2,1,42.3002668924,-83.6986037443,270.970703125,4.9e-05,0.0,0.0,0.0,6.4e-05,0.0,0.0,0.0,0.000961,2
1671464763653565178,621264,1671464763682435692,gps,2,1,42.3002669214,-83.6986037444,270.970703125,4.9e-05,0.0,0.0,0.0,6.4e-05,0.0,0.0,0.0,0.000961,2
1671464763663544161,621265,1671464763692368278,gps,2,1,42.3002669534,-83.6986037434,270.970672607,4.9e-05,0.0,0.0,0.0,6.4e-05,0.0,0.0,0.0,0.000961,2
1671464763673397589,621266,1671464763702370085,gps,2,1,42.3002669871,-83.6986037438,270.970703125,4.9e-05,0.0,0.0,0.0,6.4e-05,0.0,0.0,0.0,0.000961,2
1671464763683494310,621267,1671464763712431761,gps,2,1,42.3002670187,-83.6986037447,270.970703125,4.9e-05,0.0,0.0,0.0,6.4e-05,0.0,0.0,0.0,0.000961,2
1671464763693026384,621268,1671464763722369911,gps,2,1,42.3002670532,-83.6986037437,270.970672607,4.9e-05,0.0,0.0,0.0,6.4e-05,0.0,0.0,0.0,0.000961,2
1671464763703469448,621269,1671464763732362793,gps,2,1,42.3002670894,-83.6986037442,270.970703125,4.9e-05,0.0,0.0,0.0,6.4e-05,0.0,0.0,0.0,0.000961,2
1671464763713289551,621270,1671464763742416824,gps,2,1,42.3002671237,-83.6986037457,270.970703125,4.9e-05,0.0,0.0,0.0,6.4e-05,0.0,0.0,0.0,0.000961,2
1671464763723350041,621271,1671464763752367103,gps,2,1,42.3002671608,-83.6986037446,270.970703125,4.9e-05,0.0,0.0,0.0,6.4e-05,0.0,0.0,0.0,0.000961,2
1671464763733128804,621272,1671464763762361726,gps,2,1,42.3002672,-83.698603746,270.970703125,4.9e-05,0.0,0.0,0.0,6.4e-05,0.0,0.0,0.0,0.000961,2
1671464763743253821,621273,1671464763772431717,gps,2,1,42.3002672368,-83.6986037473,270.970733643,4.9e-05,0.0,0.0,0.0,6.4e-05,0.0,0.0,0.0,0.000961,2
1671464763753210469,621274,1671464763782409587,gps,2,1,42.3002672768,-83.6986037464,270.970733643,4.9e-05,0.0,0.0,0.0,6.4e-05,0.0,0.0,0.0,0.000961,2
1671464763763546266,621275,1671464763792402399,gps,2,1,42.3002673189,-83.698603748,270.97076416,4.9e-05,0.0,0.0,0.0,6.4e-05,0.0,0.0,0.0,0.000961,2
1671464763773251095,621276,1671464763802459843,gps,2,1,42.3002673584,-83.6986037484,270.970794678,4.9e-05,0.0,0.0,0.0,6.4e-05,0.0,0.0,0.0,0.000961,2
1671464763783073495,621277,1671464763812380419,gps,2,1,42.3002674013,-83.6986037479,270.970794678,4.9e-05,0.0,0.0,0.0,6.4e-05,0.0,0.0,0.0,0.000961,2
1671464763792973036,621278,1671464763822380550,gps,2,1,42.3002674461,-83.698603749,270.970825195,4.9e-05,0.0,0.0,0.0,6.4e-05,0.0,0.0,0.0,0.000961,2
1671464763803295954,621279,1671464763832442658,gps,2,1,42.3002674886,-83.6986037495,270.970855713,4.9e-05,0.0,0.0,0.0,6.4e-05,0.0,0.0,0.0,0.000961,2
1671464763813218483,621280,1671464763842380073,gps,2,1,42.3002675345,-83.6986037491,270.970855713,4.9e-05,0.0,0.0,0.0,6.4e-05,0.0,0.0,0.0,0.000961,2
1671464763823216946,621281,1671464763852375170,gps,2,1,42.3002675824,-83.69860375,270.970916748,4.9e-05,0.0,0.0,0.0,6.4e-05,0.0,0.0,0.0,0.000961,2
1671464763833501451,621282,1671464763862428244,gps,2,1,42.300267628,-83.6986037513,270.970947266,4.9e-05,0.0,0.0,0.0,6.4e-05,0.0,0.0,0.0,0.000961,2
1671464763843346076,621283,1671464763872362091,gps,2,1,42.300267677,-83.6986037509,270.970947266,4.9e-05,0.0,0.0,0.0,6.4e-05,0.0,0.0,0.0,0.000961,2
1671464763853394279,621284,1671464763882449969,gps,2,1,42.3002677283,-83.698603752,270.970977783,4.9e-05,0.0,0.0,0.0,6.4e-05,0.0,0.0,0.0,0.000961,2
1671464763863340007,621285,1671464763892426222,gps,2,1,42.3002677769,-83.6986037537,270.971038818,4.9e-05,0.0,0.0,0.0,6.4e-05,0.0,0.0,0.0,0.000961,2
1671464763873181461,621286,1671464763902476341,gps,2,1,42.3002678292,-83.6986037534,270.971038818,4.9e-05,0.0,0.0,0.0,6.4e-05,0.0,0.0,0.0,0.000961,2
1671464763883323506,621287,1671464763912362366,gps,2,1,42.300267884,-83.6986037549,270.971130371,4.9e-05,0.0,0.0,0.0,6.4e-05,0.0,0.0,0.0,0.000961,2
1671464763893571968,621288,1671464763922446189,gps,2,1,42.3002679359,-83.6986037564,270.971160889,4.9e-05,0.0,0.0,0.0,6.4e-05,0.0,0.0,0.0,0.000961,2
1671464763903093054,621289,1671464763932375473,gps,2,1,42.3002679916,-83.6986037562,270.971160889,4.9e-05,0.0,0.0,0.0,6.4e-05,0.0,0.0,0.0,0.000961,2
1671464763913432720,621290,1671464763942433930,gps,2,1,42.3002680498,-83.6986037579,270.971191406,4.9e-05,0.0,0.0,0.0,6.4e-05,0.0,0.0,0.0,0.000961,2
1671464763923497065,621291,1671464763952381248,gps,2,1,42.3002681051,-83.6986037592,270.971221924,4.9e-05,0.0,0.0,0.0,6.4e-05,0.0,0.0,0.0,0.000961,2
1671464763932964053,621292,1671464763962372285,gps,2,1,42.3002681644,-83.6986037591,270.971221924,4.9e-05,0.0,0.0,0.0,6.4e-05,0.0,0.0,0.0,0.000961,2
1671464763943131765,621293,1671464763972384211,gps,2,1,42.3002682264,-83.6986037608,270.971313477,4.9e-05,0.0,0.0,0.0,6.4e-05,0.0,0.0,0.0,0.000961,2
1671464763953515853,621294,1671464763982431081,gps,2,1,42.3002682852,-83.6986037622,270.971343994,4.9e-05,0.0,0.0,0.0,6.4e-05,0.0,0.0,0.0,0.000961,2
1671464763963526891,621295,1671464763992366981,gps,2,1,42.3002683483,-83.6986037623,270.971343994,4.9e-05,0.0,0.0,0.0,6.4e-05,0.0,0.0,0.0,0.000961,2
1671464763973608724,621296,1671464764002375387,gps,2,1,42.3002684141,-83.6986037641,270.971343994,4.9e-05,0.0,0.0,0.0,6.4e-05,0.0,0.0,0.0,0.000961,2
1671464763983347911,621297,1671464764012423842,gps,2,1,42.3002684766,-83.6986037657,270.971374512,4.9e-05,0.0,0.0,0.0,6.4e-05,0.0,0.0,0.0,0.000961,2
1671464763993439192,621298,1671464764022357461,gps,2,1,42.3002685435,-83.698603766,270.971374512,4.9e-05,0.0,0.0,0.0,6.4e-05,0.0,0.0,0.0,0.000961,2
1671464764003360013,621299,1671464764032412637,gps,2,1,42.3002686132,-83.6986037678,270.971466064,4.9e-05,0.0,0.0,0.0,6.4e-05,0.0,0.0,0.0,0.000961,2
1671464764013315998,621300,1671464764042523186,gps,2,1,42.3002686795,-83.6986037695,270.971466064,4.9e-05,0.0,0.0,0.0,6.4e-05,0.0,0.0,0.0,0.000961,2
1671464764023281669,621301,1671464764052489194,gps,2,1,42.3002687504,-83.6986037699,270.971466064,4.9e-05,0.0,0.0,0.0,6.4e-05,0.0,0.0,0.0,0.000961,2
1671464764033198819,621302,1671464764062427759,gps,2,1,42.3002688241,-83.6986037719,270.971466064,4.9e-05,0.0,0.0,0.0,6.4e-05,0.0,0.0,0.0,0.000961,2
1671464764043269955,621303,1671464764072488255,gps,2,1,42.3002688942,-83.6986037738,270.971496582,4.9e-05,0.0,0.0,0.0,6.4e-05,0.0,0.0,0.0,0.000961,2
1671464764053617264,621304,1671464764082446833,gps,2,1,42.3002689692,-83.6986037743,270.971405029,4.9e-05,0.0,0.0,0.0,6.4e-05,0.0,0.0,0.0,0.000961,2
1671464764063074579,621305,1671464764092376074,gps,2,1,42.3002690468,-83.6986037761,270.971496582,4.9e-05,0.0,0.0,0.0,6.4e-05,0.0,0.0,0.0,0.000961,2
1671464764073647684,621306,1671464764102473216,gps,2,1,42.3002691213,-83.6986037781,270.971496582,4.9e-05,0.0,0.0,0.0,6.4e-05,0.0,0.0,0.0,0.000961,2
1671464764083331961,621307,1671464764112489895,gps,2,1,42.3002692003,-83.6986037785,270.971466064,4.9e-05,0.0,0.0,0.0,6.4e-05,0.0,0.0,0.0,0.000961,2
1671464764093582246,621308,1671464764122415575,gps,2,1,42.3002692817,-83.6986037805,270.971435547,4.9e-05,0.0,0.0,0.0,6.4e-05,0.0,0.0,0.0,0.000961,2
1671464764103535212,621309,1671464764132444829,gps,2,1,42.3002693601,-83.6986037824,270.971496582,4.9e-05,0.0,0.0,0.0,6.4e-05,0.0,0.0,0.0,0.000961,2
1671464764113500887,621310,1671464764142389397,gps,2,1,42.3002694429,-83.6986037828,270.971405029,4.9e-05,0.0,0.0,0.0,6.4e-05,0.0,0.0,0.0,0.000961,2
1671464764123269956,621311,1671464764152456324,gps,2,1,42.3002695284,-83.6986037846,270.971496582,4.9e-05,0.0,0.0,0.0,6.4e-05,0.0,0.0,0.0,0.000961,2
1671464764133400496,621312,1671464764162445159,gps,2,1,42.3002696104,-83.6986037868,270.971496582,4.9e-05,0.0,0.0,0.0,6.4e-05,0.0,0.0,0.0,0.000961,2
1671464764143457045,621313,1671464764172356337,gps,2,1,42.3002696971,-83.6986037872,270.971435547,4.9e-05,0.0,0.0,0.0,6.4e-05,0.0,0.0,0.0,0.000961,2
1671464764153301366,621314,1671464764182354330,gps,2,1,42.3002697863,-83.6986037894,270.971405029,4.9e-05,0.0,0.0,0.0,6.4e-05,0.0,0.0,0.0,0.000961,2
1671464764163264888,621315,1671464764192438098,gps,2,1,42.3002698722,-83.6986037912,270.971466064,4.9e-05,0.0,0.0,0.0,6.4e-05,0.0,0.0,0.0,0.000961,2
1671464764173096522,621316,1671464764202353071,gps,2,1,42.3002699628,-83.6986037918,270.971374512,4.9e-05,0.0,0.0,0.0,6.4e-05,0.0,0.0,0.0,0.000961,2
1671464764183186966,621317,1671464764212388288,gps,2,1,42.3002700557,-83.6986037936,270.971466064,4.9e-05,0.0,0.0,0.0,6.4e-05,0.0,0.0,0.0,0.000961,2
1671464764193245976,621318,1671464764222423864,gps,2,1,42.3002701453,-83.6986037955,270.971435547,4.9e-05,0.0,0.0,0.0,6.4e-05,0.0,0.0,0.0,0.000961,2
1671464764203077976,621319,1671464764232372778,gps,2,1,42.3002702397,-83.698603796,270.971405029,4.9e-05,0.0,0.0,0.0,6.4e-05,0.0,0.0,0.0,0.000961,2
1671464764213036004,621320,1671464764242369871,gps,2,1,42.3002703362,-83.6986037979,270.971405029,4.9e-05,0.0,0.0,0.0,6.4e-05,0.0,0.0,0.0,0.000961,2
1671464764223578314,621321,1671464764252428770,gps,2,1,42.3002704294,-83.6986037999,270.971435547,4.9e-05,0.0,0.0,0.0,6.4e-05,0.0,0.0,0.0,0.000961,2
1671464764233391836,621322,1671464764262368249,gps,2,1,42.300270527,-83.6986038007,270.971374512,4.9e-05,0.0,0.0,0.0,6.4e-05,0.0,0.0,0.0,0.000961,2
1671464764243543088,621323,1671464764272365584,gps,2,1,42.3002706263,-83.6986038026,270.971466064,4.9e-05,0.0,0.0,0.0,6.4e-05,0.0,0.0,0.0,0.000961,2
1671464764253282628,621324,1671464764282447539,gps,2,1,42.3002707231,-83.6986038048,270.971496582,8.1e-05,0.0,0.0,0.0,0.000121,0.0,0.0,0.0,0.001024,2
1671464764263382978,621325,1671464764292389406,gps,2,1,42.3002708235,-83.6986038056,270.971496582,8.1e-05,0.0,0.0,0.0,0.000121,0.0,0.0,0.0,0.001024,2
1671464764273398944,621326,1671464764302360207,gps,2,1,42.3002709253,-83.6986038079,270.971557617,8.1e-05,0.0,0.0,0.0,0.000121,0.0,0.0,0.0,0.001024,2
1671464764283382919,621327,1671464764312463001,gps,2,1,42.3002710254,-83.6986038102,270.971588135,8.1e-05,0.0,0.0,0.0,0.000121,0.0,0.0,0.0,0.001024,2
1671464764293351927,621328,1671464764322390420,gps,2,1,42.3002711287,-83.6986038114,270.971588135,8.1e-05,0.0,0.0,0.0,0.000121,0.0,0.0,0.0,0.001024,2
1671464764303241923,621329,1671464764332390825,gps,2,1,42.3002712341,-83.6986038137,270.971679688,8.1e-05,0.0,0.0,0.0,0.000121,0.0,0.0,0.0,0.001024,2
1671464764313195343,621330,1671464764342437405,gps,2,1,42.3002713366,-83.6986038159,270.97177124,8.1e-05,0.0,0.0,0.0,0.000121,0.0,0.0,0.0,0.001024,2
1671464764323110562,621331,1671464764352374086,gps,2,1,42.3002714432,-83.6986038171,270.97177124,8.1e-05,0.0,0.0,0.0,0.000121,0.0,0.0,0.0,0.001024,2
1671464764333476003,621332,1671464764362379461,gps,2,1,42.3002715516,-83.6986038197,270.971832275,8.1e-05,0.0,0.0,0.0,0.000121,0.0,0.0,0.0,0.001024,2
1671464764343225901,621333,1671464764372435643,gps,2,1,42.3002716577,-83.6986038219,270.971923828,8.1e-05,0.0,0.0,0.0,0.000121,0.0,0.0,0.0,0.001024,2
1671464764353056051,621334,1671464764382382384,gps,2,1,42.3002717673,-83.6986038233,270.971923828,8.1e-05,0.0,0.0,0.0,0.000121,0.0,0.0,0.0,0.001024,2
1671464764363617816,621335,1671464764392460440,gps,2,1,42.300271879,-83.6986038261,270.971984863,8.1e-05,0.0,0.0,0.0,0.000121,0.0,0.0,0.0,0.001024,2
1671464764373631078,621336,1671464764402480386,gps,2,1,42.3002719883,-83.6986038283,270.972076416,8.1e-05,0.0,0.0,0.0,0.000121,0.0,0.0,0.0,0.001024,2
1671464764383420236,621337,1671464764412433423,gps,2,1,42.3002721016,-83.6986038299,270.972076416,8.1e-05,0.0,0.0,0.0,0.000121,0.0,0.0,0.0,0.001024,2
1671464764393313264,621338,1671464764422488373,gps,2,1,42.3002722172,-83.6986038328,270.972229004,8.1e-05,0.0,0.0,0.0,0.000121,0.0,0.0,0.0,0.001024,2
1671464764403407613,621339,1671464764432406539,gps,2,1,42.3002723297,-83.6986038355,270.972259521,8.1e-05,0.0,0.0,0.0,0.000121,0.0,0.0,0.0,0.001024,2
1671464764413366635,621340,1671464764442388404,gps,2,1,42.3002724467,-83.6986038377,270.972290039,8.1e-05,0.0,0.0,0.0,0.000121,0.0,0.0,0.0,0.001024,2
1671464764423473545,621341,1671464764452415273,gps,2,1,42.300272566,-83.6986038412,270.972320557,8.1e-05,0.0,0.0,0.0,0.000121,0.0,0.0,0.0,0.001024,2
1671464764433377531,621342,1671464764462381804,gps,2,1,42.3002726821,-83.6986038439,270.972442627,8.1e-05,0.0,0.0,0.0,0.000121,0.0,0.0,0.0,0.001024,2
1671464764443409867,621343,1671464764472370376,gps,2,1,42.3002728025,-83.6986038462,270.972442627,8.1e-05,0.0,0.0,0.0,0.000121,0.0,0.0,0.0,0.001024,2
1671464764453263461,621344,1671464764482431078,gps,2,1,42.3002729253,-83.6986038496,270.97253418,8.1e-05,0.0,0.0,0.0,0.000121,0.0,0.0,0.0,0.001024,2
1671464764463295668,621345,1671464764492380673,gps,2,1,42.3002730453,-83.698603853,270.972625732,8.1e-05,0.0,0.0,0.0,0.000121,0.0,0.0,0.0,0.001024,2
1671464764473175633,621346,1671464764502369108,gps,2,1,42.3002731695,-83.6986038551,270.972595215,8.1e-05,0.0,0.0,0.0,0.000121,0.0,0.0,0.0,0.001024,2
1671464764483613779,621347,1671464764512481858,gps,2,1,42.3002732963,-83.698603858,270.972625732,8.1e-05,0.0,0.0,0.0,0.000121,0.0,0.0,0.0,0.001024,2
1671464764493100906,621348,1671464764522398191,gps,2,1,42.3002734198,-83.6986038614,270.972686768,8.1e-05,0.0,0.0,0.0,0.000121,0.0,0.0,0.0,0.001024,2
1671464764503501823,621349,1671464764532506228,gps,2,1,42.3002735478,-83.6986038631,270.97265625,8.1e-05,0.0,0.0,0.0,0.000121,0.0,0.0,0.0,0.001024,2
1671464764513654357,621350,1671464764542496381,gps,2,1,42.3002736782,-83.698603866,270.972686768,8.1e-05,0.0,0.0,0.0,0.000121,0.0,0.0,0.0,0.001024,2
1671464764523642856,621351,1671464764552421035,gps,2,1,42.3002738057,-83.6986038685,270.972747803,8.1e-05,0.0,0.0,0.0,0.000121,0.0,0.0,0.0,0.001024,2
1671464764533525456,621352,1671464764562428439,gps,2,1,42.3002739382,-83.6986038714,270.972717285,8.1e-05,0.0,0.0,0.0,0.000121,0.0,0.0,0.0,0.001024,2
1671464764543351721,621353,1671464764572491155,gps,2,1,42.3002740725,-83.6986038735,270.97277832,8.1e-05,0.0,0.0,0.0,0.000121,0.0,0.0,0.0,0.001024,2
1671464764553439838,621354,1671464764582487045,gps,2,1,42.3002742038,-83.6986038761,270.97277832,8.1e-05,0.0,0.0,0.0,0.000121,0.0,0.0,0.0,0.001024,2
1671464764563243937,621355,1671464764592401703,gps,2,1,42.3002743407,-83.6986038788,270.97277832,8.1e-05,0.0,0.0,0.0,0.000121,0.0,0.0,0.0,0.001024,2
1671464764573424886,621356,1671464764602389372,gps,2,1,42.3002744794,-83.6986038806,270.972839355,8.1e-05,0.0,0.0,0.0,0.000121,0.0,0.0,0.0,0.001024,2
1671464764583140251,621357,1671464764612434303,gps,2,1,42.3002746145,-83.6986038829,270.972839355,8.1e-05,0.0,0.0,0.0,0.000121,0.0,0.0,0.0,0.001024,2
1671464764593150256,621358,1671464764622356288,gps,2,1,42.3002747558,-83.6986038854,270.972869873,8.1e-05,0.0,0.0,0.0,0.000121,0.0,0.0,0.0,0.001024,2
1671464764603201029,621359,1671464764632380472,gps,2,1,42.3002748994,-83.6986038876,270.972900391,8.1e-05,0.0,0.0,0.0,0.000121,0.0,0.0,0.0,0.001024,2
1671464764613142461,621360,1671464764642457842,gps,2,1,42.3002750394,-83.6986038901,270.972930908,8.1e-05,0.0,0.0,0.0,0.000121,0.0,0.0,0.0,0.001024,2
1671464764623168358,621361,1671464764652479908,gps,2,1,42.3002751858,-83.6986038928,270.972930908,8.1e-05,0.0,0.0,0.0,0.000121,0.0,0.0,0.0,0.001024,2
1671464764633612206,621362,1671464764662452874,gps,2,1,42.3002753348,-83.6986038956,270.972991943,8.1e-05,0.0,0.0,0.0,0.000121,0.0,0.0,0.0,0.001024,2
1671464764643312491,621363,1671464764672391396,gps,2,1,42.3002754793,-83.6986038977,270.973083496,8.1e-05,0.0,0.0,0.0,0.000121,0.0,0.0,0.0,0.001024,2
1671464764653467912,621364,1671464764682372061,gps,2,1,42.3002756308,-83.6986039007,270.973114014,8.1e-05,0.0,0.0,0.0,0.000121,0.0,0.0,0.0,0.001024,2
1671464764663356446,621365,1671464764692444054,gps,2,1,42.3002757847,-83.6986039033,270.973205566,8.1e-05,0.0,0.0,0.0,0.000121,0.0,0.0,0.0,0.001024,2
1671464764673227898,621366,1671464764702373510,gps,2,1,42.3002759344,-83.6986039056,270.973266602,8.1e-05,0.0,0.0,0.0,0.000121,0.0,0.0,0.0,0.001024,2
1671464764683458434,621367,1671464764712382293,gps,2,1,42.3002760909,-83.6986039084,270.973327637,8.1e-05,0.0,0.0,0.0,0.000121,0.0,0.0,0.0,0.001024,2
1671464764693443857,621368,1671464764722367538,gps,2,1,42.3002762505,-83.6986039103,270.973419189,8.1e-05,0.0,0.0,0.0,0.000121,0.0,0.0,0.0,0.001024,2
1671464764703351125,621369,1671464764732444525,gps,2,1,42.3002764052,-83.6986039133,270.973449707,8.1e-05,0.0,0.0,0.0,0.000121,0.0,0.0,0.0,0.001024,2
1671464764713294065,621370,1671464764742366424,gps,2,1,42.3002765672,-83.6986039163,270.973510742,8.1e-05,0.0,0.0,0.0,0.000121,0.0,0.0,0.0,0.001024,2
1671464764723286326,621371,1671464764752355624,gps,2,1,42.3002767301,-83.6986039183,270.97354126,8.1e-05,0.0,0.0,0.0,0.000121,0.0,0.0,0.0,0.001024,2
1671464764733209098,621372,1671464764762438070,gps,2,1,42.3002768918,-83.6986039212,270.973632812,8.1e-05,0.0,0.0,0.0,0.000121,0.0,0.0,0.0,0.001024,2
1671464764743247375,621373,1671464764772357086,gps,2,1,42.3002770584,-83.6986039241,270.973693848,8.1e-05,0.0,0.0,0.0,0.000121,0.0,0.0,0.0,0.001024,2
1671464764753168711,621374,1671464764782386491,gps,2,1,42.3002772266,-83.6986039268,270.973815918,8.1e-05,0.0,0.0,0.0,0.000121,0.0,0.0,0.0,0.001024,2
1671464764763118408,621375,1671464764792446856,gps,2,1,42.3002773908,-83.6986039297,270.973937988,8.1e-05,0.0,0.0,0.0,0.000121,0.0,0.0,0.0,0.001024,2
1671464764773044397,621376,1671464764802383129,gps,2,1,42.3002775604,-83.6986039325,270.974029541,8.1e-05,0.0,0.0,0.0,0.000121,0.0,0.0,0.0,0.001024,2
1671464764783030616,621377,1671464764812373686,gps,2,1,42.3002777301,-83.6986039356,270.974182129,8.1e-05,0.0,0.0,0.0,0.000121,0.0,0.0,0.0,0.001024,2
1671464764793565915,621378,1671464764822455105,gps,2,1,42.3002778994,-83.6986039384,270.974304199,8.1e-05,0.0,0.0,0.0,0.000121,0.0,0.0,0.0,0.001024,2
1671464764803565331,621379,1671464764832416977,gps,2,1,42.3002780721,-83.6986039412,270.974395752,8.1e-05,0.0,0.0,0.0,0.000121,0.0,0.0,0.0,0.001024,2
1671464764813521668,621380,1671464764842386615,gps,2,1,42.3002782464,-83.6986039449,270.974517822,8.1e-05,0.0,0.0,0.0,0.000121,0.0,0.0,0.0,0.001024,2
1671464764823498970,621381,1671464764852425354,gps,2,1,42.3002784165,-83.6986039472,270.974700928,8.1e-05,0.0,0.0,0.0,0.000121,0.0,0.0,0.0,0.001024,2
1671464764833468572,621382,1671464764862350188,gps,2,1,42.300278593,-83.6986039507,270.97479248,8.1e-05,0.0,0.0,0.0,0.000121,0.0,0.0,0.0,0.001024,2
1671464764843429138,621383,1671464764872359032,gps,2,1,42.3002787711,-83.6986039541,270.974884033,8.1e-05,0.0,0.0,0.0,0.000121,0.0,0.0,0.0,0.001024,2
1671464764853372371,621384,1671464764882422034,gps,2,1,42.300278946,-83.6986039569,270.974975586,8.1e-05,0.0,0.0,0.0,0.000121,0.0,0.0,0.0,0.001024,2
1671464764863312164,621385,1671464764892363454,gps,2,1,42.3002791262,-83.6986039608,270.975036621,8.1e-05,0.0,0.0,0.0,0.000121,0.0,0.0,0.0,0.001024,2
1671464764873353645,621386,1671464764902484217,gps,2,1,42.3002793074,-83.6986039644,270.975097656,8.1e-05,0.0,0.0,0.0,0.000121,0.0,0.0,0.0,0.001024,2
1671464764883213433,621387,1671464764912438773,gps,2,1,42.3002794867,-83.6986039676,270.975128174,8.1e-05,0.0,0.0,0.0,0.000121,0.0,0.0,0.0,0.001024,2
1671464764893197256,621388,1671464764922359511,gps,2,1,42.3002796706,-83.6986039719,270.975158691,8.1e-05,0.0,0.0,0.0,0.000121,0.0,0.0,0.0,0.001024,2
1671464764903104058,621389,1671464764932375074,gps,2,1,42.3002798561,-83.6986039753,270.975158691,8.1e-05,0.0,0.0,0.0,0.000121,0.0,0.0,0.0,0.001024,2
1671464764913067501,621390,1671464764942420132,gps,2,1,42.3002800388,-83.6986039792,270.975250244,8.1e-05,0.0,0.0,0.0,0.000121,0.0,0.0,0.0,0.001024,2
1671464764923464865,621391,1671464764952363066,gps,2,1,42.3002802268,-83.6986039833,270.975250244,8.1e-05,0.0,0.0,0.0,0.000121,0.0,0.0,0.0,0.001024,2
1671464764933357449,621392,1671464764962386571,gps,2,1,42.3002804164,-83.6986039868,270.975280762,8.1e-05,0.0,0.0,0.0,0.000121,0.0,0.0,0.0,0.001024,2
1671464764943515568,621393,1671464764972432357,gps,2,1,42.300280603,-83.6986039905,270.975341797,8.1e-05,0.0,0.0,0.0,0.000121,0.0,0.0,0.0,0.001024,2
1671464764953366406,621394,1671464764982377112,gps,2,1,42.3002807944,-83.6986039943,270.975372314,8.1e-05,0.0,0.0,0.0,0.000121,0.0,0.0,0.0,0.001024,2
1671464764963502173,621395,1671464764992374958,gps,2,1,42.3002809871,-83.6986039975,270.975372314,8.1e-05,0.0,0.0,0.0,0.000121,0.0,0.0,0.0,0.001024,2
1671464764973506405,621396,1671464765002424021,gps,2,1,42.3002811775,-83.6986040009,270.975463867,8.1e-05,0.0,0.0,0.0,0.000121,0.0,0.0,0.0,0.001024,2
1671464764983344380,621397,1671464765012367470,gps,2,1,42.3002813725,-83.6986040043,270.975463867,8.1e-05,0.0,0.0,0.0,0.000121,0.0,0.0,0.0,0.001024,2
1671464764993278062,621398,1671464765022363500,gps,2,1,42.3002815693,-83.6986040071,270.97555542,8.1e-05,0.0,0.0,0.0,0.000121,0.0,0.0,0.0,0.001024,2
1671464765003296317,621399,1671464765032590306,gps,2,1,42.3002817626,-83.6986040097,270.975585938,8.1e-05,0.0,0.0,0.0,0.000121,0.0,0.0,0.0,0.001024,2
1671464765013127541,621400,1671464765042470402,gps,2,1,42.3002819618,-83.6986040156,270.975708008,8.1e-05,0.0,0.0,0.0,0.000121,0.0,0.0,0.0,0.001024,2
1671464765023283733,621401,1671464765052400797,gps,2,1,42.3002821623,-83.6986040178,270.975769043,8.1e-05,0.0,0.0,0.0,0.000121,0.0,0.0,0.0,0.001024,2
1671464765033434449,621402,1671464765062499301,gps,2,1,42.3002823599,-83.6986040201,270.975799561,8.1e-05,0.0,0.0,0.0,0.000121,0.0,0.0,0.0,0.001024,2
1671464765043108084,621403,1671464765072444264,gps,2,1,42.3002825628,-83.6986040255,270.975891113,8.1e-05,0.0,0.0,0.0,0.000121,0.0,0.0,0.0,0.001024,2
1671464765053047898,621404,1671464765082463920,gps,2,1,42.3002827668,-83.6986040273,270.975952148,8.1e-05,0.0,0.0,0.0,0.000121,0.0,0.0,0.0,0.001024,2
1671464765063622305,621405,1671464765092480813,gps,2,1,42.3002829683,-83.6986040295,270.975982666,8.1e-05,0.0,0.0,0.0,0.000121,0.0,0.0,0.0,0.001024,2
1671464765073463593,621406,1671464765102443659,gps,2,1,42.3002831748,-83.6986040346,270.976104736,8.1e-05,0.0,0.0,0.0,0.000121,0.0,0.0,0.0,0.001024,2
1671464765083550986,621407,1671464765112477349,gps,2,1,42.3002833825,-83.6986040367,270.976165771,8.1e-05,0.0,0.0,0.0,0.000121,0.0,0.0,0.0,0.001024,2
1671464765093480209,621408,1671464765122442198,gps,2,1,42.3002835875,-83.6986040389,270.976226807,8.1e-05,0.0,0.0,0.0,0.000121,0.0,0.0,0.0,0.001024,2
1671464765103521815,621409,1671464765132373725,gps,2,1,42.3002837976,-83.6986040438,270.976379395,8.1e-05,0.0,0.0,0.0,0.000121,0.0,0.0,0.0,0.001024,2
1671464765113287976,621410,1671464765142454169,gps,2,1,42.300284009,-83.6986040461,270.97644043,8.1e-05,0.0,0.0,0.0,0.000121,0.0,0.0,0.0,0.001024,2
1671464765123321638,621411,1671464765152462795,gps,2,1,42.3002842175,-83.698604048,270.9765625,8.1e-05,0.0,0.0,0.0,0.000121,0.0,0.0,0.0,0.001024,2
1671464765133219215,621412,1671464765162370276,gps,2,1,42.3002844309,-83.6986040534,270.976715088,8.1e-05,0.0,0.0,0.0,0.000121,0.0,0.0,0.0,0.001024,2
1671464765143426906,621413,1671464765172368312,gps,2,1,42.3002846456,-83.6986040558,270.976867676,8.1e-05,0.0,0.0,0.0,0.000121,0.0,0.0,0.0,0.001024,2
1671464765153277079,621414,1671464765182409391,gps,2,1,42.3002848576,-83.6986040576,270.976989746,8.1e-05,0.0,0.0,0.0,0.000121,0.0,0.0,0.0,0.001024,2
1671464765163270138,621415,1671464765192355393,gps,2,1,42.3002850743,-83.6986040632,270.977203369,8.1e-05,0.0,0.0,0.0,0.000121,0.0,0.0,0.0,0.001024,2
1671464765173191064,621416,1671464765202364713,gps,2,1,42.3002852925,-83.6986040655,270.977416992,8.1e-05,0.0,0.0,0.0,0.000121,0.0,0.0,0.0,0.001024,2
1671464765183160001,621417,1671464765212420700,gps,2,1,42.3002855077,-83.6986040677,270.977508545,8.1e-05,0.0,0.0,0.0,0.000121,0.0,0.0,0.0,0.001024,2
1671464765193526258,621418,1671464765222380555,gps,2,1,42.3002857279,-83.6986040733,270.977783203,8.1e-05,0.0,0.0,0.0,0.000121,0.0,0.0,0.0,0.001024,2
1671464765203049510,621419,1671464765232369516,gps,2,1,42.3002859496,-83.6986040756,270.978027344,8.1e-05,0.0,0.0,0.0,0.000121,0.0,0.0,0.0,0.001024,2
1671464765213272525,621420,1671464765242436292,gps,2,1,42.3002861684,-83.6986040779,270.978149414,8.1e-05,0.0,0.0,0.0,0.000121,0.0,0.0,0.0,0.001024,2
1671464765223569052,621421,1671464765252379476,gps,2,1,42.300286392,-83.6986040834,270.97845459,8.1e-05,0.0,0.0,0.0,0.000121,0.0,0.0,0.0,0.001024,2
1671464765233561998,621422,1671464765262442590,gps,2,1,42.300286617,-83.6986040856,270.97869873,8.1e-05,0.0,0.0,0.0,0.000121,0.0,0.0,0.0,0.001024,2
1671464765243627717,621423,1671464765272393337,gps,2,1,42.3002868393,-83.6986040884,270.978942871,8.1e-05,0.0,0.0,0.0,0.000121,0.0,0.0,0.0,0.001024,2
1671464765253504083,621424,1671464765282371894,gps,2,1,42.3002870661,-83.6986040937,270.979248047,4.9e-05,0.0,0.0,0.0,6.4e-05,0.0,0.0,0.0,0.001024,2
1671464765263384698,621425,1671464765292403660,gps,2,1,42.3002872945,-83.6986040963,270.979492188,4.9e-05,0.0,0.0,0.0,6.4e-05,0.0,0.0,0.0,0.001024,2
1671464765273399386,621426,1671464765302432101,gps,2,1,42.30028752,-83.6986040989,270.979766846,4.9e-05,0.0,0.0,0.0,6.4e-05,0.0,0.0,0.0,0.001024,2
1671464765283189705,621427,1671464765312358706,gps,2,1,42.3002877502,-83.6986041043,270.980041504,4.9e-05,0.0,0.0,0.0,6.4e-05,0.0,0.0,0.0,0.001024,2
1671464765293229022,621428,1671464765322411229,gps,2,1,42.3002879819,-83.6986041074,270.980255127,4.9e-05,0.0,0.0,0.0,6.4e-05,0.0,0.0,0.0,0.001024,2
1671464765303200201,621429,1671464765332517392,gps,2,1,42.3002882109,-83.6986041096,270.980560303,4.9e-05,0.0,0.0,0.0,6.4e-05,0.0,0.0,0.0,0.001024,2
1671464765313171377,621430,1671464765342367887,gps,2,1,42.3002884444,-83.6986041152,270.980804443,4.9e-05,0.0,0.0,0.0,6.4e-05,0.0,0.0,0.0,0.001024,2
1671464765323192497,621431,1671464765352421937,gps,2,1,42.3002886794,-83.6986041182,270.981018066,4.9e-05,0.0,0.0,0.0,6.4e-05,0.0,0.0,0.0,0.001024,2
1671464765333069692,621432,1671464765362363150,gps,2,1,42.3002889116,-83.6986041209,270.981201172,4.9e-05,0.0,0.0,0.0,6.4e-05,0.0,0.0,0.0,0.001024,2
1671464765343009156,621433,1671464765372363885,gps,2,1,42.3002891483,-83.6986041268,270.981384277,4.9e-05,0.0,0.0,0.0,6.4e-05,0.0,0.0,0.0,0.001024,2
1671464765353212259,621434,1671464765382370332,gps,2,1,42.3002893865,-83.69860413,270.981536865,4.9e-05,0.0,0.0,0.0,6.4e-05,0.0,0.0,0.0,0.001024,2
1671464765363422490,621435,1671464765392418943,gps,2,1,42.3002896221,-83.6986041331,270.981658936,4.9e-05,0.0,0.0,0.0,6.4e-05,0.0,0.0,0.0,0.001024,2
1671464765373688936,621436,1671464765402469623,gps,2,1,42.300289862,-83.6986041392,270.981811523,4.9e-05,0.0,0.0,0.0,6.4e-05,0.0,0.0,0.0,0.001024,2
1671464765383549470,621437,1671464765412381047,gps,2,1,42.3002901033,-83.6986041427,270.981903076,4.9e-05,0.0,0.0,0.0,6.4e-05,0.0,0.0,0.0,0.001024,2
1671464765393599599,621438,1671464765422527405,gps,2,1,42.300290342,-83.698604146,270.982025146,4.9e-05,0.0,0.0,0.0,6.4e-05,0.0,0.0,0.0,0.001024,2
1671464765403411469,621439,1671464765432440330,gps,2,1,42.3002905851,-83.6986041514,270.982177734,4.9e-05,0.0,0.0,0.0,6.4e-05,0.0,0.0,0.0,0.001024,2
1671464765413370607,621440,1671464765442399146,gps,2,1,42.30029083,-83.6986041544,270.98223877,4.9e-05,0.0,0.0,0.0,6.4e-05,0.0,0.0,0.0,0.001024,2
1671464765423350528,621441,1671464765452408494,gps,2,1,42.3002910716,-83.698604158,270.982391357,4.9e-05,0.0,0.0,0.0,6.4e-05,0.0,0.0,0.0,0.001024,2
1671464765433304088,621442,1671464765462349653,gps,2,1,42.3002913181,-83.6986041627,270.982513428,4.9e-05,0.0,0.0,0.0,6.4e-05,0.0,0.0,0.0,0.001024,2
1671464765443358944,621443,1671464765472356343,gps,2,1,42.3002915664,-83.6986041647,270.98260498,4.9e-05,0.0,0.0,0.0,6.4e-05,0.0,0.0,0.0,0.001024,2
1671464765453208060,621444,1671464765482426359,gps,2,1,42.3002918119,-83.6986041676,270.982666016,4.9e-05,0.0,0.0,0.0,6.4e-05,0.0,0.0,0.0,0.001024,2
1671464765463170417,621445,1671464765492382286,gps,2,1,42.3002920618,-83.6986041715,270.982727051,4.9e-05,0.0,0.0,0.0,6.4e-05,0.0,0.0,0.0,0.001024,2
1671464765473544035,621446,1671464765502382953,gps,2,1,42.3002923135,-83.6986041733,270.982757568,4.9e-05,0.0,0.0,0.0,6.4e-05,0.0,0.0,0.0,0.001024,2
1671464765483077758,621447,1671464765512452472,gps,2,1,42.3002925624,-83.6986041751,270.982788086,4.9e-05,0.0,0.0,0.0,6.4e-05,0.0,0.0,0.0,0.001024,2
1671464765493029683,621448,1671464765522378731,gps,2,1,42.3002928156,-83.6986041786,270.982849121,4.9e-05,0.0,0.0,0.0,6.4e-05,0.0,0.0,0.0,0.001024,2
1671464765503261569,621449,1671464765532408439,gps,2,1,42.3002930706,-83.69860418,270.982879639,4.9e-05,0.0,0.0,0.0,6.4e-05,0.0,0.0,0.0,0.001024,2
1671464765513331245,621450,1671464765542487103,gps,2,1,42.3002933227,-83.6986041814,270.982971191,4.9e-05,0.0,0.0,0.0,6.4e-05,0.0,0.0,0.0,0.001024,2
1671464765523565435,621451,1671464765552448994,gps,2,1,42.3002935791,-83.6986041848,270.983032227,4.9e-05,0.0,0.0,0.0,6.4e-05,0.0,0.0,0.0,0.001024,2
1671464765533400944,621452,1671464765562429194,gps,2,1,42.300293837,-83.6986041857,270.983154297,4.9e-05,0.0,0.0,0.0,6.4e-05,0.0,0.0,0.0,0.001024,2
1671464765543403160,621453,1671464765572477235,gps,2,1,42.3002940926,-83.6986041872,270.983215332,4.9e-05,0.0,0.0,0.0,6.4e-05,0.0,0.0,0.0,0.001024,2
1671464765553410396,621454,1671464765582523359,gps,2,1,42.3002943503,-83.6986041929,270.983581543,4.9e-05,0.0,0.0,0.0,6.4e-05,0.0,0.0,0.0,0.001024,2
1671464765563361353,621455,1671464765592481167,gps,2,1,42.3002946114,-83.6986041942,270.983673096,4.9e-05,0.0,0.0,0.0,6.4e-05,0.0,0.0,0.0,0.001024,2
1671464765573417364,621456,1671464765602329854,gps,2,1,42.3002948698,-83.6986041959,270.983795166,4.9e-05,0.0,0.0,0.0,6.4e-05,0.0,0.0,0.0,0.001024,2
1671464765583296908,621457,1671464765612314100,gps,2,1,42.3002951305,-83.6986042014,270.984161377,4.9e-05,0.0,0.0,0.0,6.4e-05,0.0,0.0,0.0,0.001024,2
1671464765593254959,621458,1671464765622306242,gps,2,1,42.3002953945,-83.6986042032,270.984375,4.9e-05,0.0,0.0,0.0,6.4e-05,0.0,0.0,0.0,0.001024,2
1671464765603054624,621459,1671464765632321425,gps,2,1,42.3002956561,-83.6986042044,270.984527588,4.9e-05,0.0,0.0,0.0,6.4e-05,0.0,0.0,0.0,0.001024,2
1671464765613125613,621460,1671464765642430448,gps,2,1,42.3002959198,-83.69860421,270.984954834,4.9e-05,0.0,0.0,0.0,6.4e-05,0.0,0.0,0.0,0.001024,2
1671464765623752840,621461,1671464765652507470,gps,2,1,42.3002961868,-83.698604212,270.985229492,4.9e-05,0.0,0.0,0.0,6.4e-05,0.0,0.0,0.0,0.001024,2
1671464765633468464,621462,1671464765662475497,gps,2,1,42.3002964511,-83.6986042132,270.985412598,4.9e-05,0.0,0.0,0.0,6.4e-05,0.0,0.0,0.0,0.001024,2
1671464765643149604,621463,1671464765672380471,gps,2,1,42.3002967179,-83.6986042187,270.985900879,4.9e-05,0.0,0.0,0.0,6.4e-05,0.0,0.0,0.0,0.001024,2
1671464765653381279,621464,1671464765682376583,gps,2,1,42.3002969876,-83.6986042206,270.986175537,4.9e-05,0.0,0.0,0.0,6.4e-05,0.0,0.0,0.0,0.001024,2
1671464765663553819,621465,1671464765692444228,gps,2,1,42.300297255,-83.6986042222,270.986419678,4.9e-05,0.0,0.0,0.0,6.4e-05,0.0,0.0,0.0,0.001024,2
1671464765673348796,621466,1671464765702367028,gps,2,1,42.3002975246,-83.698604228,270.986938477,4.9e-05,0.0,0.0,0.0,6.4e-05,0.0,0.0,0.0,0.001024,2
1671464765683433074,621467,1671464765712439813,gps,2,1,42.3002977973,-83.6986042301,270.987304688,4.9e-05,0.0,0.0,0.0,6.4e-05,0.0,0.0,0.0,0.001024,2
1671464765693494141,621468,1671464765722375921,gps,2,1,42.3002980676,-83.6986042325,270.987548828,4.9e-05,0.0,0.0,0.0,6.4e-05,0.0,0.0,0.0,0.001024,2
1671464765703331780,621469,1671464765732365469,gps,2,1,42.3002983402,-83.6986042385,270.988067627,4.9e-05,0.0,0.0,0.0,6.4e-05,0.0,0.0,0.0,0.001024,2
1671464765713312891,621470,1671464765742435640,gps,2,1,42.3002986157,-83.6986042413,270.988342285,4.9e-05,0.0,0.0,0.0,6.4e-05,0.0,0.0,0.0,0.001024,2
1671464765723362075,621471,1671464765752372109,gps,2,1,42.300298889,-83.6986042442,270.988677979,4.9e-05,0.0,0.0,0.0,6.4e-05,0.0,0.0,0.0,0.001024,2
1671464765733295159,621472,1671464765762354136,gps,2,1,42.3002991644,-83.6986042503,270.98916626,4.9e-05,0.0,0.0,0.0,6.4e-05,0.0,0.0,0.0,0.001024,2
1671464765743576546,621473,1671464765772428163,gps,2,1,42.3002994427,-83.6986042533,270.9894104,4.9e-05,0.0,0.0,0.0,6.4e-05,0.0,0.0,0.0,0.001024,2
1671464765753145806,621474,1671464765782370323,gps,2,1,42.3002997186,-83.6986042561,270.989746094,4.9e-05,0.0,0.0,0.0,6.4e-05,0.0,0.0,0.0,0.001024,2
1671464765763028710,621475,1671464765792385228,gps,2,1,42.3002999969,-83.6986042622,270.99017334,4.9e-05,0.0,0.0,0.0,6.4e-05,0.0,0.0,0.0,0.001024,2
1671464765773062354,621476,1671464765802427799,gps,2,1,42.3003002779,-83.6986042654,270.99041748,4.9e-05,0.0,0.0,0.0,6.4e-05,0.0,0.0,0.0,0.001024,2
1671464765783531317,621477,1671464765812376945,gps,2,1,42.3003005567,-83.698604268,270.990661621,4.9e-05,0.0,0.0,0.0,6.4e-05,0.0,0.0,0.0,0.001024,2
1671464765793624568,621478,1671464765822361863,gps,2,1,42.3003008377,-83.6986042741,270.991088867,4.9e-05,0.0,0.0,0.0,6.4e-05,0.0,0.0,0.0,0.001024,2
1671464765803502925,621479,1671464765832520494,gps,2,1,42.3003011213,-83.6986042768,270.991271973,4.9e-05,0.0,0.0,0.0,6.4e-05,0.0,0.0,0.0,0.001024,2
1671464765813284743,621480,1671464765842382786,gps,2,1,42.3003014027,-83.6986042795,270.991516113,4.9e-05,0.0,0.0,0.0,6.4e-05,0.0,0.0,0.0,0.001024,2
1671464765823479359,621481,1671464765852392754,gps,2,1,42.3003016865,-83.6986042856,270.991882324,4.9e-05,0.0,0.0,0.0,6.4e-05,0.0,0.0,0.0,0.001024,2
1671464765833423154,621482,1671464765862432771,gps,2,1,42.3003019726,-83.698604288,270.99206543,4.9e-05,0.0,0.0,0.0,6.4e-05,0.0,0.0,0.0,0.001024,2
1671464765843430337,621483,1671464765872388915,gps,2,1,42.3003022569,-83.6986042911,270.992279053,4.9e-05,0.0,0.0,0.0,6.4e-05,0.0,0.0,0.0,0.001024,2
1671464765853332183,621484,1671464765882385604,gps,2,1,42.3003025431,-83.6986042969,270.992584229,4.9e-05,0.0,0.0,0.0,6.4e-05,0.0,0.0,0.0,0.001024,2
1671464765863070162,621485,1671464765892462607,gps,2,1,42.3003028318,-83.6986042999,270.992675781,4.9e-05,0.0,0.0,0.0,6.4e-05,0.0,0.0,0.0,0.001024,2
1671464765873253698,621486,1671464765902480872,gps,2,1,42.3003031185,-83.6986043029,270.992858887,4.9e-05,0.0,0.0,0.0,6.4e-05,0.0,0.0,0.0,0.001024,2
1671464765883049401,621487,1671464765912358991,gps,2,1,42.3003034075,-83.6986043082,270.993133545,4.9e-05,0.0,0.0,0.0,6.4e-05,0.0,0.0,0.0,0.001024,2
1671464765893086593,621488,1671464765922368680,gps,2,1,42.3003036984,-83.6986043109,270.99331665,4.9e-05,0.0,0.0,0.0,6.4e-05,0.0,0.0,0.0,0.001024,2
1671464765903545749,621489,1671464765932426554,gps,2,1,42.3003039875,-83.6986043141,270.993408203,4.9e-05,0.0,0.0,0.0,6.4e-05,0.0,0.0,0.0,0.001024,2
1671464765913338675,621490,1671464765942362041,gps,2,1,42.3003042786,-83.6986043191,270.993743896,4.9e-05,0.0,0.0,0.0,6.4e-05,0.0,0.0,0.0,0.001024,2
1671464765923510553,621491,1671464765952367017,gps,2,1,42.300304572,-83.698604322,270.993927002,4.9e-05,0.0,0.0,0.0,6.4e-05,0.0,0.0,0.0,0.001024,2
1671464765933645839,621492,1671464765962445310,gps,2,1,42.3003048632,-83.6986043243,270.994110107,4.9e-05,0.0,0.0,0.0,6.4e-05,0.0,0.0,0.0,0.001024,2
1671464765943614004,621493,1671464765972362472,gps,2,1,42.3003051568,-83.6986043292,270.994476318,4.9e-05,0.0,0.0,0.0,6.4e-05,0.0,0.0,0.0,0.001024,2
1671464765953408852,621494,1671464765982425698,gps,2,1,42.3003054522,-83.6986043315,270.994842529,4.9e-05,0.0,0.0,0.0,6.4e-05,0.0,0.0,0.0,0.001024,2
1671464765963425135,621495,1671464765992371829,gps,2,1,42.3003057458,-83.6986043335,270.995056152,4.9e-05,0.0,0.0,0.0,6.4e-05,0.0,0.0,0.0,0.001024,2
1671464765973376710,621496,1671464766002364910,gps,2,1,42.3003060415,-83.6986043383,270.995513916,4.9e-05,0.0,0.0,0.0,6.4e-05,0.0,0.0,0.0,0.001024,2
1671464765983392844,621497,1671464766012426677,gps,2,1,42.3003063391,-83.6986043409,270.995849609,4.9e-05,0.0,0.0,0.0,6.4e-05,0.0,0.0,0.0,0.001024,2
1671464765993300553,621498,1671464766022356667,gps,2,1,42.3003066347,-83.6986043432,270.996154785,4.9e-05,0.0,0.0,0.0,6.4e-05,0.0,0.0,0.0,0.001024,2
1671464766003306916,621499,1671464766032532800,gps,2,1,42.3003069325,-83.6986043482,270.996643066,4.9e-05,0.0,0.0,0.0,6.4e-05,0.0,0.0,0.0,0.001024,2
1671464766013191829,621500,1671464766042448360,gps,2,1,42.300307232,-83.6986043505,270.997009277,4.9e-05,0.0,0.0,0.0,6.4e-05,0.0,0.0,0.0,0.001024,2
1671464766023210353,621501,1671464766052469147,gps,2,1,42.3003075298,-83.6986043533,270.997375488,4.9e-05,0.0,0.0,0.0,6.4e-05,0.0,0.0,0.0,0.001024,2
1671464766033122411,621502,1671464766062447084,gps,2,1,42.3003078298,-83.6986043548,270.998077393,4.9e-05,0.0,0.0,0.0,6.4e-05,0.0,0.0,0.0,0.001024,2
1671464766043140301,621503,1671464766072430999,gps,2,1,42.3003081314,-83.6986043576,270.998413086,4.9e-05,0.0,0.0,0.0,6.4e-05,0.0,0.0,0.0,0.001024,2
1671464766053705589,621504,1671464766082516682,gps,2,1,42.3003084313,-83.6986043603,270.998748779,4.9e-05,0.0,0.0,0.0,6.4e-05,0.0,0.0,0.0,0.001024,2
1671464766063322893,621505,1671464766092423804,gps,2,1,42.3003087333,-83.6986043618,270.999389648,4.9e-05,0.0,0.0,0.0,6.4e-05,0.0,0.0,0.0,0.001024,2
1671464766073473607,621506,1671464766102428874,gps,2,1,42.3003090368,-83.6986043643,270.999755859,4.9e-05,0.0,0.0,0.0,6.4e-05,0.0,0.0,0.0,0.001024,2
1671464766083610982,621507,1671464766112469673,gps,2,1,42.3003093386,-83.6986043669,271.000091553,4.9e-05,0.0,0.0,0.0,6.4e-05,0.0,0.0,0.0,0.001024,2
1671464766093653948,621508,1671464766122410771,gps,2,1,42.3003096424,-83.6986043682,271.000732422,4.9e-05,0.0,0.0,0.0,6.4e-05,0.0,0.0,0.0,0.001024,2
1671464766103184315,621509,1671464766132439645,gps,2,1,42.3003099478,-83.6986043708,271.00100708,4.9e-05,0.0,0.0,0.0,6.4e-05,0.0,0.0,0.0,0.001024,2
1671464766113336738,621510,1671464766142383626,gps,2,1,42.3003102515,-83.6986043732,271.001312256,4.9e-05,0.0,0.0,0.0,6.4e-05,0.0,0.0,0.0,0.001024,2
1671464766123259977,621511,1671464766152451852,gps,2,1,42.3003105573,-83.6986043748,271.00189209,4.9e-05,0.0,0.0,0.0,6.4e-05,0.0,0.0,0.0,0.001024,2
1671464766133327468,621512,1671464766162438339,gps,2,1,42.3003108645,-83.698604377,271.002197266,4.9e-05,0.0,0.0,0.0,6.4e-05,0.0,0.0,0.0,0.001024,2
1671464766143264569,621513,1671464766172366754,gps,2,1,42.3003111701,-83.6986043794,271.002502441,4.9e-05,0.0,0.0,0.0,6.4e-05,0.0,0.0,0.0,0.001024,2
1671464766153191649,621514,1671464766182360584,gps,2,1,42.3003114779,-83.6986043809,271.00302124,4.9e-05,0.0,0.0,0.0,6.4e-05,0.0,0.0,0.0,0.001024,2
1671464766163154306,621515,1671464766192450788,gps,2,1,42.3003117871,-83.6986043831,271.003265381,4.9e-05,0.0,0.0,0.0,6.4e-05,0.0,0.0,0.0,0.001024,2
1671464766173569041,621516,1671464766202378183,gps,2,1,42.3003120946,-83.6986043856,271.003540039,4.9e-05,0.0,0.0,0.0,6.4e-05,0.0,0.0,0.0,0.001024,2
1671464766183149815,621517,1671464766212378592,gps,2,1,42.3003124044,-83.6986043871,271.004058838,4.9e-05,0.0,0.0,0.0,6.4e-05,0.0,0.0,0.0,0.001024,2
1671464766193036353,621518,1671464766222428983,gps,2,1,42.3003127151,-83.6986043891,271.004272461,4.9e-05,0.0,0.0,0.0,6.4e-05,0.0,0.0,0.0,0.001024,2
1671464766202947372,621519,1671464766232382598,gps,2,1,42.3003130247,-83.6986043913,271.004516602,4.9e-05,0.0,0.0,0.0,6.4e-05,0.0,0.0,0.0,0.001024,2
1671464766213438424,621520,1671464766242360906,gps,2,1,42.300313336,-83.6986043925,271.0050354,4.9e-05,0.0,0.0,0.0,6.4e-05,0.0,0.0,0.0,0.001024,2
1671464766223522047,621521,1671464766252363125,gps,2,1,42.3003136486,-83.6986043942,271.005249023,4.9e-05,0.0,0.0,0.0,6.4e-05,0.0,0.0,0.0,0.001024,2
1671464766233421215,621522,1671464766262445017,gps,2,1,42.3003139597,-83.6986043962,271.005493164,4.9e-05,0.0,0.0,0.0,6.4e-05,0.0,0.0,0.0,0.001024,2
1671464766243526132,621523,1671464766272377222,gps,2,1,42.3003142728,-83.698604397,271.006011963,4.9e-05,0.0,0.0,0.0,6.4e-05,0.0,0.0,0.0,0.001024,2
1671464766253362734,621524,1671464766282373237,gps,2,1,42.3003145869,-83.6986043982,271.006286621,0.000121,0.0,0.0,0.0,0.000121,0.0,0.0,0.0,0.001024,2
1671464766263336186,621525,1671464766292453709,gps,2,1,42.3003148997,-83.6986043998,271.006500244,0.000121,0.0,0.0,0.0,0.000121,0.0,0.0,0.0,0.001024,2
1671464766273334344,621526,1671464766302363107,gps,2,1,42.3003152142,-83.6986044002,271.007080078,0.000121,0.0,0.0,0.0,0.000121,0.0,0.0,0.0,0.001024,2
1671464766283341147,621527,1671464766312470534,gps,2,1,42.3003155297,-83.6986044012,271.007415771,0.000121,0.0,0.0,0.0,0.000121,0.0,0.0,0.0,0.001024,2
1671464766293272324,621528,1671464766322384867,gps,2,1,42.3003158442,-83.6986044023,271.007720947,0.000121,0.0,0.0,0.0,0.000121,0.0,0.0,0.0,0.001024,2
1671464766303545610,621529,1671464766332453116,gps,2,1,42.3003161603,-83.6986044025,271.008331299,0.000121,0.0,0.0,0.0,0.000121,0.0,0.0,0.0,0.001024,2
1671464766313110041,621530,1671464766342368389,gps,2,1,42.3003164774,-83.6986044032,271.00869751,0.000121,0.0,0.0,0.0,0.000121,0.0,0.0,0.0,0.001024,2
1671464766323141090,621531,1671464766352428097,gps,2,1,42.3003167932,-83.6986044038,271.009094238,0.000121,0.0,0.0,0.0,0.000121,0.0,0.0,0.0,0.001024,2
1671464766333522372,621532,1671464766362365496,gps,2,1,42.3003171109,-83.698604404,271.00970459,0.000121,0.0,0.0,0.0,0.000121,0.0,0.0,0.0,0.001024,2
1671464766343017951,621533,1671464766372370101,gps,2,1,42.3003174294,-83.6986044051,271.010101318,0.000121,0.0,0.0,0.0,0.000121,0.0,0.0,0.0,0.001024,2
1671464766353605521,621534,1671464766382433112,gps,2,1,42.300317747,-83.6986044058,271.010467529,0.000121,0.0,0.0,0.0,0.000121,0.0,0.0,0.0,0.001024,2
1671464766363276886,621535,1671464766392366689,gps,2,1,42.3003180663,-83.6986044061,271.011077881,0.000121,0.0,0.0,0.0,0.000121,0.0,0.0,0.0,0.001024,2
1671464766373572536,621536,1671464766402457984,gps,2,1,42.3003183864,-83.6986044068,271.011413574,0.000121,0.0,0.0,0.0,0.000121,0.0,0.0,0.0,0.001024,2
1671464766383486297,621537,1671464766412497123,gps,2,1,42.3003187053,-83.6986044078,271.011779785,0.000121,0.0,0.0,0.0,0.000121,0.0,0.0,0.0,0.001024,2
1671464766393471820,621538,1671464766422385948,gps,2,1,42.3003190259,-83.6986044079,271.012359619,0.000121,0.0,0.0,0.0,0.000121,0.0,0.0,0.0,0.001024,2
1671464766403395954,621539,1671464766432404945,gps,2,1,42.3003193477,-83.6986044084,271.012634277,0.000121,0.0,0.0,0.0,0.000121,0.0,0.0,0.0,0.001024,2
1671464766413301299,621540,1671464766442412666,gps,2,1,42.3003196683,-83.698604409,271.012969971,0.000121,0.0,0.0,0.0,0.000121,0.0,0.0,0.0,0.001024,2
1671464766423179418,621541,1671464766452362758,gps,2,1,42.3003199906,-83.6986044086,271.013549805,0.000121,0.0,0.0,0.0,0.000121,0.0,0.0,0.0,0.001024,2
1671464766433273511,621542,1671464766462358851,gps,2,1,42.3003203139,-83.6986044082,271.013885498,0.000121,0.0,0.0,0.0,0.000121,0.0,0.0,0.0,0.001024,2
1671464766443163041,621543,1671464766472419639,gps,2,1,42.3003206361,-83.6986044086,271.014160156,0.000121,0.0,0.0,0.0,0.000121,0.0,0.0,0.0,0.001024,2
1671464766453186496,621544,1671464766482358886,gps,2,1,42.30032096,-83.6986044076,271.01473999,0.000121,0.0,0.0,0.0,0.000121,0.0,0.0,0.0,0.001024,2
1671464766463065203,621545,1671464766492362966,gps,2,1,42.3003212852,-83.6986044072,271.015136719,0.000121,0.0,0.0,0.0,0.000121,0.0,0.0,0.0,0.001024,2
1671464766473109138,621546,1671464766502423430,gps,2,1,42.3003216089,-83.6986044066,271.01550293,0.000121,0.0,0.0,0.0,0.000121,0.0,0.0,0.0,0.001024,2
1671464766483449715,621547,1671464766512434558,gps,2,1,42.3003219346,-83.6986044056,271.016143799,0.000121,0.0,0.0,0.0,0.000121,0.0,0.0,0.0,0.001024,2
1671464766493364246,621548,1671464766522390321,gps,2,1,42.3003222614,-83.6986044047,271.016571045,0.000121,0.0,0.0,0.0,0.000121,0.0,0.0,0.0,0.001024,2
1671464766503352696,621549,1671464766532589361,gps,2,1,42.3003225871,-83.698604404,271.016998291,0.000121,0.0,0.0,0.0,0.000121,0.0,0.0,0.0,0.001024,2
1671464766513563310,621550,1671464766542385538,gps,2,1,42.3003229148,-83.6986044028,271.01763916,0.000121,0.0,0.0,0.0,0.000121,0.0,0.0,0.0,0.001024,2
1671464766523556921,621551,1671464766552420819,gps,2,1,42.3003232435,-83.6986044024,271.018096924,0.000121,0.0,0.0,0.0,0.000121,0.0,0.0,0.0,0.001024,2
1671464766533559250,621552,1671464766562512435,gps,2,1,42.3003235707,-83.6986044019,271.018554688,0.000121,0.0,0.0,0.0,0.000121,0.0,0.0,0.0,0.001024,2
1671464766543488520,621553,1671464766572354532,gps,2,1,42.3003239,-83.6986044011,271.019226074,0.000121,0.0,0.0,0.0,0.000121,0.0,0.0,0.0,0.001024,2
1671464766553241250,621554,1671464766582547314,gps,2,1,42.3003242302,-83.698604401,271.019683838,0.000121,0.0,0.0,0.0,0.000121,0.0,0.0,0.0,0.001024,2
1671464766563356182,621555,1671464766592506343,gps,2,1,42.3003245592,-83.6986044007,271.020202637,0.000121,0.0,0.0,0.0,0.000121,0.0,0.0,0.0,0.001024,2
1671464766573368603,621556,1671464766602385963,gps,2,1,42.3003248902,-83.6986044003,271.020874023,0.000121,0.0,0.0,0.0,0.000121,0.0,0.0,0.0,0.001024,2
1671464766583316354,621557,1671464766612358147,gps,2,1,42.300325222,-83.698604401,271.021392822,0.000121,0.0,0.0,0.0,0.000121,0.0,0.0,0.0,0.001024,2
1671464766593382658,621558,1671464766622426526,gps,2,1,42.3003255525,-83.6986044009,271.021850586,0.000121,0.0,0.0,0.0,0.000121,0.0,0.0,0.0,0.001024,2
1671464766603195348,621559,1671464766632362479,gps,2,1,42.3003258851,-83.698604401,271.02255249,0.000121,0.0,0.0,0.0,0.000121,0.0,0.0,0.0,0.001024,2
1671464766613116530,621560,1671464766642375726,gps,2,1,42.3003262186,-83.6986044019,271.023010254,0.000121,0.0,0.0,0.0,0.000121,0.0,0.0,0.0,0.001024,2
1671464766623791368,621561,1671464766652521458,gps,2,1,42.3003265506,-83.6986044022,271.023498535,0.000121,0.0,0.0,0.0,0.000121,0.0,0.0,0.0,0.001024,2
1671464766633089176,621562,1671464766662363575,gps,2,1,42.3003268847,-83.6986044029,271.024169922,0.000121,0.0,0.0,0.0,0.000121,0.0,0.0,0.0,0.001024,2
1671464766643754701,621563,1671464766672376318,gps,2,1,42.3003272196,-83.6986044038,271.024627686,0.000121,0.0,0.0,0.0,0.000121,0.0,0.0,0.0,0.001024,2
1671464766653528357,621564,1671464766682416196,gps,2,1,42.3003275534,-83.6986044046,271.025115967,0.000121,0.0,0.0,0.0,0.000121,0.0,0.0,0.0,0.001024,2
1671464766663499924,621565,1671464766692368395,gps,2,1,42.3003278891,-83.6986044053,271.025726318,0.000121,0.0,0.0,0.0,0.000121,0.0,0.0,0.0,0.001024,2
1671464766673490346,621566,1671464766702364339,gps,2,1,42.3003282258,-83.6986044063,271.026123047,0.000121,0.0,0.0,0.0,0.000121,0.0,0.0,0.0,0.001024,2
1671464766683405126,621567,1671464766712458359,gps,2,1,42.3003285611,-83.6986044074,271.026580811,0.000121,0.0,0.0,0.0,0.000121,0.0,0.0,0.0,0.001024,2
1671464766693385608,621568,1671464766722347905,gps,2,1,42.3003288986,-83.6986044081,271.027099609,0.000121,0.0,0.0,0.0,0.000121,0.0,0.0,0.0,0.001024,2
1671464766703321811,621569,1671464766732385396,gps,2,1,42.300329237,-83.698604409,271.027435303,0.000121,0.0,0.0,0.0,0.000121,0.0,0.0,0.0,0.001024,2
