%time,field.header.seq,field.header.stamp,field.header.frame_id,field.status.status,field.status.service,field.latitude,field.longitude,field.altitude,field.position_covariance0,field.position_covariance1,field.position_covariance2,field.position_covariance3,field.position_covariance4,field.position_covariance5,field.position_covariance6,field.position_covariance7,field.position_covariance8,field.position_covariance_type
1671466038743883831,748773,1671466038751066957,gps,2,1,42.3000735172,-83.6985722697,270.567352295,0.0001,0.0,0.0,0.0,0.000121,0.0,0.0,0.0,0.0009,2
1671466038753849724,748774,1671466038760914686,gps,2,1,42.3000735176,-83.6985722677,270.567169189,0.0001,0.0,0.0,0.0,0.000121,0.0,0.0,0.0,0.0009,2
1671466038763959912,748775,1671466038770923252,gps,2,1,42.3000735176,-83.6985722688,270.567169189,0.0001,0.0,0.0,0.0,0.000121,0.0,0.0,0.0,0.0009,2
1671466038773812899,748776,1671466038780959048,gps,2,1,42.3000735176,-83.6985722699,270.567169189,0.0001,0.0,0.0,0.0,0.000121,0.0,0.0,0.0,0.0009,2
1671466038783858214,748777,1671466038790915835,gps,2,1,42.3000735181,-83.698572268,270.566986084,0.0001,0.0,0.0,0.0,0.000121,0.0,0.0,0.0,0.0009,2
1671466038793710230,748778,1671466038800956392,gps,2,1,42.300073518,-83.6985722691,270.566955566,0.0001,0.0,0.0,0.0,0.000121,0.0,0.0,0.0,0.0009,2
1671466038803863686,748779,1671466038810911298,gps,2,1,42.3000735181,-83.6985722702,270.566955566,0.0001,0.0,0.0,0.0,0.000121,0.0,0.0,0.0,0.0009,2
1671466038813658871,748780,1671466038820904606,gps,2,1,42.3000735185,-83.6985722684,270.566772461,0.0001,0.0,0.0,0.0,0.000121,0.0,0.0,0.0,0.0009,2
1671466038823615047,748781,1671466038830903403,gps,2,1,42.3000735184,-83.6985722694,270.566772461,0.0001,0.0,0.0,0.0,0.000121,0.0,0.0,0.0,0.0009,2
1671466038834019113,748782,1671466038840959512,gps,2,1,42.3000735184,-83.6985722705,270.566772461,0.0001,0.0,0.0,0.0,0.000121,0.0,0.0,0.0,0.0009,2
1671466038843940349,748783,1671466038850903002,gps,2,1,42.3000735188,-83.6985722687,270.566589355,0.0001,0.0,0.0,0.0,0.000121,0.0,0.0,0.0,0.0009,2
1671466038853873343,748784,1671466038860990526,gps,2,1,42.3000735187,-83.6985722697,270.566589355,0.0001,0.0,0.0,0.0,0.000121,0.0,0.0,0.0,0.0009,2
1671466038863908154,748785,1671466038870964547,gps,2,1,42.3000735186,-83.6985722706,270.566558838,0.0001,0.0,0.0,0.0,0.000121,0.0,0.0,0.0,0.0009,2
1671466038873766222,748786,1671466038880898999,gps,2,1,42.300073519,-83.6985722688,270.56640625,0.0001,0.0,0.0,0.0,0.000121,0.0,0.0,0.0,0.0009,2
1671466038883663904,748787,1671466038890903987,gps,2,1,42.300073519,-83.6985722698,270.56640625,0.0001,0.0,0.0,0.0,0.000121,0.0,0.0,0.0,0.0009,2
1671466038893973048,748788,1671466038900986179,gps,2,1,42.3000735189,-83.6985722707,270.56640625,0.0001,0.0,0.0,0.0,0.000121,0.0,0.0,0.0,0.0009,2
1671466038903750776,748789,1671466038910909623,gps,2,1,42.3000735195,-83.6985722689,270.566223145,0.0001,0.0,0.0,0.0,0.000121,0.0,0.0,0.0,0.0009,2
1671466038913666634,748790,1671466038920892900,gps,2,1,42.3000735194,-83.6985722699,270.566223145,0.0001,0.0,0.0,0.0,0.000121,0.0,0.0,0.0,0.0009,2
1671466038923803090,748791,1671466038931053595,gps,2,1,42.3000735194,-83.6985722708,270.566223145,0.0001,0.0,0.0,0.0,0.000121,0.0,0.0,0.0,0.0009,2
1671466038933665523,748792,1671466038940893751,gps,2,1,42.3000735199,-83.6985722691,270.566040039,0.0001,0.0,0.0,0.0,0.000121,0.0,0.0,0.0,0.0009,2
1671466038943723049,748793,1671466038950888347,gps,2,1,42.3000735199,-83.6985722701,270.566040039,0.0001,0.0,0.0,0.0,0.000121,0.0,0.0,0.0,0.0009,2
1671466038953652951,748794,1671466038960957217,gps,2,1,42.3000735199,-83.6985722711,270.566040039,0.0001,0.0,0.0,0.0,0.000121,0.0,0.0,0.0,0.0009,2
1671466038963521507,748795,1671466038970903091,gps,2,1,42.3000735204,-83.6985722695,270.565856934,0.0001,0.0,0.0,0.0,0.000121,0.0,0.0,0.0,0.0009,2
1671466038974031789,748796,1671466038980897039,gps,2,1,42.3000735204,-83.6985722704,270.565856934,0.0001,0.0,0.0,0.0,0.000121,0.0,0.0,0.0,0.0009,2
1671466038983901614,748797,1671466038990958907,gps,2,1,42.3000735204,-83.6985722716,270.565856934,0.0001,0.0,0.0,0.0,0.000121,0.0,0.0,0.0,0.0009,2
1671466038993799493,748798,1671466039000987585,gps,2,1,42.3000735208,-83.69857227,270.565704346,0.0001,0.0,0.0,0.0,0.000121,0.0,0.0,0.0,0.0009,2
1671466039003783981,748799,1671466039010977217,gps,2,1,42.3000735208,-83.6985722712,270.565673828,0.0001,0.0,0.0,0.0,0.000121,0.0,0.0,0.0,0.0009,2
1671466039013964699,748800,1671466039020982596,gps,2,1,42.3000735207,-83.6985722723,270.565673828,0.0001,0.0,0.0,0.0,0.000121,0.0,0.0,0.0,0.0009,2
1671466039023802907,748801,1671466039030990782,gps,2,1,42.3000735211,-83.6985722709,270.56552124,0.0001,0.0,0.0,0.0,0.000121,0.0,0.0,0.0,0.0009,2
1671466039033762304,748802,1671466039041035182,gps,2,1,42.3000735211,-83.698572272,270.56552124,0.0001,0.0,0.0,0.0,0.000121,0.0,0.0,0.0,0.0009,2
1671466039043700509,748803,1671466039050934478,gps,2,1,42.300073521,-83.6985722732,270.56552124,0.0001,0.0,0.0,0.0,0.000121,0.0,0.0,0.0,0.0009,2
1671466039053565559,748804,1671466039060934042,gps,2,1,42.300073522,-83.6985722704,270.565307617,0.0001,0.0,0.0,0.0,0.000121,0.0,0.0,0.0,0.0009,2
1671466039063707172,748805,1671466039071014451,gps,2,1,42.300073522,-83.6985722715,270.565307617,0.0001,0.0,0.0,0.0,0.000121,0.0,0.0,0.0,0.0009,2
1671466039073590523,748806,1671466039080906673,gps,2,1,42.3000735219,-83.6985722725,270.5652771,0.0001,0.0,0.0,0.0,0.000121,0.0,0.0,0.0,0.0009,2
1671466039083530747,748807,1671466039090986644,gps,2,1,42.300073523,-83.6985722698,270.565093994,0.0001,0.0,0.0,0.0,0.000121,0.0,0.0,0.0,0.0009,2
1671466039093714875,748808,1671466039100966033,gps,2,1,42.3000735229,-83.6985722706,270.565093994,0.0001,0.0,0.0,0.0,0.000121,0.0,0.0,0.0,0.0009,2
1671466039103978744,748809,1671466039110906996,gps,2,1,42.3000735229,-83.6985722717,270.565063477,0.0001,0.0,0.0,0.0,0.000121,0.0,0.0,0.0,0.0009,2
1671466039113847865,748810,1671466039120924404,gps,2,1,42.3000735239,-83.6985722689,270.564910889,0.0001,0.0,0.0,0.0,0.000121,0.0,0.0,0.0,0.0009,2
1671466039123972966,748811,1671466039131000882,gps,2,1,42.3000735238,-83.6985722698,270.564880371,0.0001,0.0,0.0,0.0,0.000121,0.0,0.0,0.0,0.0009,2
1671466039133739547,748812,1671466039141024553,gps,2,1,42.3000735238,-83.6985722706,270.564910889,0.0001,0.0,0.0,0.0,0.000121,0.0,0.0,0.0,0.0009,2
1671466039143859019,748813,1671466039150897503,gps,2,1,42.3000735247,-83.6985722678,270.564727783,0.0001,0.0,0.0,0.0,0.000121,0.0,0.0,0.0,0.0009,2
1671466039153728673,748814,1671466039160955988,gps,2,1,42.3000735246,-83.6985722686,270.564727783,0.0001,0.0,0.0,0.0,0.000121,0.0,0.0,0.0,0.0009,2
1671466039163776312,748815,1671466039170911371,gps,2,1,42.3000735245,-83.6985722693,270.564727783,0.0001,0.0,0.0,0.0,0.000121,0.0,0.0,0.0,0.0009,2
1671466039173750039,748816,1671466039180982328,gps,2,1,42.3000735255,-83.6985722666,270.564575195,0.0001,0.0,0.0,0.0,0.000121,0.0,0.0,0.0,0.0009,2
1671466039183586479,748817,1671466039190892643,gps,2,1,42.3000735254,-83.6985722673,270.564575195,0.0001,0.0,0.0,0.0,0.000121,0.0,0.0,0.0,0.0009,2
1671466039193880810,748818,1671466039200954079,gps,2,1,42.3000735254,-83.698572268,270.564575195,0.0001,0.0,0.0,0.0,0.000121,0.0,0.0,0.0,0.0009,2
1671466039203674754,748819,1671466039210893661,gps,2,1,42.3000735263,-83.6985722654,270.56439209,0.0001,0.0,0.0,0.0,0.000121,0.0,0.0,0.0,0.0009,2
1671466039213813527,748820,1671466039220914764,gps,2,1,42.3000735262,-83.6985722662,270.56439209,0.0001,0.0,0.0,0.0,0.000121,0.0,0.0,0.0,0.0009,2
1671466039223709542,748821,1671466039230971497,gps,2,1,42.3000735262,-83.6985722669,270.56439209,0.0001,0.0,0.0,0.0,0.000121,0.0,0.0,0.0,0.0009,2
1671466039233540419,748822,1671466039240897288,gps,2,1,42.3000735271,-83.6985722644,270.564208984,0.0001,0.0,0.0,0.0,0.000121,0.0,0.0,0.0,0.0009,2
1671466039244064939,748823,1671466039251047423,gps,2,1,42.3000735271,-83.6985722653,270.564208984,0.0001,0.0,0.0,0.0,0.000121,0.0,0.0,0.0,0.0009,2
1671466039253589665,748824,1671466039260918881,gps,2,1,42.300073527,-83.6985722661,270.564208984,0.0001,0.0,0.0,0.0,0.000121,0.0,0.0,0.0,0.0009,2
1671466039263572989,748825,1671466039270935313,gps,2,1,42.3000735279,-83.6985722639,270.564056396,0.0001,0.0,0.0,0.0,0.000121,0.0,0.0,0.0,0.0009,2
1671466039274029861,748826,1671466039280964752,gps,2,1,42.3000735279,-83.6985722648,270.564025879,0.0001,0.0,0.0,0.0,0.000121,0.0,0.0,0.0,0.0009,2
1671466039283828639,748827,1671466039290916257,gps,2,1,42.3000735279,-83.6985722657,270.564025879,0.0001,0.0,0.0,0.0,0.000121,0.0,0.0,0.0,0.0009,2
1671466039293766957,748828,1671466039300935345,gps,2,1,42.3000735287,-83.6985722636,270.563873291,0.0001,0.0,0.0,0.0,0.000121,0.0,0.0,0.0,0.0009,2
1671466039304323173,748829,1671466039310975609,gps,2,1,42.3000735287,-83.6985722646,270.563873291,0.0001,0.0,0.0,0.0,0.000121,0.0,0.0,0.0,0.0009,2
1671466039313674252,748830,1671466039320910732,gps,2,1,42.3000735287,-83.6985722656,270.563842773,0.0001,0.0,0.0,0.0,0.000121,0.0,0.0,0.0,0.0009,2
1671466039323641528,748831,1671466039330909488,gps,2,1,42.3000735295,-83.6985722636,270.563720703,0.0001,0.0,0.0,0.0,0.000121,0.0,0.0,0.0,0.0009,2
1671466039333630103,748832,1671466039340886882,gps,2,1,42.3000735295,-83.6985722647,270.563720703,0.0001,0.0,0.0,0.0,0.000121,0.0,0.0,0.0,0.0009,2
1671466039343762919,748833,1671466039350947506,gps,2,1,42.3000735295,-83.6985722658,270.563720703,0.0001,0.0,0.0,0.0,0.000121,0.0,0.0,0.0,0.0009,2
1671466039353746940,748834,1671466039360893950,gps,2,1,42.3000735303,-83.6985722639,270.563598633,0.0001,0.0,0.0,0.0,0.000121,0.0,0.0,0.0,0.0009,2
1671466039363730325,748835,1671466039370892970,gps,2,1,42.3000735303,-83.6985722651,270.563568115,0.0001,0.0,0.0,0.0,0.000121,0.0,0.0,0.0,0.0009,2
1671466039373615907,748836,1671466039380973726,gps,2,1,42.3000735302,-83.6985722662,270.563568115,0.0001,0.0,0.0,0.0,0.000121,0.0,0.0,0.0,0.0009,2
1671466039384020955,748837,1671466039390898045,gps,2,1,42.3000735308,-83.6985722644,270.563446045,0.0001,0.0,0.0,0.0,0.000121,0.0,0.0,0.0,0.0009,2
1671466039394033328,748838,1671466039400924916,gps,2,1,42.3000735308,-83.6985722656,270.563446045,0.0001,0.0,0.0,0.0,0.000121,0.0,0.0,0.0,0.0009,2
1671466039404041226,748839,1671466039410969730,gps,2,1,42.3000735308,-83.6985722667,270.563415527,0.0001,0.0,0.0,0.0,0.000121,0.0,0.0,0.0,0.0009,2
1671466039413602690,748840,1671466039420908009,gps,2,1,42.3000735314,-83.698572265,270.563293457,0.0001,0.0,0.0,0.0,0.000121,0.0,0.0,0.0,0.0009,2
1671466039423845044,748841,1671466039431036487,gps,2,1,42.3000735314,-83.6985722662,270.563293457,0.0001,0.0,0.0,0.0,0.000121,0.0,0.0,0.0,0.0009,2
1671466039434007793,748842,1671466039440901294,gps,2,1,42.3000735313,-83.6985722674,270.563262939,0.0001,0.0,0.0,0.0,0.000121,0.0,0.0,0.0,0.0009,2
1671466039443935871,748843,1671466039450913660,gps,2,1,42.3000735319,-83.6985722658,270.563140869,0.0001,0.0,0.0,0.0,0.000121,0.0,0.0,0.0,0.0009,2
1671466039453850907,748844,1671466039460951197,gps,2,1,42.3000735319,-83.6985722669,270.563140869,0.0001,0.0,0.0,0.0,0.000121,0.0,0.0,0.0,0.0009,2
1671466039464124053,748845,1671466039470976058,gps,2,1,42.3000735318,-83.6985722681,270.563140869,0.0001,0.0,0.0,0.0,0.000121,0.0,0.0,0.0,0.0009,2
1671466039473765896,748846,1671466039480925460,gps,2,1,42.3000735325,-83.6985722665,270.563018799,0.0001,0.0,0.0,0.0,0.000121,0.0,0.0,0.0,0.0009,2
1671466039483708513,748847,1671466039490895849,gps,2,1,42.3000735324,-83.6985722676,270.562988281,0.0001,0.0,0.0,0.0,0.000121,0.0,0.0,0.0,0.0009,2
1671466039493991903,748848,1671466039501055787,gps,2,1,42.3000735324,-83.6985722688,270.562988281,0.0001,0.0,0.0,0.0,0.000121,0.0,0.0,0.0,0.0009,2
1671466039503711471,748849,1671466039510983763,gps,2,1,42.300073533,-83.6985722672,270.562866211,0.0001,0.0,0.0,0.0,0.000121,0.0,0.0,0.0,0.0009,2
1671466039513639180,748850,1671466039520964706,gps,2,1,42.300073533,-83.6985722682,270.562866211,0.0001,0.0,0.0,0.0,0.000121,0.0,0.0,0.0,0.0009,2
1671466039524092744,748851,1671466039531031656,gps,2,1,42.300073533,-83.6985722693,270.562866211,0.0001,0.0,0.0,0.0,0.000121,0.0,0.0,0.0,0.0009,2
1671466039534107518,748852,1671466039540949684,gps,2,1,42.3000735336,-83.6985722678,270.562744141,0.0001,0.0,0.0,0.0,0.000121,0.0,0.0,0.0,0.0009,2
1671466039544106839,748853,1671466039550967962,gps,2,1,42.3000735335,-83.6985722687,270.562713623,0.0001,0.0,0.0,0.0,0.000121,0.0,0.0,0.0,0.0009,2
1671466039553891155,748854,1671466039561041458,gps,2,1,42.3000735335,-83.6985722697,270.562713623,0.0001,0.0,0.0,0.0,0.000121,0.0,0.0,0.0,0.0009,2
1671466039564075027,748855,1671466039570917521,gps,2,1,42.300073533,-83.698572267,270.562591553,0.0001,0.0,0.0,0.0,0.000121,0.0,0.0,0.0,0.0009,2
1671466039573722753,748856,1671466039580926105,gps,2,1,42.300073533,-83.6985722678,270.562561035,0.0001,0.0,0.0,0.0,0.000121,0.0,0.0,0.0,0.0009,2
1671466039583767730,748857,1671466039591004359,gps,2,1,42.3000735329,-83.6985722687,270.562561035,0.0001,0.0,0.0,0.0,0.000121,0.0,0.0,0.0,0.0009,2
1671466039593823174,748858,1671466039600922667,gps,2,1,42.3000735324,-83.698572266,270.562438965,0.0001,0.0,0.0,0.0,0.000121,0.0,0.0,0.0,0.0009,2
1671466039603747163,748859,1671466039610963770,gps,2,1,42.3000735322,-83.6985722667,270.562438965,0.0001,0.0,0.0,0.0,0.000121,0.0,0.0,0.0,0.0009,2
1671466039613770638,748860,1671466039620904481,gps,2,1,42.3000735322,-83.6985722676,270.562408447,0.0001,0.0,0.0,0.0,0.000121,0.0,0.0,0.0,0.0009,2
1671466039623904428,748861,1671466039630885795,gps,2,1,42.3000735316,-83.6985722649,270.562286377,0.0001,0.0,0.0,0.0,0.000121,0.0,0.0,0.0,0.0009,2
1671466039633663117,748862,1671466039640885654,gps,2,1,42.3000735315,-83.6985722656,270.562225342,0.0001,0.0,0.0,0.0,0.000121,0.0,0.0,0.0,0.0009,2
1671466039643780850,748863,1671466039650960981,gps,2,1,42.3000735313,-83.6985722665,270.562225342,0.0001,0.0,0.0,0.0,0.000121,0.0,0.0,0.0,0.0009,2
1671466039653698288,748864,1671466039660882354,gps,2,1,42.3000735307,-83.6985722637,270.562133789,0.0001,0.0,0.0,0.0,0.000121,0.0,0.0,0.0,0.0009,2
1671466039663574955,748865,1671466039670891458,gps,2,1,42.3000735305,-83.6985722645,270.562072754,0.0001,0.0,0.0,0.0,0.000121,0.0,0.0,0.0,0.0009,2
1671466039673999502,748866,1671466039681032170,gps,2,1,42.3000735304,-83.6985722652,270.562042236,0.0001,0.0,0.0,0.0,0.000121,0.0,0.0,0.0,0.0009,2
1671466039683947547,748867,1671466039690906390,gps,2,1,42.3000735297,-83.6985722626,270.561950684,0.0001,0.0,0.0,0.0,0.000121,0.0,0.0,0.0,0.0009,2
1671466039694001691,748868,1671466039700890821,gps,2,1,42.3000735295,-83.6985722633,270.561920166,0.0001,0.0,0.0,0.0,0.000121,0.0,0.0,0.0,0.0009,2
1671466039703635807,748869,1671466039710953632,gps,2,1,42.3000735293,-83.6985722641,270.561889648,0.0001,0.0,0.0,0.0,0.000121,0.0,0.0,0.0,0.0009,2
1671466039714199050,748870,1671466039720893074,gps,2,1,42.3000735287,-83.6985722616,270.561798096,0.0001,0.0,0.0,0.0,0.000121,0.0,0.0,0.0,0.0009,2
1671466039723833500,748871,1671466039730889325,gps,2,1,42.3000735285,-83.6985722623,270.561798096,0.0001,0.0,0.0,0.0,0.000121,0.0,0.0,0.0,0.0009,2
1671466039733738236,748872,1671466039740945283,gps,2,1,42.3000735283,-83.6985722632,270.561767578,0.0001,0.0,0.0,0.0,0.000121,0.0,0.0,0.0,0.0009,2
1671466039743781960,748873,1671466039750985873,gps,2,1,42.3000735277,-83.6985722608,270.561676025,0.0001,0.0,0.0,0.0,0.000121,0.0,0.0,0.0,0.0009,2
1671466039753842417,748874,1671466039760951053,gps,2,1,42.3000735275,-83.6985722616,270.561645508,0.0001,0.0,0.0,0.0,0.000121,0.0,0.0,0.0,0.0009,2
1671466039763729888,748875,1671466039770896419,gps,2,1,42.3000735272,-83.6985722625,270.561645508,0.0001,0.0,0.0,0.0,0.000121,0.0,0.0,0.0,0.0009,2
1671466039773720797,748876,1671466039780872655,gps,2,1,42.3000735266,-83.6985722603,270.561553955,0.0001,0.0,0.0,0.0,0.000121,0.0,0.0,0.0,0.0009,2
1671466039783562588,748877,1671466039790883926,gps,2,1,42.3000735264,-83.6985722612,270.561553955,0.0001,0.0,0.0,0.0,0.000121,0.0,0.0,0.0,0.0009,2
1671466039793607517,748878,1671466039800945648,gps,2,1,42.3000735262,-83.6985722621,270.561553955,0.0001,0.0,0.0,0.0,0.000121,0.0,0.0,0.0,0.0009,2
1671466039803556334,748879,1671466039810872514,gps,2,1,42.3000735257,-83.6985722599,270.56149292,0.0001,0.0,0.0,0.0,0.000121,0.0,0.0,0.0,0.0009,2
1671466039813470920,748880,1671466039820887294,gps,2,1,42.3000735263,-83.6985722602,270.56149292,0.0001,0.0,0.0,0.0,0.000121,0.0,0.0,0.0,0.0009,2
1671466039823879128,748881,1671466039830939620,gps,2,1,42.3000735251,-83.6985722618,270.56149292,0.0001,0.0,0.0,0.0,0.000121,0.0,0.0,0.0,0.0009,2
1671466039833791626,748882,1671466039840879795,gps,2,1,42.3000735245,-83.69857226,270.561401367,0.0001,0.0,0.0,0.0,0.000121,0.0,0.0,0.0,0.0009,2
1671466039843919219,748883,1671466039850888425,gps,2,1,42.3000735251,-83.6985722601,270.561401367,0.0001,0.0,0.0,0.0,0.000121,0.0,0.0,0.0,0.0009,2
1671466039854013361,748884,1671466039861028516,gps,2,1,42.3000735234,-83.6985722621,270.561401367,0.0001,0.0,0.0,0.0,0.000121,0.0,0.0,0.0,0.0009,2
1671466039863753600,748885,1671466039870887398,gps,2,1,42.3000735232,-83.6985722601,270.561309814,0.0001,0.0,0.0,0.0,0.000121,0.0,0.0,0.0,0.0009,2
1671466039873837464,748886,1671466039880879251,gps,2,1,42.3000735224,-83.6985722609,270.561309814,0.0001,0.0,0.0,0.0,0.000121,0.0,0.0,0.0,0.0009,2
1671466039883680253,748887,1671466039890966976,gps,2,1,42.3000735223,-83.6985722626,270.561279297,0.0001,0.0,0.0,0.0,0.000121,0.0,0.0,0.0,0.0009,2
1671466039893805717,748888,1671466039900876463,gps,2,1,42.3000735219,-83.6985722605,270.561218262,0.0001,0.0,0.0,0.0,0.000121,0.0,0.0,0.0,0.0009,2
1671466039903687803,748889,1671466039910934482,gps,2,1,42.3000735219,-83.6985722618,270.561218262,0.0001,0.0,0.0,0.0,0.000121,0.0,0.0,0.0,0.0009,2
1671466039913913561,748890,1671466039920870044,gps,2,1,42.3000735221,-83.6985722623,270.561187744,0.0001,0.0,0.0,0.0,0.000121,0.0,0.0,0.0,0.0009,2
1671466039923733908,748891,1671466039930953789,gps,2,1,42.3000735218,-83.6985722605,270.561126709,0.0001,0.0,0.0,0.0,0.000121,0.0,0.0,0.0,0.0009,2
1671466039933560382,748892,1671466039940867918,gps,2,1,42.3000735219,-83.6985722611,270.561096191,0.0001,0.0,0.0,0.0,0.000121,0.0,0.0,0.0,0.0009,2
1671466039943744981,748893,1671466039950940710,gps,2,1,42.3000735217,-83.6985722615,270.561065674,0.0001,0.0,0.0,0.0,0.000121,0.0,0.0,0.0,0.0009,2
1671466039953518829,748894,1671466039960872715,gps,2,1,42.3000735214,-83.6985722598,270.560974121,0.0001,0.0,0.0,0.0,0.000121,0.0,0.0,0.0,0.0009,2
1671466039963564460,748895,1671466039970879857,gps,2,1,42.3000735213,-83.6985722601,270.560974121,0.0001,0.0,0.0,0.0,0.000121,0.0,0.0,0.0,0.0009,2
1671466039973936850,748896,1671466039980937149,gps,2,1,42.3000735212,-83.6985722612,270.560943604,0.0001,0.0,0.0,0.0,0.000121,0.0,0.0,0.0,0.0009,2
1671466039983818750,748897,1671466039990880551,gps,2,1,42.3000735208,-83.6985722593,270.560882568,0.0001,0.0,0.0,0.0,0.000121,0.0,0.0,0.0,0.0009,2
1671466039993802013,748898,1671466040000965556,gps,2,1,42.3000735208,-83.6985722602,270.560882568,0.0001,0.0,0.0,0.0,0.000121,0.0,0.0,0.0,0.0009,2
1671466040003902386,748899,1671466040011079389,gps,2,1,42.3000735207,-83.6985722611,270.560852051,0.0001,0.0,0.0,0.0,0.000121,0.0,0.0,0.0,0.0009,2
1671466040013925377,748900,1671466040020956225,gps,2,1,42.3000735198,-83.698572258,270.560943604,0.0001,0.0,0.0,0.0,0.000121,0.0,0.0,0.0,0.0009,2
1671466040024158283,748901,1671466040030986594,gps,2,1,42.3000735196,-83.6985722588,270.560943604,0.0001,0.0,0.0,0.0,0.000121,0.0,0.0,0.0,0.0009,2
1671466040033959548,748902,1671466040040975776,gps,2,1,42.3000735196,-83.6985722593,270.560943604,0.0001,0.0,0.0,0.0,0.000121,0.0,0.0,0.0,0.0009,2
1671466040043880367,748903,1671466040050934812,gps,2,1,42.3000735187,-83.6985722564,270.561035156,0.0001,0.0,0.0,0.0,0.000121,0.0,0.0,0.0,0.0009,2
1671466040053982736,748904,1671466040060935300,gps,2,1,42.3000735186,-83.698572257,270.561035156,0.0001,0.0,0.0,0.0,0.000121,0.0,0.0,0.0,0.0009,2
1671466040063780506,748905,1671466040070922510,gps,2,1,42.3000735186,-83.6985722575,270.561035156,0.0001,0.0,0.0,0.0,0.000121,0.0,0.0,0.0,0.0009,2
1671466040073655019,748906,1671466040080925846,gps,2,1,42.3000735177,-83.6985722547,270.561126709,0.0001,0.0,0.0,0.0,0.000121,0.0,0.0,0.0,0.0009,2
1671466040083774488,748907,1671466040090990005,gps,2,1,42.3000735177,-83.6985722553,270.561096191,0.0001,0.0,0.0,0.0,0.000121,0.0,0.0,0.0,0.0009,2
1671466040094036823,748908,1671466040100984251,gps,2,1,42.3000735175,-83.698572256,270.561096191,0.0001,0.0,0.0,0.0,0.000121,0.0,0.0,0.0,0.0009,2
1671466040103909197,748909,1671466040110885905,gps,2,1,42.3000735167,-83.6985722533,270.561187744,0.0001,0.0,0.0,0.0,0.000121,0.0,0.0,0.0,0.0009,2
1671466040113541276,748910,1671466040120893289,gps,2,1,42.3000735166,-83.6985722541,270.561157227,0.0001,0.0,0.0,0.0,0.000121,0.0,0.0,0.0,0.0009,2
1671466040124041304,748911,1671466040130954629,gps,2,1,42.3000735164,-83.6985722548,270.561157227,0.0001,0.0,0.0,0.0,0.000121,0.0,0.0,0.0,0.0009,2
1671466040133849472,748912,1671466040140883153,gps,2,1,42.3000735157,-83.6985722522,270.561187744,0.0001,0.0,0.0,0.0,0.000121,0.0,0.0,0.0,0.0009,2
1671466040143996942,748913,1671466040150883783,gps,2,1,42.3000735155,-83.6985722531,270.561187744,0.0001,0.0,0.0,0.0,0.000121,0.0,0.0,0.0,0.0009,2
1671466040153784981,748914,1671466040160948462,gps,2,1,42.3000735154,-83.6985722538,270.561157227,0.0001,0.0,0.0,0.0,0.000121,0.0,0.0,0.0,0.0009,2
1671466040163826069,748915,1671466040170878111,gps,2,1,42.3000735146,-83.6985722513,270.561218262,0.0001,0.0,0.0,0.0,0.000121,0.0,0.0,0.0,0.0009,2
1671466040173792242,748916,1671466040180975355,gps,2,1,42.3000735144,-83.6985722522,270.561187744,0.0001,0.0,0.0,0.0,0.000121,0.0,0.0,0.0,0.0009,2
1671466040183677793,748917,1671466040190955735,gps,2,1,42.3000735143,-83.6985722529,270.561157227,0.0001,0.0,0.0,0.0,0.000121,0.0,0.0,0.0,0.0009,2
1671466040193684284,748918,1671466040200863093,gps,2,1,42.3000735135,-83.6985722506,270.561218262,0.0001,0.0,0.0,0.0,0.000121,0.0,0.0,0.0,0.0009,2
1671466040203669077,748919,1671466040210875181,gps,2,1,42.3000735133,-83.6985722513,270.561187744,0.0001,0.0,0.0,0.0,0.000121,0.0,0.0,0.0,0.0009,2
1671466040213657245,748920,1671466040220945161,gps,2,1,42.3000735132,-83.6985722522,270.561187744,0.0001,0.0,0.0,0.0,0.000121,0.0,0.0,0.0,0.0009,2
1671466040223507932,748921,1671466040230872995,gps,2,1,42.3000735124,-83.6985722499,270.561218262,0.0001,0.0,0.0,0.0,0.000121,0.0,0.0,0.0,0.0009,2
1671466040233606417,748922,1671466040240887750,gps,2,1,42.3000735123,-83.6985722506,270.561218262,0.0001,0.0,0.0,0.0,0.000121,0.0,0.0,0.0,0.0009,2
1671466040244045845,748923,1671466040251015996,gps,2,1,42.3000735121,-83.6985722515,270.561218262,0.0001,0.0,0.0,0.0,0.000121,0.0,0.0,0.0,0.0009,2
1671466040253880900,748924,1671466040260880152,gps,2,1,42.3000735114,-83.6985722492,270.561248779,4.9e-05,0.0,0.0,0.0,8.1e-05,0.0,0.0,0.0,0.0009,2
1671466040263835014,748925,1671466040270902172,gps,2,1,42.3000735113,-83.6985722499,270.561248779,4.9e-05,0.0,0.0,0.0,8.1e-05,0.0,0.0,0.0,0.0009,2
1671466040273898644,748926,1671466040280941097,gps,2,1,42.3000735112,-83.6985722507,270.561248779,4.9e-05,0.0,0.0,0.0,8.1e-05,0.0,0.0,0.0,0.0009,2
1671466040283824158,748927,1671466040290872037,gps,2,1,42.3000735105,-83.6985722484,270.561309814,4.9e-05,0.0,0.0,0.0,8.1e-05,0.0,0.0,0.0,0.0009,2
1671466040293786223,748928,1671466040300887042,gps,2,1,42.3000735105,-83.6985722491,270.561279297,4.9e-05,0.0,0.0,0.0,8.1e-05,0.0,0.0,0.0,0.0009,2
1671466040303763574,748929,1671466040310952347,gps,2,1,42.3000735104,-83.6985722498,270.561279297,4.9e-05,0.0,0.0,0.0,8.1e-05,0.0,0.0,0.0,0.0009,2
1671466040313654390,748930,1671466040320897503,gps,2,1,42.3000735097,-83.6985722475,270.561340332,4.9e-05,0.0,0.0,0.0,8.1e-05,0.0,0.0,0.0,0.0009,2
1671466040323637183,748931,1671466040330899380,gps,2,1,42.3000735097,-83.6985722482,270.561340332,4.9e-05,0.0,0.0,0.0,8.1e-05,0.0,0.0,0.0,0.0009,2
1671466040333691422,748932,1671466040340945820,gps,2,1,42.3000735096,-83.6985722488,270.561340332,4.9e-05,0.0,0.0,0.0,8.1e-05,0.0,0.0,0.0,0.0009,2
1671466040343709705,748933,1671466040350872587,gps,2,1,42.3000735089,-83.6985722467,270.56137085,4.9e-05,0.0,0.0,0.0,8.1e-05,0.0,0.0,0.0,0.0009,2
1671466040353592093,748934,1671466040360879135,gps,2,1,42.3000735088,-83.6985722473,270.56137085,4.9e-05,0.0,0.0,0.0,8.1e-05,0.0,0.0,0.0,0.0009,2
1671466040363545841,748935,1671466040370942072,gps,2,1,42.3000735087,-83.6985722479,270.56137085,4.9e-05,0.0,0.0,0.0,8.1e-05,0.0,0.0,0.0,0.0009,2
1671466040373518818,748936,1671466040380878103,gps,2,1,42.3000735081,-83.6985722459,270.561431885,4.9e-05,0.0,0.0,0.0,8.1e-05,0.0,0.0,0.0,0.0009,2
1671466040384076701,748937,1671466040390956038,gps,2,1,42.300073508,-83.6985722466,270.561401367,4.9e-05,0.0,0.0,0.0,8.1e-05,0.0,0.0,0.0,0.0009,2
1671466040393956221,748938,1671466040400940209,gps,2,1,42.3000735079,-83.6985722472,270.561401367,4.9e-05,0.0,0.0,0.0,8.1e-05,0.0,0.0,0.0,0.0009,2
1671466040403955130,748939,1671466040410912940,gps,2,1,42.3000735072,-83.6985722452,270.561431885,4.9e-05,0.0,0.0,0.0,8.1e-05,0.0,0.0,0.0,0.0009,2
1671466040413998954,748940,1671466040420888611,gps,2,1,42.3000735071,-83.6985722459,270.561431885,4.9e-05,0.0,0.0,0.0,8.1e-05,0.0,0.0,0.0,0.0009,2
1671466040423916739,748941,1671466040431029024,gps,2,1,42.300073507,-83.6985722466,270.561401367,4.9e-05,0.0,0.0,0.0,8.1e-05,0.0,0.0,0.0,0.0009,2
1671466040433632248,748942,1671466040440882243,gps,2,1,42.3000735064,-83.6985722447,270.561431885,4.9e-05,0.0,0.0,0.0,8.1e-05,0.0,0.0,0.0,0.0009,2
1671466040443727952,748943,1671466040450881876,gps,2,1,42.3000735062,-83.6985722453,270.561401367,4.9e-05,0.0,0.0,0.0,8.1e-05,0.0,0.0,0.0,0.0009,2
1671466040453763560,748944,1671466040460928044,gps,2,1,42.3000735061,-83.698572246,270.561401367,4.9e-05,0.0,0.0,0.0,8.1e-05,0.0,0.0,0.0,0.0009,2
1671466040463723314,748945,1671466040470910855,gps,2,1,42.3000735056,-83.6985722441,270.561431885,4.9e-05,0.0,0.0,0.0,8.1e-05,0.0,0.0,0.0,0.0009,2
1671466040473744489,748946,1671466040480891414,gps,2,1,42.3000735055,-83.6985722447,270.561401367,4.9e-05,0.0,0.0,0.0,8.1e-05,0.0,0.0,0.0,0.0009,2
1671466040483707955,748947,1671466040490917836,gps,2,1,42.3000735054,-83.6985722454,270.561401367,4.9e-05,0.0,0.0,0.0,8.1e-05,0.0,0.0,0.0,0.0009,2
1671466040493753896,748948,1671466040500866267,gps,2,1,42.3000735049,-83.6985722435,270.561401367,4.9e-05,0.0,0.0,0.0,8.1e-05,0.0,0.0,0.0,0.0009,2
1671466040504097553,748949,1671466040511088566,gps,2,1,42.3000735048,-83.698572244,270.561401367,4.9e-05,0.0,0.0,0.0,8.1e-05,0.0,0.0,0.0,0.0009,2
1671466040514089490,748950,1671466040520984272,gps,2,1,42.3000735047,-83.6985722447,270.561401367,4.9e-05,0.0,0.0,0.0,8.1e-05,0.0,0.0,0.0,0.0009,2
1671466040523682408,748951,1671466040530886160,gps,2,1,42.3000735048,-83.6985722411,270.561401367,4.9e-05,0.0,0.0,0.0,8.1e-05,0.0,0.0,0.0,0.0009,2
1671466040533972314,748952,1671466040540987260,gps,2,1,42.3000735048,-83.6985722416,270.56137085,4.9e-05,0.0,0.0,0.0,8.1e-05,0.0,0.0,0.0,0.0009,2
1671466040543956347,748953,1671466040550965604,gps,2,1,42.3000735047,-83.6985722422,270.56137085,4.9e-05,0.0,0.0,0.0,8.1e-05,0.0,0.0,0.0,0.0009,2
1671466040553902122,748954,1671466040560928089,gps,2,1,42.3000735048,-83.6985722387,270.56137085,4.9e-05,0.0,0.0,0.0,8.1e-05,0.0,0.0,0.0,0.0009,2
1671466040563716946,748955,1671466040570949142,gps,2,1,42.3000735048,-83.6985722392,270.56137085,4.9e-05,0.0,0.0,0.0,8.1e-05,0.0,0.0,0.0,0.0009,2
1671466040573836890,748956,1671466040580871277,gps,2,1,42.3000735047,-83.6985722397,270.56137085,4.9e-05,0.0,0.0,0.0,8.1e-05,0.0,0.0,0.0,0.0009,2
1671466040583627014,748957,1671466040590876397,gps,2,1,42.3000735049,-83.6985722363,270.56137085,4.9e-05,0.0,0.0,0.0,8.1e-05,0.0,0.0,0.0,0.0009,2
1671466040593780012,748958,1671466040600891641,gps,2,1,42.3000735049,-83.6985722367,270.56137085,4.9e-05,0.0,0.0,0.0,8.1e-05,0.0,0.0,0.0,0.0009,2
1671466040603782380,748959,1671466040610942587,gps,2,1,42.300073505,-83.6985722372,270.56137085,4.9e-05,0.0,0.0,0.0,8.1e-05,0.0,0.0,0.0,0.0009,2
1671466040613784315,748960,1671466040620876234,gps,2,1,42.3000735051,-83.6985722338,270.56137085,4.9e-05,0.0,0.0,0.0,8.1e-05,0.0,0.0,0.0,0.0009,2
1671466040623655169,748961,1671466040630942093,gps,2,1,42.3000735052,-83.6985722341,270.56137085,4.9e-05,0.0,0.0,0.0,8.1e-05,0.0,0.0,0.0,0.0009,2
1671466040633597384,748962,1671466040640884902,gps,2,1,42.3000735053,-83.6985722345,270.56137085,4.9e-05,0.0,0.0,0.0,8.1e-05,0.0,0.0,0.0,0.0009,2
1671466040643593948,748963,1671466040650868414,gps,2,1,42.3000735055,-83.6985722311,270.56137085,4.9e-05,0.0,0.0,0.0,8.1e-05,0.0,0.0,0.0,0.0009,2
1671466040653589368,748964,1671466040660930818,gps,2,1,42.3000735056,-83.6985722314,270.56137085,4.9e-05,0.0,0.0,0.0,8.1e-05,0.0,0.0,0.0,0.0009,2
1671466040663536504,748965,1671466040670870594,gps,2,1,42.3000735057,-83.6985722317,270.56137085,4.9e-05,0.0,0.0,0.0,8.1e-05,0.0,0.0,0.0,0.0009,2
1671466040674041199,748966,1671466040680952282,gps,2,1,42.3000735059,-83.6985722284,270.56137085,4.9e-05,0.0,0.0,0.0,8.1e-05,0.0,0.0,0.0,0.0009,2
1671466040683935785,748967,1671466040690930239,gps,2,1,42.300073506,-83.6985722287,270.56137085,4.9e-05,0.0,0.0,0.0,8.1e-05,0.0,0.0,0.0,0.0009,2
1671466040694029200,748968,1671466040700866051,gps,2,1,42.3000735061,-83.6985722291,270.561340332,4.9e-05,0.0,0.0,0.0,8.1e-05,0.0,0.0,0.0,0.0009,2
1671466040703844621,748969,1671466040710860372,gps,2,1,42.3000735063,-83.6985722259,270.561340332,4.9e-05,0.0,0.0,0.0,8.1e-05,0.0,0.0,0.0,0.0009,2
1671466040713873933,748970,1671466040720929480,gps,2,1,42.3000735062,-83.6985722263,270.561309814,4.9e-05,0.0,0.0,0.0,8.1e-05,0.0,0.0,0.0,0.0009,2
1671466040723760005,748971,1671466040730870762,gps,2,1,42.3000735063,-83.6985722266,270.561309814,4.9e-05,0.0,0.0,0.0,8.1e-05,0.0,0.0,0.0,0.0009,2
1671466040733639908,748972,1671466040740862533,gps,2,1,42.3000735064,-83.6985722236,270.561279297,4.9e-05,0.0,0.0,0.0,8.1e-05,0.0,0.0,0.0,0.0009,2
1671466040743848705,748973,1671466040750866478,gps,2,1,42.3000735063,-83.6985722242,270.561248779,4.9e-05,0.0,0.0,0.0,8.1e-05,0.0,0.0,0.0,0.0009,2
1671466040753931749,748974,1671466040760967460,gps,2,1,42.3000735063,-83.6985722246,270.561248779,4.9e-05,0.0,0.0,0.0,8.1e-05,0.0,0.0,0.0,0.0009,2
1671466040763559919,748975,1671466040770888538,gps,2,1,42.3000735063,-83.6985722219,270.561218262,4.9e-05,0.0,0.0,0.0,8.1e-05,0.0,0.0,0.0,0.0009,2
1671466040773653147,748976,1671466040780909574,gps,2,1,42.300073506,-83.6985722225,270.561187744,4.9e-05,0.0,0.0,0.0,8.1e-05,0.0,0.0,0.0,0.0009,2
1671466040783560580,748977,1671466040790854799,gps,2,1,42.3000735059,-83.698572223,270.561187744,4.9e-05,0.0,0.0,0.0,8.1e-05,0.0,0.0,0.0,0.0009,2
1671466040793581435,748978,1671466040800854834,gps,2,1,42.3000735058,-83.6985722205,270.561157227,4.9e-05,0.0,0.0,0.0,8.1e-05,0.0,0.0,0.0,0.0009,2
1671466040803918472,748979,1671466040810940744,gps,2,1,42.3000735055,-83.6985722214,270.561126709,4.9e-05,0.0,0.0,0.0,8.1e-05,0.0,0.0,0.0,0.0009,2
1671466040813927074,748980,1671466040820865775,gps,2,1,42.3000735052,-83.698572222,270.561096191,4.9e-05,0.0,0.0,0.0,8.1e-05,0.0,0.0,0.0,0.0009,2
1671466040823579275,748981,1671466040830868709,gps,2,1,42.300073505,-83.6985722196,270.561096191,4.9e-05,0.0,0.0,0.0,8.1e-05,0.0,0.0,0.0,0.0009,2
1671466040834000312,748982,1671466040840919406,gps,2,1,42.3000735045,-83.6985722205,270.561096191,4.9e-05,0.0,0.0,0.0,8.1e-05,0.0,0.0,0.0,0.0009,2
1671466040844043415,748983,1671466040850864211,gps,2,1,42.3000735042,-83.6985722213,270.561065674,4.9e-05,0.0,0.0,0.0,8.1e-05,0.0,0.0,0.0,0.0009,2
1671466040853692317,748984,1671466040860872043,gps,2,1,42.3000735039,-83.698572219,270.561065674,4.9e-05,0.0,0.0,0.0,8.1e-05,0.0,0.0,0.0,0.0009,2
1671466040863809149,748985,1671466040870938243,gps,2,1,42.3000735034,-83.6985722198,270.561035156,4.9e-05,0.0,0.0,0.0,8.1e-05,0.0,0.0,0.0,0.0009,2
1671466040873864536,748986,1671466040880883850,gps,2,1,42.300073503,-83.6985722205,270.561035156,4.9e-05,0.0,0.0,0.0,8.1e-05,0.0,0.0,0.0,0.0009,2
1671466040883701014,748987,1671466040890861110,gps,2,1,42.3000735028,-83.6985722181,270.561035156,4.9e-05,0.0,0.0,0.0,8.1e-05,0.0,0.0,0.0,0.0009,2
1671466040893716918,748988,1671466040900864894,gps,2,1,42.3000735023,-83.6985722186,270.561004639,4.9e-05,0.0,0.0,0.0,8.1e-05,0.0,0.0,0.0,0.0009,2
1671466040903756341,748989,1671466040910916910,gps,2,1,42.3000735018,-83.6985722194,270.561004639,4.9e-05,0.0,0.0,0.0,8.1e-05,0.0,0.0,0.0,0.0009,2
1671466040913615483,748990,1671466040920851153,gps,2,1,42.3000735015,-83.6985722169,270.561004639,4.9e-05,0.0,0.0,0.0,8.1e-05,0.0,0.0,0.0,0.0009,2
1671466040923667307,748991,1671466040930955449,gps,2,1,42.300073501,-83.6985722173,270.560974121,4.9e-05,0.0,0.0,0.0,8.1e-05,0.0,0.0,0.0,0.0009,2
1671466040933541867,748992,1671466040940917218,gps,2,1,42.3000735005,-83.6985722178,270.560974121,4.9e-05,0.0,0.0,0.0,8.1e-05,0.0,0.0,0.0,0.0009,2
1671466040943576216,748993,1671466040950854247,gps,2,1,42.3000735002,-83.6985722153,270.560974121,4.9e-05,0.0,0.0,0.0,8.1e-05,0.0,0.0,0.0,0.0009,2
1671466040953915792,748994,1671466040960938314,gps,2,1,42.3000734996,-83.6985722155,270.560943604,4.9e-05,0.0,0.0,0.0,8.1e-05,0.0,0.0,0.0,0.0009,2
1671466040963831870,748995,1671466040970875881,gps,2,1,42.3000734991,-83.6985722159,270.560943604,4.9e-05,0.0,0.0,0.0,8.1e-05,0.0,0.0,0.0,0.0009,2
1671466040973815835,748996,1671466040980863528,gps,2,1,42.3000734987,-83.6985722132,270.560943604,4.9e-05,0.0,0.0,0.0,8.1e-05,0.0,0.0,0.0,0.0009,2
1671466040983904203,748997,1671466040990925161,gps,2,1,42.3000734982,-83.6985722134,270.560913086,4.9e-05,0.0,0.0,0.0,8.1e-05,0.0,0.0,0.0,0.0009,2
1671466040993971981,748998,1671466041000869191,gps,2,1,42.3000734975,-83.6985722136,270.560913086,4.9e-05,0.0,0.0,0.0,8.1e-05,0.0,0.0,0.0,0.0009,2
1671466041003832339,748999,1671466041010983703,gps,2,1,42.3000734972,-83.698572211,270.560882568,4.9e-05,0.0,0.0,0.0,8.1e-05,0.0,0.0,0.0,0.0009,2
1671466041014070276,749000,1671466041021021605,gps,2,1,42.3000734965,-83.6985722111,270.560852051,4.9e-05,0.0,0.0,0.0,8.1e-05,0.0,0.0,0.0,0.0009,2
1671466041023779664,749001,1671466041030942334,gps,2,1,42.3000734959,-83.6985722112,270.560852051,4.9e-05,0.0,0.0,0.0,8.1e-05,0.0,0.0,0.0,0.0009,2
1671466041033691960,749002,1671466041040918111,gps,2,1,42.3000734969,-83.6985722064,270.560668945,4.9e-05,0.0,0.0,0.0,8.1e-05,0.0,0.0,0.0,0.0009,2
1671466041043744282,749003,1671466041050930733,gps,2,1,42.3000734963,-83.6985722066,270.560638428,4.9e-05,0.0,0.0,0.0,8.1e-05,0.0,0.0,0.0,0.0009,2
1671466041053866928,749004,1671466041060921010,gps,2,1,42.3000734957,-83.6985722067,270.56060791,4.9e-05,0.0,0.0,0.0,8.1e-05,0.0,0.0,0.0,0.0009,2
1671466041064133702,749005,1671466041070902177,gps,2,1,42.3000734966,-83.6985722021,270.560424805,4.9e-05,0.0,0.0,0.0,8.1e-05,0.0,0.0,0.0,0.0009,2
1671466041073542420,749006,1671466041080930402,gps,2,1,42.300073496,-83.6985722023,270.560394287,4.9e-05,0.0,0.0,0.0,8.1e-05,0.0,0.0,0.0,0.0009,2
1671466041084079597,749007,1671466041090982352,gps,2,1,42.3000734953,-83.6985722025,270.56036377,4.9e-05,0.0,0.0,0.0,8.1e-05,0.0,0.0,0.0,0.0009,2
1671466041093643184,749008,1671466041100892513,gps,2,1,42.3000734962,-83.698572198,270.560211182,4.9e-05,0.0,0.0,0.0,8.1e-05,0.0,0.0,0.0,0.0009,2
1671466041104007410,749009,1671466041110921468,gps,2,1,42.3000734956,-83.6985721983,270.560211182,4.9e-05,0.0,0.0,0.0,8.1e-05,0.0,0.0,0.0,0.0009,2
1671466041113828192,749010,1671466041120872218,gps,2,1,42.300073495,-83.6985721986,270.560180664,4.9e-05,0.0,0.0,0.0,8.1e-05,0.0,0.0,0.0,0.0009,2
1671466041123551482,749011,1671466041130848830,gps,2,1,42.3000734959,-83.6985721943,270.560028076,4.9e-05,0.0,0.0,0.0,8.1e-05,0.0,0.0,0.0,0.0009,2
1671466041133693665,749012,1671466041140895855,gps,2,1,42.3000734953,-83.6985721947,270.560028076,4.9e-05,0.0,0.0,0.0,8.1e-05,0.0,0.0,0.0,0.0009,2
1671466041143856608,749013,1671466041150815215,gps,2,1,42.3000734948,-83.6985721949,270.560028076,4.9e-05,0.0,0.0,0.0,8.1e-05,0.0,0.0,0.0,0.0009,2
1671466041153729403,749014,1671466041160801766,gps,2,1,42.3000734957,-83.6985721908,270.559906006,4.9e-05,0.0,0.0,0.0,8.1e-05,0.0,0.0,0.0,0.0009,2
1671466041163629717,749015,1671466041170835585,gps,2,1,42.3000734953,-83.6985721911,270.559906006,4.9e-05,0.0,0.0,0.0,8.1e-05,0.0,0.0,0.0,0.0009,2
1671466041173745236,749016,1671466041181035994,gps,2,1,42.300073495,-83.6985721913,270.559906006,4.9e-05,0.0,0.0,0.0,8.1e-05,0.0,0.0,0.0,0.0009,2
1671466041183702343,749017,1671466041190867398,gps,2,1,42.300073496,-83.6985721874,270.559814453,4.9e-05,0.0,0.0,0.0,8.1e-05,0.0,0.0,0.0,0.0009,2
1671466041193743970,749018,1671466041200895076,gps,2,1,42.3000734958,-83.6985721876,270.559814453,4.9e-05,0.0,0.0,0.0,8.1e-05,0.0,0.0,0.0,0.0009,2
1671466041203677393,749019,1671466041210923903,gps,2,1,42.3000734955,-83.6985721879,270.559844971,4.9e-05,0.0,0.0,0.0,8.1e-05,0.0,0.0,0.0,0.0009,2
1671466041213614642,749020,1671466041220861481,gps,2,1,42.3000734967,-83.6985721841,270.5597229,4.9e-05,0.0,0.0,0.0,8.1e-05,0.0,0.0,0.0,0.0009,2
1671466041223706999,749021,1671466041230871017,gps,2,1,42.3000734967,-83.6985721845,270.5597229,4.9e-05,0.0,0.0,0.0,8.1e-05,0.0,0.0,0.0,0.0009,2
1671466041233933369,749022,1671466041240920371,gps,2,1,42.3000734965,-83.6985721848,270.559753418,4.9e-05,0.0,0.0,0.0,8.1e-05,0.0,0.0,0.0,0.0009,2
1671466041244112498,749023,1671466041250863841,gps,2,1,42.3000734979,-83.6985721812,270.559631348,4.9e-05,0.0,0.0,0.0,8.1e-05,0.0,0.0,0.0,0.0009,2
1671466041253943766,749024,1671466041260870254,gps,2,1,42.3000734979,-83.6985721818,270.55960083,0.0001,0.0,0.0,0.0,0.000121,0.0,0.0,0.0,0.000961,2
1671466041263560062,749025,1671466041270930057,gps,2,1,42.300073498,-83.6985721821,270.55960083,0.0001,0.0,0.0,0.0,0.000121,0.0,0.0,0.0,0.000961,2
1671466041273862360,749026,1671466041280869627,gps,2,1,42.3000734993,-83.6985721788,270.55947876,0.0001,0.0,0.0,0.0,0.000121,0.0,0.0,0.0,0.000961,2
1671466041283824429,749027,1671466041290864902,gps,2,1,42.3000734995,-83.6985721793,270.559448242,0.0001,0.0,0.0,0.0,0.000121,0.0,0.0,0.0,0.000961,2
1671466041293894902,749028,1671466041300971107,gps,2,1,42.3000734995,-83.6985721798,270.559417725,0.0001,0.0,0.0,0.0,0.000121,0.0,0.0,0.0,0.000961,2
1671466041303715684,749029,1671466041310888891,gps,2,1,42.3000735008,-83.6985721766,270.559265137,0.0001,0.0,0.0,0.0,0.000121,0.0,0.0,0.0,0.000961,2
1671466041313685509,749030,1671466041320866723,gps,2,1,42.3000735009,-83.6985721771,270.559234619,0.0001,0.0,0.0,0.0,0.000121,0.0,0.0,0.0,0.000961,2
1671466041323896570,749031,1671466041330903075,gps,2,1,42.300073501,-83.6985721777,270.559204102,0.0001,0.0,0.0,0.0,0.000121,0.0,0.0,0.0,0.000961,2
1671466041333814133,749032,1671466041340844277,gps,2,1,42.3000735023,-83.6985721745,270.559051514,0.0001,0.0,0.0,0.0,0.000121,0.0,0.0,0.0,0.000961,2
1671466041343858529,749033,1671466041350882769,gps,2,1,42.3000735023,-83.6985721749,270.559051514,0.0001,0.0,0.0,0.0,0.000121,0.0,0.0,0.0,0.000961,2
1671466041353774246,749034,1671466041360926305,gps,2,1,42.3000735024,-83.6985721754,270.559020996,0.0001,0.0,0.0,0.0,0.000121,0.0,0.0,0.0,0.000961,2
1671466041363590731,749035,1671466041370839470,gps,2,1,42.3000735036,-83.6985721721,270.558898926,0.0001,0.0,0.0,0.0,0.000121,0.0,0.0,0.0,0.000961,2
1671466041373543210,749036,1671466041380851188,gps,2,1,42.3000735037,-83.6985721722,270.558898926,0.0001,0.0,0.0,0.0,0.000121,0.0,0.0,0.0,0.000961,2
1671466041384143517,749037,1671466041390938410,gps,2,1,42.3000735037,-83.6985721726,270.558868408,0.0001,0.0,0.0,0.0,0.000121,0.0,0.0,0.0,0.000961,2
1671466041394137751,749038,1671466041400932030,gps,2,1,42.3000735048,-83.6985721692,270.558746338,0.0001,0.0,0.0,0.0,0.000121,0.0,0.0,0.0,0.000961,2
1671466041404090764,749039,1671466041410877542,gps,2,1,42.3000735048,-83.6985721692,270.558776855,0.0001,0.0,0.0,0.0,0.000121,0.0,0.0,0.0,0.000961,2
1671466041413902883,749040,1671466041420915043,gps,2,1,42.3000735048,-83.6985721693,270.558776855,0.0001,0.0,0.0,0.0,0.000121,0.0,0.0,0.0,0.000961,2
1671466041423960755,749041,1671466041430940196,gps,2,1,42.3000735059,-83.6985721658,270.558685303,0.0001,0.0,0.0,0.0,0.000121,0.0,0.0,0.0,0.000961,2
1671466041433698476,749042,1671466041440858819,gps,2,1,42.3000735059,-83.6985721656,270.558685303,0.0001,0.0,0.0,0.0,0.000121,0.0,0.0,0.0,0.000961,2
1671466041443908177,749043,1671466041450911456,gps,2,1,42.300073506,-83.6985721655,270.558685303,0.0001,0.0,0.0,0.0,0.000121,0.0,0.0,0.0,0.000961,2
1671466041453768356,749044,1671466041460844805,gps,2,1,42.300073507,-83.6985721621,270.55859375,0.0001,0.0,0.0,0.0,0.000121,0.0,0.0,0.0,0.000961,2
1671466041463825286,749045,1671466041470895519,gps,2,1,42.300073507,-83.6985721619,270.55859375,0.0001,0.0,0.0,0.0,0.000121,0.0,0.0,0.0,0.000961,2
1671466041473939173,749046,1671466041480914268,gps,2,1,42.300073507,-83.6985721617,270.55859375,0.0001,0.0,0.0,0.0,0.000121,0.0,0.0,0.0,0.000961,2
1671466041483690789,749047,1671466041490867619,gps,2,1,42.300073508,-83.6985721584,270.558502197,0.0001,0.0,0.0,0.0,0.000121,0.0,0.0,0.0,0.000961,2
1671466041493687951,749048,1671466041500859345,gps,2,1,42.300073508,-83.6985721584,270.558502197,0.0001,0.0,0.0,0.0,0.000121,0.0,0.0,0.0,0.000961,2
1671466041503807298,749049,1671466041511043878,gps,2,1,42.300073508,-83.6985721582,270.558502197,0.0001,0.0,0.0,0.0,0.000121,0.0,0.0,0.0,0.000961,2
1671466041513925085,749050,1671466041520920643,gps,2,1,42.3000735081,-83.6985721552,270.55847168,0.0001,0.0,0.0,0.0,0.000121,0.0,0.0,0.0,0.000961,2
1671466041524017016,749051,1671466041530928291,gps,2,1,42.300073508,-83.6985721554,270.558441162,0.0001,0.0,0.0,0.0,0.000121,0.0,0.0,0.0,0.000961,2
1671466041534085339,749052,1671466041540930192,gps,2,1,42.300073508,-83.6985721554,270.558441162,0.0001,0.0,0.0,0.0,0.000121,0.0,0.0,0.0,0.000961,2
1671466041544002581,749053,1671466041550895702,gps,2,1,42.3000735081,-83.6985721527,270.558410645,0.0001,0.0,0.0,0.0,0.000121,0.0,0.0,0.0,0.000961,2
1671466041553887173,749054,1671466041560997418,gps,2,1,42.3000735079,-83.698572153,270.558380127,0.0001,0.0,0.0,0.0,0.000121,0.0,0.0,0.0,0.000961,2
1671466041563790877,749055,1671466041570929240,gps,2,1,42.3000735079,-83.6985721532,270.558349609,0.0001,0.0,0.0,0.0,0.000121,0.0,0.0,0.0,0.000961,2
1671466041573736249,749056,1671466041580876312,gps,2,1,42.3000735079,-83.6985721507,270.558319092,0.0001,0.0,0.0,0.0,0.000121,0.0,0.0,0.0,0.000961,2
1671466041583728977,749057,1671466041590867715,gps,2,1,42.3000735077,-83.6985721511,270.558319092,0.0001,0.0,0.0,0.0,0.000121,0.0,0.0,0.0,0.000961,2
1671466041593870410,749058,1671466041600937789,gps,2,1,42.3000735076,-83.6985721515,270.558288574,0.0001,0.0,0.0,0.0,0.000121,0.0,0.0,0.0,0.000961,2
1671466041603892148,749059,1671466041610847372,gps,2,1,42.3000735075,-83.6985721491,270.558288574,0.0001,0.0,0.0,0.0,0.000121,0.0,0.0,0.0,0.000961,2
1671466041613725399,749060,1671466041620835364,gps,2,1,42.3000735073,-83.6985721496,270.558258057,0.0001,0.0,0.0,0.0,0.000121,0.0,0.0,0.0,0.000961,2
1671466041624079280,749061,1671466041630934817,gps,2,1,42.3000735071,-83.69857215,270.558258057,0.0001,0.0,0.0,0.0,0.000121,0.0,0.0,0.0,0.000961,2
1671466041633691158,749062,1671466041640841015,gps,2,1,42.3000735071,-83.6985721475,270.558258057,0.0001,0.0,0.0,0.0,0.000121,0.0,0.0,0.0,0.000961,2
1671466041643819217,749063,1671466041650842202,gps,2,1,42.3000735069,-83.6985721479,270.558258057,0.0001,0.0,0.0,0.0,0.000121,0.0,0.0,0.0,0.000961,2
1671466041654017392,749064,1671466041660912225,gps,2,1,42.3000735067,-83.6985721482,270.558227539,0.0001,0.0,0.0,0.0,0.000121,0.0,0.0,0.0,0.000961,2
1671466041664125558,749065,1671466041670857648,gps,2,1,42.3000735067,-83.6985721458,270.558227539,0.0001,0.0,0.0,0.0,0.000121,0.0,0.0,0.0,0.000961,2
1671466041673662848,749066,1671466041680943724,gps,2,1,42.3000735065,-83.698572146,270.558227539,0.0001,0.0,0.0,0.0,0.000121,0.0,0.0,0.0,0.000961,2
1671466041683992733,749067,1671466041690900862,gps,2,1,42.3000735063,-83.6985721463,270.558227539,0.0001,0.0,0.0,0.0,0.000121,0.0,0.0,0.0,0.000961,2
1671466041693690768,749068,1671466041700843473,gps,2,1,42.3000735063,-83.6985721438,270.558227539,0.0001,0.0,0.0,0.0,0.000121,0.0,0.0,0.0,0.000961,2
1671466041703911436,749069,1671466041710848498,gps,2,1,42.3000735062,-83.6985721438,270.558197021,0.0001,0.0,0.0,0.0,0.000121,0.0,0.0,0.0,0.000961,2
1671466041713919514,749070,1671466041720907543,gps,2,1,42.3000735059,-83.698572144,270.558197021,0.0001,0.0,0.0,0.0,0.000121,0.0,0.0,0.0,0.000961,2
1671466041723931790,749071,1671466041730847228,gps,2,1,42.300073506,-83.6985721415,270.558166504,0.0001,0.0,0.0,0.0,0.000121,0.0,0.0,0.0,0.000961,2
1671466041733840887,749072,1671466041740848004,gps,2,1,42.3000735058,-83.6985721415,270.558166504,0.0001,0.0,0.0,0.0,0.000121,0.0,0.0,0.0,0.000961,2
1671466041743879949,749073,1671466041750889855,gps,2,1,42.3000735056,-83.6985721415,270.558135986,0.0001,0.0,0.0,0.0,0.000121,0.0,0.0,0.0,0.000961,2
1671466041753914481,749074,1671466041760870355,gps,2,1,42.3000735057,-83.698572139,270.558135986,0.0001,0.0,0.0,0.0,0.000121,0.0,0.0,0.0,0.000961,2
1671466041763832071,749075,1671466041770864132,gps,2,1,42.3000735056,-83.6985721388,270.558105469,0.0001,0.0,0.0,0.0,0.000121,0.0,0.0,0.0,0.000961,2
1671466041773873210,749076,1671466041780892543,gps,2,1,42.3000735056,-83.6985721388,270.558074951,0.0001,0.0,0.0,0.0,0.000121,0.0,0.0,0.0,0.000961,2
1671466041783602645,749077,1671466041790853983,gps,2,1,42.3000735057,-83.6985721362,270.558074951,0.0001,0.0,0.0,0.0,0.000121,0.0,0.0,0.0,0.000961,2
1671466041793634394,749078,1671466041800843824,gps,2,1,42.3000735057,-83.6985721361,270.558044434,0.0001,0.0,0.0,0.0,0.000121,0.0,0.0,0.0,0.000961,2
1671466041804111400,749079,1671466041810900086,gps,2,1,42.3000735056,-83.6985721359,270.558013916,0.0001,0.0,0.0,0.0,0.000121,0.0,0.0,0.0,0.000961,2
1671466041813697909,749080,1671466041820843185,gps,2,1,42.3000735058,-83.6985721333,270.558013916,0.0001,0.0,0.0,0.0,0.000121,0.0,0.0,0.0,0.000961,2
1671466041824053094,749081,1671466041830842668,gps,2,1,42.3000735058,-83.6985721331,270.557983398,0.0001,0.0,0.0,0.0,0.000121,0.0,0.0,0.0,0.000961,2
1671466041834162857,749082,1671466041840901359,gps,2,1,42.3000735058,-83.6985721329,270.557952881,0.0001,0.0,0.0,0.0,0.000121,0.0,0.0,0.0,0.000961,2
1671466041843998953,749083,1671466041850839290,gps,2,1,42.3000735061,-83.6985721304,270.557952881,0.0001,0.0,0.0,0.0,0.000121,0.0,0.0,0.0,0.000961,2
1671466041853749879,749084,1671466041860853073,gps,2,1,42.3000735061,-83.6985721303,270.557922363,0.0001,0.0,0.0,0.0,0.000121,0.0,0.0,0.0,0.000961,2
1671466041863812150,749085,1671466041870900744,gps,2,1,42.3000735061,-83.6985721301,270.557922363,0.0001,0.0,0.0,0.0,0.000121,0.0,0.0,0.0,0.000961,2
1671466041873807753,749086,1671466041880835334,gps,2,1,42.3000735063,-83.6985721277,270.557891846,0.0001,0.0,0.0,0.0,0.000121,0.0,0.0,0.0,0.000961,2
1671466041883875563,749087,1671466041890828166,gps,2,1,42.3000735063,-83.6985721276,270.557891846,0.0001,0.0,0.0,0.0,0.000121,0.0,0.0,0.0,0.000961,2
1671466041893896406,749088,1671466041900917167,gps,2,1,42.3000735062,-83.6985721275,270.557861328,0.0001,0.0,0.0,0.0,0.000121,0.0,0.0,0.0,0.000961,2
1671466041903916265,749089,1671466041910848152,gps,2,1,42.3000735065,-83.6985721253,270.557861328,0.0001,0.0,0.0,0.0,0.000121,0.0,0.0,0.0,0.000961,2
1671466041913693194,749090,1671466041920889976,gps,2,1,42.3000735064,-83.6985721254,270.557830811,0.0001,0.0,0.0,0.0,0.000121,0.0,0.0,0.0,0.000961,2
1671466041923694989,749091,1671466041930929630,gps,2,1,42.3000735064,-83.6985721253,270.557830811,0.0001,0.0,0.0,0.0,0.000121,0.0,0.0,0.0,0.000961,2
1671466041933569027,749092,1671466041940825113,gps,2,1,42.3000735065,-83.6985721233,270.557800293,0.0001,0.0,0.0,0.0,0.000121,0.0,0.0,0.0,0.000961,2
1671466041943647598,749093,1671466041950841317,gps,2,1,42.3000735063,-83.6985721235,270.557769775,0.0001,0.0,0.0,0.0,0.000121,0.0,0.0,0.0,0.000961,2
1671466041953987640,749094,1671466041960903002,gps,2,1,42.3000735062,-83.6985721235,270.557769775,0.0001,0.0,0.0,0.0,0.000121,0.0,0.0,0.0,0.000961,2
1671466041963975649,749095,1671466041970831066,gps,2,1,42.3000735063,-83.6985721216,270.557739258,0.0001,0.0,0.0,0.0,0.000121,0.0,0.0,0.0,0.000961,2
1671466041973888980,749096,1671466041980838819,gps,2,1,42.300073506,-83.6985721219,270.557739258,0.0001,0.0,0.0,0.0,0.000121,0.0,0.0,0.0,0.000961,2
1671466041983889779,749097,1671466041990896879,gps,2,1,42.3000735058,-83.698572122,270.557739258,0.0001,0.0,0.0,0.0,0.000121,0.0,0.0,0.0,0.000961,2
1671466041994007647,749098,1671466042000830822,gps,2,1,42.3000735058,-83.6985721202,270.55770874,0.0001,0.0,0.0,0.0,0.000121,0.0,0.0,0.0,0.000961,2
1671466042003953258,749099,1671466042010976983,gps,2,1,42.3000735054,-83.6985721204,270.557678223,0.0001,0.0,0.0,0.0,0.000121,0.0,0.0,0.0,0.000961,2
1671466042013866577,749100,1671466042020990997,gps,2,1,42.3000735051,-83.6985721204,270.557678223,0.0001,0.0,0.0,0.0,0.000121,0.0,0.0,0.0,0.000961,2
1671466042023689414,749101,1671466042030885046,gps,2,1,42.300073505,-83.6985721186,270.557647705,0.0001,0.0,0.0,0.0,0.000121,0.0,0.0,0.0,0.000961,2
1671466042033682643,749102,1671466042040925152,gps,2,1,42.3000735046,-83.6985721187,270.557647705,0.0001,0.0,0.0,0.0,0.000121,0.0,0.0,0.0,0.000961,2
1671466042043811491,749103,1671466042050940090,gps,2,1,42.3000735042,-83.6985721188,270.557617188,0.0001,0.0,0.0,0.0,0.000121,0.0,0.0,0.0,0.000961,2
1671466042053708486,749104,1671466042060894073,gps,2,1,42.3000735049,-83.6985721169,270.557617188,0.0001,0.0,0.0,0.0,0.000121,0.0,0.0,0.0,0.000961,2
1671466042063654538,749105,1671466042070939206,gps,2,1,42.3000735046,-83.6985721168,270.557617188,0.0001,0.0,0.0,0.0,0.000121,0.0,0.0,0.0,0.000961,2
1671466042073606947,749106,1671466042080889422,gps,2,1,42.3000735042,-83.6985721168,270.55758667,0.0001,0.0,0.0,0.0,0.000121,0.0,0.0,0.0,0.000961,2
1671466042083897512,749107,1671466042090897341,gps,2,1,42.3000735049,-83.6985721149,270.55758667,0.0001,0.0,0.0,0.0,0.000121,0.0,0.0,0.0,0.000961,2
1671466042093908866,749108,1671466042100850528,gps,2,1,42.3000735046,-83.6985721146,270.557556152,0.0001,0.0,0.0,0.0,0.000121,0.0,0.0,0.0,0.000961,2
1671466042104246682,749109,1671466042110950378,gps,2,1,42.3000735043,-83.6985721145,270.557525635,0.0001,0.0,0.0,0.0,0.000121,0.0,0.0,0.0,0.000961,2
1671466042113562755,749110,1671466042120907694,gps,2,1,42.3000735049,-83.6985721125,270.557556152,0.0001,0.0,0.0,0.0,0.000121,0.0,0.0,0.0,0.000961,2
1671466042123866873,749111,1671466042130844438,gps,2,1,42.3000735047,-83.6985721122,270.557525635,0.0001,0.0,0.0,0.0,0.000121,0.0,0.0,0.0,0.000961,2
1671466042133790067,749112,1671466042140920667,gps,2,1,42.3000735043,-83.6985721119,270.557525635,0.0001,0.0,0.0,0.0,0.000121,0.0,0.0,0.0,0.000961,2
1671466042143755073,749113,1671466042150944173,gps,2,1,42.300073505,-83.6985721099,270.557525635,0.0001,0.0,0.0,0.0,0.000121,0.0,0.0,0.0,0.000961,2
1671466042153749665,749114,1671466042160850936,gps,2,1,42.3000735047,-83.6985721096,270.557525635,0.0001,0.0,0.0,0.0,0.000121,0.0,0.0,0.0,0.000961,2
1671466042163760857,749115,1671466042170939637,gps,2,1,42.3000735045,-83.6985721092,270.557495117,0.0001,0.0,0.0,0.0,0.000121,0.0,0.0,0.0,0.000961,2
1671466042173870600,749116,1671466042181002852,gps,2,1,42.3000735051,-83.6985721072,270.557495117,0.0001,0.0,0.0,0.0,0.000121,0.0,0.0,0.0,0.000961,2
1671466042183721971,749117,1671466042190892285,gps,2,1,42.3000735049,-83.6985721069,270.557495117,0.0001,0.0,0.0,0.0,0.000121,0.0,0.0,0.0,0.000961,2
1671466042194094227,749118,1671466042200924438,gps,2,1,42.3000735046,-83.6985721066,270.5574646,0.0001,0.0,0.0,0.0,0.000121,0.0,0.0,0.0,0.000961,2
1671466042203712452,749119,1671466042210941288,gps,2,1,42.3000735052,-83.6985721047,270.5574646,0.0001,0.0,0.0,0.0,0.000121,0.0,0.0,0.0,0.000961,2
1671466042213608480,749120,1671466042220938640,gps,2,1,42.3000735049,-83.6985721046,270.5574646,0.0001,0.0,0.0,0.0,0.000121,0.0,0.0,0.0,0.000961,2
1671466042223558372,749121,1671466042230860453,gps,2,1,42.3000735047,-83.6985721044,270.557434082,0.0001,0.0,0.0,0.0,0.000121,0.0,0.0,0.0,0.000961,2
1671466042233594325,749122,1671466042240846632,gps,2,1,42.3000735053,-83.6985721026,270.557434082,0.0001,0.0,0.0,0.0,0.000121,0.0,0.0,0.0,0.000961,2
1671466042244045553,749123,1671466042250891729,gps,2,1,42.300073505,-83.6985721026,270.557434082,0.0001,0.0,0.0,0.0,0.000121,0.0,0.0,0.0,0.000961,2
1671466042253953542,749124,1671466042260834642,gps,2,1,42.3000735047,-83.6985721024,270.557403564,0.0001,0.0,0.0,0.0,0.000121,0.0,0.0,0.0,0.000961,2
1671466042263879100,749125,1671466042270856911,gps,2,1,42.3000735053,-83.6985721008,270.557403564,0.0001,0.0,0.0,0.0,0.000121,0.0,0.0,0.0,0.000961,2
1671466042273668853,749126,1671466042280856522,gps,2,1,42.3000735051,-83.6985721008,270.557373047,0.0001,0.0,0.0,0.0,0.000121,0.0,0.0,0.0,0.000961,2
1671466042283918912,749127,1671466042290968514,gps,2,1,42.3000735048,-83.6985721007,270.557373047,0.0001,0.0,0.0,0.0,0.000121,0.0,0.0,0.0,0.000961,2
1671466042293699637,749128,1671466042300853582,gps,2,1,42.3000735054,-83.6985720992,270.557342529,0.0001,0.0,0.0,0.0,0.000121,0.0,0.0,0.0,0.000961,2
1671466042303881859,749129,1671466042310841621,gps,2,1,42.3000735052,-83.6985720992,270.557342529,0.0001,0.0,0.0,0.0,0.000121,0.0,0.0,0.0,0.000961,2
1671466042313711122,749130,1671466042320888736,gps,2,1,42.300073505,-83.6985720992,270.557312012,0.0001,0.0,0.0,0.0,0.000121,0.0,0.0,0.0,0.000961,2
1671466042323641642,749131,1671466042330824578,gps,2,1,42.3000735056,-83.6985720977,270.557312012,0.0001,0.0,0.0,0.0,0.000121,0.0,0.0,0.0,0.000961,2
1671466042333625825,749132,1671466042340877955,gps,2,1,42.3000735054,-83.6985720976,270.557281494,0.0001,0.0,0.0,0.0,0.000121,0.0,0.0,0.0,0.000961,2
1671466042343654862,749133,1671466042350824422,gps,2,1,42.3000735052,-83.6985720976,270.557281494,0.0001,0.0,0.0,0.0,0.000121,0.0,0.0,0.0,0.000961,2
1671466042353762101,749134,1671466042360913230,gps,2,1,42.3000735059,-83.6985720961,270.557281494,0.0001,0.0,0.0,0.0,0.000121,0.0,0.0,0.0,0.000961,2
1671466042363556159,749135,1671466042370913309,gps,2,1,42.3000735057,-83.698572096,270.557250977,0.0001,0.0,0.0,0.0,0.000121,0.0,0.0,0.0,0.000961,2
1671466042373600224,749136,1671466042380836304,gps,2,1,42.3000735056,-83.6985720959,270.557250977,0.0001,0.0,0.0,0.0,0.000121,0.0,0.0,0.0,0.000961,2
1671466042383870027,749137,1671466042390843752,gps,2,1,42.3000735062,-83.6985720943,270.557250977,0.0001,0.0,0.0,0.0,0.000121,0.0,0.0,0.0,0.000961,2
1671466042393923181,749138,1671466042400886260,gps,2,1,42.300073506,-83.6985720941,270.557250977,0.0001,0.0,0.0,0.0,0.000121,0.0,0.0,0.0,0.000961,2
1671466042404025931,749139,1671466042410901285,gps,2,1,42.3000735059,-83.6985720939,270.557220459,0.0001,0.0,0.0,0.0,0.000121,0.0,0.0,0.0,0.000961,2
1671466042414083133,749140,1671466042420825649,gps,2,1,42.3000735065,-83.6985720922,270.557250977,0.0001,0.0,0.0,0.0,0.000121,0.0,0.0,0.0,0.000961,2
1671466042423942942,749141,1671466042430988568,gps,2,1,42.3000735063,-83.6985720919,270.557220459,0.0001,0.0,0.0,0.0,0.000121,0.0,0.0,0.0,0.000961,2
1671466042433751289,749142,1671466042440835639,gps,2,1,42.3000735062,-83.6985720916,270.557220459,0.0001,0.0,0.0,0.0,0.000121,0.0,0.0,0.0,0.000961,2
1671466042443878128,749143,1671466042450826826,gps,2,1,42.3000735067,-83.6985720899,270.557220459,0.0001,0.0,0.0,0.0,0.000121,0.0,0.0,0.0,0.000961,2
1671466042454017477,749144,1671466042460961650,gps,2,1,42.3000735066,-83.6985720896,270.557220459,0.0001,0.0,0.0,0.0,0.000121,0.0,0.0,0.0,0.000961,2
1671466042463921677,749145,1671466042470846549,gps,2,1,42.3000735064,-83.6985720892,270.557220459,0.0001,0.0,0.0,0.0,0.000121,0.0,0.0,0.0,0.000961,2
1671466042473759563,749146,1671466042480813344,gps,2,1,42.3000735069,-83.6985720875,270.557220459,0.0001,0.0,0.0,0.0,0.000121,0.0,0.0,0.0,0.000961,2
1671466042483892297,749147,1671466042490884895,gps,2,1,42.3000735066,-83.6985720872,270.557220459,0.0001,0.0,0.0,0.0,0.000121,0.0,0.0,0.0,0.000961,2
1671466042493619407,749148,1671466042500821272,gps,2,1,42.3000735065,-83.6985720868,270.557220459,0.0001,0.0,0.0,0.0,0.000121,0.0,0.0,0.0,0.000961,2
1671466042503677109,749149,1671466042510911945,gps,2,1,42.3000735069,-83.6985720851,270.557220459,0.0001,0.0,0.0,0.0,0.000121,0.0,0.0,0.0,0.000961,2
1671466042514052295,749150,1671466042520926561,gps,2,1,42.3000735067,-83.6985720848,270.557189941,0.0001,0.0,0.0,0.0,0.000121,0.0,0.0,0.0,0.000961,2
1671466042524050426,749151,1671466042530920595,gps,2,1,42.3000735065,-83.6985720844,270.557189941,0.0001,0.0,0.0,0.0,0.000121,0.0,0.0,0.0,0.000961,2
1671466042534076277,749152,1671466042540881314,gps,2,1,42.3000735061,-83.6985720834,270.557434082,0.0001,0.0,0.0,0.0,0.000121,0.0,0.0,0.0,0.000961,2
1671466042543617733,749153,1671466042550837000,gps,2,1,42.3000735059,-83.6985720831,270.557403564,0.0001,0.0,0.0,0.0,0.000121,0.0,0.0,0.0,0.000961,2
1671466042553951518,749154,1671466042560997516,gps,2,1,42.3000735056,-83.6985720828,270.557403564,0.0001,0.0,0.0,0.0,0.000121,0.0,0.0,0.0,0.000961,2
1671466042563959000,749155,1671466042570889333,gps,2,1,42.3000735053,-83.6985720819,270.557647705,0.0001,0.0,0.0,0.0,0.000121,0.0,0.0,0.0,0.000961,2
1671466042573738040,749156,1671466042580854975,gps,2,1,42.3000735051,-83.6985720817,270.557617188,0.0001,0.0,0.0,0.0,0.000121,0.0,0.0,0.0,0.000961,2
1671466042583772358,749157,1671466042590907376,gps,2,1,42.3000735048,-83.6985720814,270.557617188,0.0001,0.0,0.0,0.0,0.000121,0.0,0.0,0.0,0.000961,2
1671466042593975305,749158,1671466042600816091,gps,2,1,42.3000735045,-83.6985720806,270.557861328,0.0001,0.0,0.0,0.0,0.000121,0.0,0.0,0.0,0.000961,2
1671466042603799411,749159,1671466042610833021,gps,2,1,42.3000735043,-83.6985720804,270.557830811,0.0001,0.0,0.0,0.0,0.000121,0.0,0.0,0.0,0.000961,2
1671466042613754367,749160,1671466042620868241,gps,2,1,42.3000735041,-83.6985720801,270.557830811,0.0001,0.0,0.0,0.0,0.000121,0.0,0.0,0.0,0.000961,2
1671466042623745622,749161,1671466042630813746,gps,2,1,42.3000735038,-83.6985720794,270.558074951,0.0001,0.0,0.0,0.0,0.000121,0.0,0.0,0.0,0.000961,2
1671466042633659386,749162,1671466042640899688,gps,2,1,42.3000735036,-83.6985720792,270.558044434,0.0001,0.0,0.0,0.0,0.000121,0.0,0.0,0.0,0.000961,2
1671466042643625017,749163,1671466042650832940,gps,2,1,42.3000735034,-83.698572079,270.558044434,0.0001,0.0,0.0,0.0,0.000121,0.0,0.0,0.0,0.000961,2
1671466042653807440,749164,1671466042660820559,gps,2,1,42.3000735031,-83.6985720784,270.558288574,0.0001,0.0,0.0,0.0,0.000121,0.0,0.0,0.0,0.000961,2
1671466042664224445,749165,1671466042670824846,gps,2,1,42.300073503,-83.6985720782,270.558258057,0.0001,0.0,0.0,0.0,0.000121,0.0,0.0,0.0,0.000961,2
1671466042673891354,749166,1671466042680978555,gps,2,1,42.3000735028,-83.698572078,270.558258057,0.0001,0.0,0.0,0.0,0.000121,0.0,0.0,0.0,0.000961,2
1671466042683897403,749167,1671466042690819518,gps,2,1,42.3000735025,-83.6985720774,270.55847168,0.0001,0.0,0.0,0.0,0.000121,0.0,0.0,0.0,0.000961,2
1671466042694100238,749168,1671466042700823777,gps,2,1,42.3000735024,-83.6985720771,270.55847168,0.0001,0.0,0.0,0.0,0.000121,0.0,0.0,0.0,0.000961,2
1671466042703749182,749169,1671466042710882908,gps,2,1,42.3000735022,-83.698572077,270.55847168,0.0001,0.0,0.0,0.0,0.000121,0.0,0.0,0.0,0.000961,2
1671466042713677926,749170,1671466042720827963,gps,2,1,42.3000735019,-83.6985720763,270.558685303,0.0001,0.0,0.0,0.0,0.000121,0.0,0.0,0.0,0.000961,2
1671466042723655159,749171,1671466042730827160,gps,2,1,42.3000735017,-83.698572076,270.558685303,0.0001,0.0,0.0,0.0,0.000121,0.0,0.0,0.0,0.000961,2
1671466042733689080,749172,1671466042740884694,gps,2,1,42.3000735015,-83.6985720757,270.558685303,0.0001,0.0,0.0,0.0,0.000121,0.0,0.0,0.0,0.000961,2
1671466042743994430,749173,1671466042750811017,gps,2,1,42.3000735013,-83.698572075,270.558868408,0.0001,0.0,0.0,0.0,0.000121,0.0,0.0,0.0,0.000961,2
1671466042753702683,749174,1671466042760814021,gps,2,1,42.3000735011,-83.6985720746,270.558868408,0.0001,0.0,0.0,0.0,0.000121,0.0,0.0,0.0,0.000961,2
1671466042763696712,749175,1671466042770883138,gps,2,1,42.3000735009,-83.6985720742,270.558868408,0.0001,0.0,0.0,0.0,0.000121,0.0,0.0,0.0,0.000961,2
1671466042773601055,749176,1671466042780810136,gps,2,1,42.3000735006,-83.6985720734,270.559051514,0.0001,0.0,0.0,0.0,0.000121,0.0,0.0,0.0,0.000961,2
