%time,field.header.seq,field.header.stamp,field.header.frame_id,field.status.status,field.status.service,field.latitude,field.longitude,field.altitude,field.position_covariance0,field.position_covariance1,field.position_covariance2,field.position_covariance3,field.position_covariance4,field.position_covariance5,field.position_covariance6,field.position_covariance7,field.position_covariance8,field.position_covariance_type
1671465823821046541,23937,1671465823820511288,gps,2,1,42.300965237,-83.697568681,273.207977295,0.001444,0.0,0.0,0.0,0.001444,0.0,0.0,0.0,0.004624,2
1671465823840887108,23938,1671465823840393163,gps,2,1,42.3009652379,-83.6975686801,273.208007812,0.001444,0.0,0.0,0.0,0.001444,0.0,0.0,0.0,0.004624,2
1671465823860847825,23939,1671465823860410744,gps,2,1,42.3009652386,-83.6975686797,273.20803833,0.001444,0.0,0.0,0.0,0.001444,0.0,0.0,0.0,0.004624,2
1671465823880810108,23940,1671465823880355539,gps,2,1,42.3009652384,-83.6975686814,273.208007812,0.001444,0.0,0.0,0.0,0.001444,0.0,0.0,0.0,0.004624,2
1671465823900876419,23941,1671465823900400218,gps,2,1,42.3009652391,-83.6975686811,273.20803833,0.001444,0.0,0.0,0.0,0.001444,0.0,0.0,0.0,0.004624,2
1671465823920768386,23942,1671465823920378659,gps,2,1,42.3009652405,-83.69756868,273.208068848,0.001444,0.0,0.0,0.0,0.001444,0.0,0.0,0.0,0.004624,2
1671465823940908462,23943,1671465823940361584,gps,2,1,42.3009652403,-83.6975686818,273.20803833,0.001444,0.0,0.0,0.0,0.001444,0.0,0.0,0.0,0.004624,2
1671465823960922649,23944,1671465823960454146,gps,2,1,42.3009652417,-83.6975686809,273.208068848,0.001444,0.0,0.0,0.0,0.001444,0.0,0.0,0.0,0.004624,2
1671465823980780376,23945,1671465823980328282,gps,2,1,42.3009652429,-83.69756868,273.208099365,0.001444,0.0,0.0,0.0,0.001444,0.0,0.0,0.0,0.004624,2
1671465824000828469,23946,1671465824000339658,gps,2,1,42.3009652428,-83.6975686818,273.208068848,0.001444,0.0,0.0,0.0,0.001444,0.0,0.0,0.0,0.004624,2
1671465824020914184,23947,1671465824020432308,gps,2,1,42.300965244,-83.6975686809,273.208099365,0.001444,0.0,0.0,0.0,0.001444,0.0,0.0,0.0,0.004624,2
1671465824040882180,23948,1671465824040392214,gps,2,1,42.3009652465,-83.6975686803,273.208099365,0.001444,0.0,0.0,0.0,0.001444,0.0,0.0,0.0,0.004624,2
1671465824061022713,23949,1671465824060490690,gps,2,1,42.3009652463,-83.6975686821,273.208099365,0.001444,0.0,0.0,0.0,0.001444,0.0,0.0,0.0,0.004624,2
1671465824080931733,23950,1671465824080439041,gps,2,1,42.3009652486,-83.6975686806,273.208068848,0.001444,0.0,0.0,0.0,0.001444,0.0,0.0,0.0,0.004624,2
1671465824100923252,23951,1671465824100409834,gps,2,1,42.3009652508,-83.6975686792,273.208068848,0.001444,0.0,0.0,0.0,0.001444,0.0,0.0,0.0,0.004624,2
1671465824120964411,23952,1671465824120500339,gps,2,1,42.3009652507,-83.6975686809,273.208068848,0.001444,0.0,0.0,0.0,0.001444,0.0,0.0,0.0,0.004624,2
1671465824141073416,23953,1671465824140598221,gps,2,1,42.3009652519,-83.6975686798,273.208068848,0.001444,0.0,0.0,0.0,0.001444,0.0,0.0,0.0,0.004624,2
1671465824160813288,23954,1671465824160355764,gps,2,1,42.3009652531,-83.6975686788,273.208099365,0.001444,0.0,0.0,0.0,0.001444,0.0,0.0,0.0,0.004624,2
1671465824180850170,23955,1671465824180409932,gps,2,1,42.3009652531,-83.6975686806,273.208099365,0.001444,0.0,0.0,0.0,0.001444,0.0,0.0,0.0,0.004624,2
1671465824200904885,23956,1671465824200466979,gps,2,1,42.3009652542,-83.6975686797,273.208099365,0.001444,0.0,0.0,0.0,0.001444,0.0,0.0,0.0,0.004624,2
1671465824220811434,23957,1671465824220369222,gps,2,1,42.3009652559,-83.6975686779,273.208099365,0.001444,0.0,0.0,0.0,0.001444,0.0,0.0,0.0,0.004624,2
1671465824240741602,23958,1671465824240386882,gps,2,1,42.3009652559,-83.6975686796,273.208068848,0.001444,0.0,0.0,0.0,0.001444,0.0,0.0,0.0,0.004624,2
1671465824260807488,23959,1671465824260427765,gps,2,1,42.3009652576,-83.697568678,273.208068848,0.001444,0.0,0.0,0.0,0.001444,0.0,0.0,0.0,0.004624,2
1671465824280841105,23960,1671465824280370353,gps,2,1,42.3009652592,-83.6975686764,273.208068848,0.001444,0.0,0.0,0.0,0.001444,0.0,0.0,0.0,0.004624,2
1671465824300899611,23961,1671465824300401476,gps,2,1,42.3009652592,-83.6975686781,273.20803833,0.001444,0.0,0.0,0.0,0.001444,0.0,0.0,0.0,0.004624,2
1671465824320778953,23962,1671465824320526810,gps,2,1,42.3009652608,-83.6975686766,273.20803833,0.001444,0.0,0.0,0.0,0.001444,0.0,0.0,0.0,0.004624,2
1671465824340555392,23963,1671465824340349224,gps,2,1,42.3009652617,-83.6975686755,273.20803833,0.001444,0.0,0.0,0.0,0.001444,0.0,0.0,0.0,0.004624,2
1671465824360665147,23964,1671465824360379114,gps,2,1,42.3009652617,-83.6975686772,273.20803833,0.001444,0.0,0.0,0.0,0.001444,0.0,0.0,0.0,0.004624,2
1671465824380922870,23965,1671465824380459995,gps,2,1,42.3009652626,-83.6975686762,273.20803833,0.001444,0.0,0.0,0.0,0.001444,0.0,0.0,0.0,0.004624,2
1671465824400880375,23966,1671465824400382707,gps,2,1,42.3009652634,-83.6975686753,273.20803833,0.001444,0.0,0.0,0.0,0.001444,0.0,0.0,0.0,0.004624,2
1671465824420903532,23967,1671465824420427795,gps,2,1,42.3009652635,-83.697568677,273.208007812,0.001444,0.0,0.0,0.0,0.001444,0.0,0.0,0.0,0.004624,2
1671465824441028928,23968,1671465824440484985,gps,2,1,42.3009652642,-83.6975686763,273.20803833,0.001444,0.0,0.0,0.0,0.001444,0.0,0.0,0.0,0.004624,2
1671465824460885007,23969,1671465824460406071,gps,2,1,42.3009652649,-83.6975686756,273.20803833,0.001444,0.0,0.0,0.0,0.001444,0.0,0.0,0.0,0.004624,2
1671465824480950705,23970,1671465824480441577,gps,2,1,42.300965265,-83.6975686772,273.20803833,0.001444,0.0,0.0,0.0,0.001444,0.0,0.0,0.0,0.004624,2
1671465824500956797,23971,1671465824500409865,gps,2,1,42.3009652657,-83.6975686766,273.20803833,0.001444,0.0,0.0,0.0,0.001444,0.0,0.0,0.0,0.004624,2
1671465824520993167,23972,1671465824520533532,gps,2,1,42.3009652664,-83.697568676,273.208068848,0.001444,0.0,0.0,0.0,0.001444,0.0,0.0,0.0,0.004624,2
1671465824540994710,23973,1671465824540504934,gps,2,1,42.3009652665,-83.6975686777,273.20803833,0.001444,0.0,0.0,0.0,0.001444,0.0,0.0,0.0,0.004624,2
1671465824560929077,23974,1671465824560468823,gps,2,1,42.3009652681,-83.6975686769,273.20803833,0.001444,0.0,0.0,0.0,0.001444,0.0,0.0,0.0,0.004624,2
1671465824581034033,23975,1671465824580524014,gps,2,1,42.3009652698,-83.6975686761,273.20803833,0.001444,0.0,0.0,0.0,0.001444,0.0,0.0,0.0,0.004624,2
1671465824600985641,23976,1671465824600511160,gps,2,1,42.3009652699,-83.6975686778,273.208007812,0.001444,0.0,0.0,0.0,0.001444,0.0,0.0,0.0,0.004624,2
1671465824621066789,23977,1671465824620545558,gps,2,1,42.3009652714,-83.6975686763,273.20803833,0.001444,0.0,0.0,0.0,0.001444,0.0,0.0,0.0,0.004624,2
1671465824640998181,23978,1671465824640494379,gps,2,1,42.3009652728,-83.6975686749,273.208068848,0.001444,0.0,0.0,0.0,0.001444,0.0,0.0,0.0,0.004624,2
1671465824660930585,23979,1671465824660517053,gps,2,1,42.300965273,-83.6975686766,273.20803833,0.001444,0.0,0.0,0.0,0.001444,0.0,0.0,0.0,0.004624,2
1671465824680828036,23980,1671465824680436793,gps,2,1,42.3009652744,-83.6975686747,273.208068848,0.001444,0.0,0.0,0.0,0.001444,0.0,0.0,0.0,0.004624,2
1671465824700809425,23981,1671465824700425122,gps,2,1,42.3009652758,-83.6975686729,273.208068848,0.001444,0.0,0.0,0.0,0.001444,0.0,0.0,0.0,0.004624,2
1671465824721061253,23982,1671465824720539668,gps,2,1,42.300965276,-83.6975686745,273.20803833,0.001444,0.0,0.0,0.0,0.001444,0.0,0.0,0.0,0.004624,2
1671465824740924525,23983,1671465824740426756,gps,2,1,42.3009652775,-83.6975686728,273.20803833,0.001156,0.0,0.0,0.0,0.001156,0.0,0.0,0.0,0.004356,2
1671465824760833253,23984,1671465824760471638,gps,2,1,42.300965279,-83.6975686714,273.208068848,0.001156,0.0,0.0,0.0,0.001156,0.0,0.0,0.0,0.004356,2
1671465824780932691,23985,1671465824780502192,gps,2,1,42.3009652793,-83.6975686729,273.208068848,0.001156,0.0,0.0,0.0,0.001156,0.0,0.0,0.0,0.004356,2
1671465824800952114,23986,1671465824800439178,gps,2,1,42.3009652809,-83.6975686717,273.208099365,0.001156,0.0,0.0,0.0,0.001156,0.0,0.0,0.0,0.004356,2
1671465824820954561,23987,1671465824820587565,gps,2,1,42.3009652824,-83.6975686705,273.208099365,0.001156,0.0,0.0,0.0,0.001156,0.0,0.0,0.0,0.004356,2
1671465824840953689,23988,1671465824840533951,gps,2,1,42.3009652827,-83.697568672,273.208099365,0.001156,0.0,0.0,0.0,0.001156,0.0,0.0,0.0,0.004356,2
1671465824860935564,23989,1671465824860450076,gps,2,1,42.3009652837,-83.6975686713,273.208099365,0.001156,0.0,0.0,0.0,0.001156,0.0,0.0,0.0,0.004356,2
1671465824880916195,23990,1671465824880477150,gps,2,1,42.3009652846,-83.6975686705,273.208129883,0.001156,0.0,0.0,0.0,0.001156,0.0,0.0,0.0,0.004356,2
1671465824901022991,23991,1671465824900558129,gps,2,1,42.3009652848,-83.6975686721,273.208129883,0.001156,0.0,0.0,0.0,0.001156,0.0,0.0,0.0,0.004356,2
1671465824920926022,23992,1671465824920448384,gps,2,1,42.3009652857,-83.6975686715,273.208129883,0.001156,0.0,0.0,0.0,0.001156,0.0,0.0,0.0,0.004356,2
1671465824940969474,23993,1671465824940519704,gps,2,1,42.3009652865,-83.697568671,273.2081604,0.001156,0.0,0.0,0.0,0.001156,0.0,0.0,0.0,0.004356,2
1671465824961051827,23994,1671465824960560580,gps,2,1,42.3009652867,-83.6975686727,273.208129883,0.001156,0.0,0.0,0.0,0.001156,0.0,0.0,0.0,0.004356,2
1671465824980999976,23995,1671465824980493911,gps,2,1,42.3009652885,-83.6975686719,273.208129883,0.001156,0.0,0.0,0.0,0.001156,0.0,0.0,0.0,0.004356,2
1671465825000931548,23996,1671465825000438637,gps,2,1,42.3009652903,-83.6975686713,273.2081604,0.001156,0.0,0.0,0.0,0.001156,0.0,0.0,0.0,0.004356,2
1671465825021018995,23997,1671465825020535433,gps,2,1,42.3009652906,-83.6975686729,273.208129883,0.001156,0.0,0.0,0.0,0.001156,0.0,0.0,0.0,0.004356,2
1671465825040964939,23998,1671465825040507629,gps,2,1,42.3009652925,-83.6975686721,273.208129883,0.001156,0.0,0.0,0.0,0.001156,0.0,0.0,0.0,0.004356,2
1671465825061128165,23999,1671465825060575942,gps,2,1,42.3009652936,-83.6975686712,273.208099365,0.001156,0.0,0.0,0.0,0.001156,0.0,0.0,0.0,0.004356,2
1671465825081176921,24000,1671465825080672036,gps,2,1,42.300965294,-83.6975686726,273.208099365,0.001156,0.0,0.0,0.0,0.001156,0.0,0.0,0.0,0.004356,2
1671465825101064822,24001,1671465825100576429,gps,2,1,42.3009652952,-83.6975686717,273.208099365,0.001156,0.0,0.0,0.0,0.001156,0.0,0.0,0.0,0.004356,2
1671465825120960735,24002,1671465825120535449,gps,2,1,42.3009652961,-83.6975686709,273.208007812,0.001156,0.0,0.0,0.0,0.001156,0.0,0.0,0.0,0.004356,2
1671465825141303635,24003,1671465825140793589,gps,2,1,42.3009652965,-83.6975686724,273.208007812,0.001156,0.0,0.0,0.0,0.001156,0.0,0.0,0.0,0.004356,2
1671465825160921995,24004,1671465825160471481,gps,2,1,42.3009652969,-83.6975686712,273.207946777,0.001156,0.0,0.0,0.0,0.001156,0.0,0.0,0.0,0.004356,2
1671465825181003211,24005,1671465825180506850,gps,2,1,42.3009652972,-83.6975686701,273.207885742,0.001156,0.0,0.0,0.0,0.001156,0.0,0.0,0.0,0.004356,2
1671465825201078111,24006,1671465825200575684,gps,2,1,42.3009652976,-83.6975686718,273.207855225,0.001156,0.0,0.0,0.0,0.001156,0.0,0.0,0.0,0.004356,2
1671465825220937995,24007,1671465825220495402,gps,2,1,42.3009652979,-83.697568671,273.207763672,0.001156,0.0,0.0,0.0,0.001156,0.0,0.0,0.0,0.004356,2
1671465825240942135,24008,1671465825240534235,gps,2,1,42.3009652988,-83.6975686702,273.207733154,0.001156,0.0,0.0,0.0,0.001156,0.0,0.0,0.0,0.004356,2
1671465825261053022,24009,1671465825260549395,gps,2,1,42.3009652992,-83.6975686719,273.207702637,0.001156,0.0,0.0,0.0,0.001156,0.0,0.0,0.0,0.004356,2
1671465825280914140,24010,1671465825280486180,gps,2,1,42.3009653002,-83.6975686712,273.207641602,0.001156,0.0,0.0,0.0,0.001156,0.0,0.0,0.0,0.004356,2
1671465825300953218,24011,1671465825300479555,gps,2,1,42.3009653012,-83.6975686705,273.207580566,0.001156,0.0,0.0,0.0,0.001156,0.0,0.0,0.0,0.004356,2
1671465825321076392,24012,1671465825320649859,gps,2,1,42.3009653017,-83.6975686721,273.207550049,0.001156,0.0,0.0,0.0,0.001156,0.0,0.0,0.0,0.004356,2
1671465825341036287,24013,1671465825340533444,gps,2,1,42.3009653028,-83.6975686713,273.207519531,0.001156,0.0,0.0,0.0,0.001156,0.0,0.0,0.0,0.004356,2
1671465825360898003,24014,1671465825360527357,gps,2,1,42.3009653031,-83.6975686712,273.207458496,0.001156,0.0,0.0,0.0,0.001156,0.0,0.0,0.0,0.004356,2
1671465825381012429,24015,1671465825380606910,gps,2,1,42.3009653037,-83.6975686726,273.207458496,0.001156,0.0,0.0,0.0,0.001156,0.0,0.0,0.0,0.004356,2
1671465825400960052,24016,1671465825400510428,gps,2,1,42.3009653041,-83.6975686725,273.207397461,0.001156,0.0,0.0,0.0,0.001156,0.0,0.0,0.0,0.004356,2
1671465825421049589,24017,1671465825420575472,gps,2,1,42.3009653044,-83.6975686724,273.207366943,0.001156,0.0,0.0,0.0,0.001156,0.0,0.0,0.0,0.004356,2
1671465825440974494,24018,1671465825440557145,gps,2,1,42.3009653049,-83.6975686738,273.207336426,0.001156,0.0,0.0,0.0,0.001156,0.0,0.0,0.0,0.004356,2
1671465825461019624,24019,1671465825460570958,gps,2,1,42.3009653048,-83.6975686729,273.207275391,0.001156,0.0,0.0,0.0,0.001156,0.0,0.0,0.0,0.004356,2
1671465825481085925,24020,1671465825480575224,gps,2,1,42.3009653046,-83.6975686721,273.207183838,0.001156,0.0,0.0,0.0,0.001156,0.0,0.0,0.0,0.004356,2
1671465825501028004,24021,1671465825500581798,gps,2,1,42.300965305,-83.6975686736,273.20715332,0.001156,0.0,0.0,0.0,0.001156,0.0,0.0,0.0,0.004356,2
1671465825520944339,24022,1671465825520522993,gps,2,1,42.3009653048,-83.6975686729,273.207092285,0.001156,0.0,0.0,0.0,0.001156,0.0,0.0,0.0,0.004356,2
1671465825540949435,24023,1671465825540561759,gps,2,1,42.3009653047,-83.6975686724,273.20703125,0.001156,0.0,0.0,0.0,0.001156,0.0,0.0,0.0,0.004356,2
1671465825561098400,24024,1671465825560712392,gps,2,1,42.3009653051,-83.6975686739,273.207000732,0.001156,0.0,0.0,0.0,0.001156,0.0,0.0,0.0,0.004356,2
1671465825581035492,24025,1671465825580553942,gps,2,1,42.3009653053,-83.6975686742,273.206939697,0.001156,0.0,0.0,0.0,0.001156,0.0,0.0,0.0,0.004356,2
1671465825601008048,24026,1671465825600578369,gps,2,1,42.3009653054,-83.6975686742,273.20690918,0.001156,0.0,0.0,0.0,0.001156,0.0,0.0,0.0,0.004356,2
1671465825621102764,24027,1671465825620672916,gps,2,1,42.3009653059,-83.6975686759,273.206878662,0.001156,0.0,0.0,0.0,0.001156,0.0,0.0,0.0,0.004356,2
1671465825641106859,24028,1671465825640582792,gps,2,1,42.3009653061,-83.6975686759,273.206817627,0.001156,0.0,0.0,0.0,0.001156,0.0,0.0,0.0,0.004356,2
1671465825661261269,24029,1671465825660580177,gps,2,1,42.3009653064,-83.6975686747,273.206787109,0.001156,0.0,0.0,0.0,0.001156,0.0,0.0,0.0,0.004356,2
1671465825681077356,24030,1671465825680611385,gps,2,1,42.3009653071,-83.6975686763,273.206787109,0.001156,0.0,0.0,0.0,0.001156,0.0,0.0,0.0,0.004356,2
1671465825701074952,24031,1671465825700583547,gps,2,1,42.3009653074,-83.697568675,273.206726074,0.001156,0.0,0.0,0.0,0.001156,0.0,0.0,0.0,0.004356,2
1671465825721014067,24032,1671465825720580005,gps,2,1,42.3009653077,-83.6975686738,273.206695557,0.001156,0.0,0.0,0.0,0.001156,0.0,0.0,0.0,0.004356,2
1671465825741076486,24033,1671465825740613790,gps,2,1,42.3009653085,-83.6975686752,273.206665039,0.001156,0.0,0.0,0.0,0.001156,0.0,0.0,0.0,0.004356,2
1671465825761094552,24034,1671465825760624471,gps,2,1,42.3009653088,-83.6975686755,273.206634521,0.001156,0.0,0.0,0.0,0.001156,0.0,0.0,0.0,0.004356,2
1671465825781019420,24035,1671465825780520305,gps,2,1,42.3009653092,-83.697568676,273.206573486,0.001156,0.0,0.0,0.0,0.001156,0.0,0.0,0.0,0.004356,2
1671465825801048904,24036,1671465825800611804,gps,2,1,42.3009653098,-83.6975686774,273.206542969,0.001156,0.0,0.0,0.0,0.001156,0.0,0.0,0.0,0.004356,2
1671465825821277038,24037,1671465825820749871,gps,2,1,42.3009653101,-83.697568678,273.206512451,0.001156,0.0,0.0,0.0,0.001156,0.0,0.0,0.0,0.004356,2
1671465825841004964,24038,1671465825840520432,gps,2,1,42.3009653097,-83.6975686769,273.206451416,0.001156,0.0,0.0,0.0,0.001156,0.0,0.0,0.0,0.004356,2
1671465825861151787,24039,1671465825860634287,gps,2,1,42.3009653102,-83.6975686785,273.206420898,0.001156,0.0,0.0,0.0,0.001156,0.0,0.0,0.0,0.004356,2
1671465825881121798,24040,1671465825880655089,gps,2,1,42.3009653097,-83.6975686776,273.206390381,0.001156,0.0,0.0,0.0,0.001156,0.0,0.0,0.0,0.004356,2
1671465825901029071,24041,1671465825900561733,gps,2,1,42.3009653093,-83.6975686768,273.206359863,0.001156,0.0,0.0,0.0,0.001156,0.0,0.0,0.0,0.004356,2
1671465825921036556,24042,1671465825920613100,gps,2,1,42.3009653098,-83.6975686784,273.206329346,0.001156,0.0,0.0,0.0,0.001156,0.0,0.0,0.0,0.004356,2
1671465825941103582,24043,1671465825940643666,gps,2,1,42.3009653096,-83.6975686771,273.206268311,0.001156,0.0,0.0,0.0,0.001156,0.0,0.0,0.0,0.004356,2
1671465825961112701,24044,1671465825960592312,gps,2,1,42.3009653093,-83.6975686758,273.206207275,0.001156,0.0,0.0,0.0,0.001156,0.0,0.0,0.0,0.004356,2
1671465825981141201,24045,1671465825980569969,gps,2,1,42.3009653099,-83.6975686773,273.206176758,0.001156,0.0,0.0,0.0,0.001156,0.0,0.0,0.0,0.004356,2
1671465826001124416,24046,1671465826000656575,gps,2,1,42.3009653098,-83.6975686761,273.206085205,0.001156,0.0,0.0,0.0,0.001156,0.0,0.0,0.0,0.004356,2
1671465826021117477,24047,1671465826020583047,gps,2,1,42.3009653105,-83.6975686751,273.20602417,0.001156,0.0,0.0,0.0,0.001156,0.0,0.0,0.0,0.004356,2
1671465826041043811,24048,1671465826040601984,gps,2,1,42.3009653112,-83.6975686765,273.205993652,0.001156,0.0,0.0,0.0,0.001156,0.0,0.0,0.0,0.004356,2
1671465826061233851,24049,1671465826060712655,gps,2,1,42.3009653121,-83.6975686756,273.205932617,0.001156,0.0,0.0,0.0,0.001156,0.0,0.0,0.0,0.004356,2
1671465826081123888,24050,1671465826080655396,gps,2,1,42.3009653127,-83.6975686742,273.205841064,0.001156,0.0,0.0,0.0,0.001156,0.0,0.0,0.0,0.004356,2
1671465826101185126,24051,1671465826100713064,gps,2,1,42.3009653135,-83.6975686756,273.205810547,0.001156,0.0,0.0,0.0,0.001156,0.0,0.0,0.0,0.004356,2
1671465826121202478,24052,1671465826120707355,gps,2,1,42.3009653142,-83.6975686743,273.205718994,0.001156,0.0,0.0,0.0,0.001156,0.0,0.0,0.0,0.004356,2
1671465826141139560,24053,1671465826140652761,gps,2,1,42.3009653148,-83.6975686732,273.205627441,0.001156,0.0,0.0,0.0,0.001156,0.0,0.0,0.0,0.004356,2
1671465826160964748,24054,1671465826160556488,gps,2,1,42.3009653156,-83.6975686746,273.205596924,0.001156,0.0,0.0,0.0,0.001156,0.0,0.0,0.0,0.004356,2
1671465826181160416,24055,1671465826180679196,gps,2,1,42.3009653162,-83.6975686736,273.205505371,0.001156,0.0,0.0,0.0,0.001156,0.0,0.0,0.0,0.004356,2
1671465826201137616,24056,1671465826200637998,gps,2,1,42.3009653168,-83.6975686727,273.205413818,0.001156,0.0,0.0,0.0,0.001156,0.0,0.0,0.0,0.004356,2
1671465826221312806,24057,1671465826220660036,gps,2,1,42.3009653174,-83.6975686741,273.205383301,0.001156,0.0,0.0,0.0,0.001156,0.0,0.0,0.0,0.004356,2
1671465826241189246,24058,1671465826240702183,gps,2,1,42.3009653169,-83.6975686732,273.205291748,0.001156,0.0,0.0,0.0,0.001156,0.0,0.0,0.0,0.004356,2
1671465826261318181,24059,1671465826260661891,gps,2,1,42.3009653164,-83.6975686724,273.205200195,0.001156,0.0,0.0,0.0,0.001156,0.0,0.0,0.0,0.004356,2
1671465826281175208,24060,1671465826280653627,gps,2,1,42.300965317,-83.6975686739,273.20513916,0.001156,0.0,0.0,0.0,0.001156,0.0,0.0,0.0,0.004356,2
1671465826301167557,24061,1671465826300667305,gps,2,1,42.3009653165,-83.6975686733,273.205078125,0.001156,0.0,0.0,0.0,0.001156,0.0,0.0,0.0,0.004356,2
1671465826321221599,24062,1671465826320739349,gps,2,1,42.3009653162,-83.6975686725,273.204986572,0.001156,0.0,0.0,0.0,0.001156,0.0,0.0,0.0,0.004356,2
1671465826341126605,24063,1671465826340650918,gps,2,1,42.3009653168,-83.697568674,273.204956055,0.001156,0.0,0.0,0.0,0.001156,0.0,0.0,0.0,0.004356,2
1671465826361169130,24064,1671465826360675709,gps,2,1,42.3009653167,-83.6975686732,273.20489502,0.001156,0.0,0.0,0.0,0.001156,0.0,0.0,0.0,0.004356,2
1671465826381134687,24065,1671465826380626970,gps,2,1,42.3009653166,-83.6975686725,273.204803467,0.001156,0.0,0.0,0.0,0.001156,0.0,0.0,0.0,0.004356,2
1671465826401137371,24066,1671465826400644742,gps,2,1,42.3009653174,-83.6975686738,273.204772949,0.001156,0.0,0.0,0.0,0.001156,0.0,0.0,0.0,0.004356,2
1671465826421066827,24067,1671465826420688394,gps,2,1,42.3009653174,-83.6975686731,273.204711914,0.001156,0.0,0.0,0.0,0.001156,0.0,0.0,0.0,0.004356,2
1671465826441157860,24068,1671465826440642277,gps,2,1,42.3009653176,-83.6975686713,273.204650879,0.001156,0.0,0.0,0.0,0.001156,0.0,0.0,0.0,0.004356,2
1671465826461181882,24069,1671465826460673436,gps,2,1,42.3009653184,-83.6975686726,273.204620361,0.001156,0.0,0.0,0.0,0.001156,0.0,0.0,0.0,0.004356,2
1671465826481202667,24070,1671465826480729393,gps,2,1,42.3009653187,-83.6975686709,273.204559326,0.001156,0.0,0.0,0.0,0.001156,0.0,0.0,0.0,0.004356,2
1671465826501132533,24071,1671465826500642311,gps,2,1,42.3009653189,-83.6975686693,273.204467773,0.001156,0.0,0.0,0.0,0.001156,0.0,0.0,0.0,0.004356,2
1671465826521159978,24072,1671465826520714645,gps,2,1,42.3009653198,-83.6975686706,273.204437256,0.001156,0.0,0.0,0.0,0.001156,0.0,0.0,0.0,0.004356,2
1671465826541133254,24073,1671465826540726579,gps,2,1,42.3009653195,-83.6975686704,273.204376221,0.001156,0.0,0.0,0.0,0.001156,0.0,0.0,0.0,0.004356,2
1671465826561126055,24074,1671465826560695630,gps,2,1,42.3009653193,-83.6975686703,273.204315186,0.001156,0.0,0.0,0.0,0.001156,0.0,0.0,0.0,0.004356,2
1671465826581143691,24075,1671465826580731253,gps,2,1,42.3009653201,-83.6975686717,273.204284668,0.001156,0.0,0.0,0.0,0.001156,0.0,0.0,0.0,0.004356,2
1671465826601154790,24076,1671465826600765244,gps,2,1,42.3009653193,-83.6975686712,273.204284668,0.001156,0.0,0.0,0.0,0.001156,0.0,0.0,0.0,0.004356,2
1671465826621149229,24077,1671465826620712085,gps,2,1,42.3009653192,-83.6975686703,273.20425415,0.001156,0.0,0.0,0.0,0.001156,0.0,0.0,0.0,0.004356,2
1671465826641287874,24078,1671465826640755515,gps,2,1,42.3009653199,-83.6975686718,273.204223633,0.001156,0.0,0.0,0.0,0.001156,0.0,0.0,0.0,0.004356,2
1671465826661241238,24079,1671465826660796806,gps,2,1,42.3009653197,-83.697568671,273.204223633,0.001156,0.0,0.0,0.0,0.001156,0.0,0.0,0.0,0.004356,2
1671465826681186617,24080,1671465826680652528,gps,2,1,42.3009653196,-83.6975686702,273.20425415,0.001156,0.0,0.0,0.0,0.001156,0.0,0.0,0.0,0.004356,2
1671465826701146140,24081,1671465826700665640,gps,2,1,42.3009653203,-83.6975686716,273.204223633,0.001156,0.0,0.0,0.0,0.001156,0.0,0.0,0.0,0.004356,2
1671465826721204655,24082,1671465826720715346,gps,2,1,42.3009653202,-83.6975686709,273.204193115,0.001156,0.0,0.0,0.0,0.001156,0.0,0.0,0.0,0.004356,2
1671465826741285578,24083,1671465826740669610,gps,2,1,42.3009653198,-83.6975686704,273.204193115,0.001369,0.0,0.0,0.0,0.001444,0.0,0.0,0.0,0.004624,2
1671465826761305194,24084,1671465826760771666,gps,2,1,42.3009653206,-83.6975686717,273.20413208,0.001369,0.0,0.0,0.0,0.001444,0.0,0.0,0.0,0.004624,2
1671465826781240718,24085,1671465826780720445,gps,2,1,42.3009653202,-83.6975686713,273.20413208,0.001369,0.0,0.0,0.0,0.001444,0.0,0.0,0.0,0.004624,2
1671465826801191824,24086,1671465826800722346,gps,2,1,42.3009653199,-83.6975686708,273.204101562,0.001369,0.0,0.0,0.0,0.001444,0.0,0.0,0.0,0.004624,2
1671465826821292732,24087,1671465826820894239,gps,2,1,42.3009653207,-83.6975686721,273.204040527,0.001369,0.0,0.0,0.0,0.001444,0.0,0.0,0.0,0.004624,2
1671465826841073106,24088,1671465826840677609,gps,2,1,42.3009653205,-83.6975686716,273.20401001,0.001369,0.0,0.0,0.0,0.001444,0.0,0.0,0.0,0.004624,2
1671465826861167193,24089,1671465826860706682,gps,2,1,42.3009653204,-83.6975686708,273.203979492,0.001369,0.0,0.0,0.0,0.001444,0.0,0.0,0.0,0.004624,2
1671465826881248883,24090,1671465826880758128,gps,2,1,42.3009653212,-83.697568672,273.203948975,0.001369,0.0,0.0,0.0,0.001444,0.0,0.0,0.0,0.004624,2
1671465826901173952,24091,1671465826900727546,gps,2,1,42.3009653211,-83.6975686713,273.203918457,0.001369,0.0,0.0,0.0,0.001444,0.0,0.0,0.0,0.004624,2
1671465826921156361,24092,1671465826920750886,gps,2,1,42.300965321,-83.6975686706,273.203918457,0.001369,0.0,0.0,0.0,0.001444,0.0,0.0,0.0,0.004624,2
1671465826941249004,24093,1671465826940793140,gps,2,1,42.3009653218,-83.6975686719,273.203887939,0.001369,0.0,0.0,0.0,0.001444,0.0,0.0,0.0,0.004624,2
1671465826961256865,24094,1671465826960749180,gps,2,1,42.3009653221,-83.697568671,273.203857422,0.001369,0.0,0.0,0.0,0.001444,0.0,0.0,0.0,0.004624,2
1671465826981160300,24095,1671465826980718144,gps,2,1,42.3009653224,-83.6975686701,273.203857422,0.001369,0.0,0.0,0.0,0.001444,0.0,0.0,0.0,0.004624,2
1671465827001256752,24096,1671465827000737048,gps,2,1,42.3009653232,-83.6975686715,273.203826904,0.001369,0.0,0.0,0.0,0.001444,0.0,0.0,0.0,0.004624,2
1671465827021228989,24097,1671465827020691272,gps,2,1,42.3009653235,-83.6975686707,273.203796387,0.001369,0.0,0.0,0.0,0.001444,0.0,0.0,0.0,0.004624,2
1671465827041404014,24098,1671465827040738339,gps,2,1,42.3009653234,-83.6975686699,273.203796387,0.001369,0.0,0.0,0.0,0.001444,0.0,0.0,0.0,0.004624,2
1671465827061294968,24099,1671465827060849414,gps,2,1,42.3009653242,-83.6975686713,273.203765869,0.001369,0.0,0.0,0.0,0.001444,0.0,0.0,0.0,0.004624,2
1671465827081157101,24100,1671465827080741538,gps,2,1,42.3009653242,-83.6975686706,273.203765869,0.001369,0.0,0.0,0.0,0.001444,0.0,0.0,0.0,0.004624,2
1671465827101296993,24101,1671465827100845578,gps,2,1,42.3009653239,-83.6975686693,273.203796387,0.001369,0.0,0.0,0.0,0.001444,0.0,0.0,0.0,0.004624,2
1671465827121303185,24102,1671465827120834333,gps,2,1,42.3009653248,-83.6975686705,273.203765869,0.001369,0.0,0.0,0.0,0.001444,0.0,0.0,0.0,0.004624,2
1671465827141311254,24103,1671465827140760822,gps,2,1,42.3009653246,-83.6975686693,273.203796387,0.001369,0.0,0.0,0.0,0.001444,0.0,0.0,0.0,0.004624,2
1671465827161356175,24104,1671465827160825653,gps,2,1,42.3009653243,-83.6975686681,273.203857422,0.001369,0.0,0.0,0.0,0.001444,0.0,0.0,0.0,0.004624,2
1671465827181386300,24105,1671465827180855649,gps,2,1,42.3009653253,-83.6975686693,273.203826904,0.001369,0.0,0.0,0.0,0.001444,0.0,0.0,0.0,0.004624,2
1671465827201319527,24106,1671465827200803127,gps,2,1,42.3009653251,-83.6975686681,273.203887939,0.001369,0.0,0.0,0.0,0.001444,0.0,0.0,0.0,0.004624,2
1671465827221360026,24107,1671465827220857191,gps,2,1,42.3009653249,-83.6975686671,273.203918457,0.001369,0.0,0.0,0.0,0.001444,0.0,0.0,0.0,0.004624,2
1671465827241374914,24108,1671465827240880659,gps,2,1,42.3009653259,-83.6975686683,273.203887939,0.001369,0.0,0.0,0.0,0.001444,0.0,0.0,0.0,0.004624,2
1671465827261210622,24109,1671465827260752480,gps,2,1,42.3009653256,-83.6975686673,273.203918457,0.001369,0.0,0.0,0.0,0.001444,0.0,0.0,0.0,0.004624,2
1671465827281252585,24110,1671465827280741452,gps,2,1,42.3009653253,-83.6975686663,273.203948975,0.001369,0.0,0.0,0.0,0.001444,0.0,0.0,0.0,0.004624,2
1671465827301250490,24111,1671465827300799336,gps,2,1,42.3009653262,-83.6975686675,273.203918457,0.001369,0.0,0.0,0.0,0.001444,0.0,0.0,0.0,0.004624,2
1671465827321250682,24112,1671465827320834946,gps,2,1,42.3009653259,-83.6975686667,273.203948975,0.001369,0.0,0.0,0.0,0.001444,0.0,0.0,0.0,0.004624,2
1671465827341188139,24113,1671465827340744909,gps,2,1,42.3009653252,-83.6975686655,273.203979492,0.001369,0.0,0.0,0.0,0.001444,0.0,0.0,0.0,0.004624,2
1671465827361204828,24114,1671465827360797220,gps,2,1,42.3009653261,-83.6975686667,273.203948975,0.001369,0.0,0.0,0.0,0.001444,0.0,0.0,0.0,0.004624,2
1671465827381277440,24115,1671465827380743103,gps,2,1,42.3009653255,-83.6975686655,273.203979492,0.001369,0.0,0.0,0.0,0.001444,0.0,0.0,0.0,0.004624,2
1671465827401226913,24116,1671465827400766293,gps,2,1,42.3009653249,-83.6975686643,273.20401001,0.001369,0.0,0.0,0.0,0.001444,0.0,0.0,0.0,0.004624,2
1671465827421321107,24117,1671465827420819516,gps,2,1,42.3009653258,-83.6975686655,273.203948975,0.001369,0.0,0.0,0.0,0.001444,0.0,0.0,0.0,0.004624,2
1671465827441211051,24118,1671465827440743432,gps,2,1,42.3009653253,-83.6975686644,273.203979492,0.001369,0.0,0.0,0.0,0.001444,0.0,0.0,0.0,0.004624,2
1671465827461296281,24119,1671465827460781021,gps,2,1,42.300965325,-83.6975686639,273.20401001,0.001369,0.0,0.0,0.0,0.001444,0.0,0.0,0.0,0.004624,2
1671465827481267503,24120,1671465827480821038,gps,2,1,42.3009653258,-83.6975686651,273.203979492,0.001369,0.0,0.0,0.0,0.001444,0.0,0.0,0.0,0.004624,2
1671465827501264552,24121,1671465827500802928,gps,2,1,42.3009653255,-83.6975686646,273.20401001,0.001369,0.0,0.0,0.0,0.001444,0.0,0.0,0.0,0.004624,2
1671465827521237575,24122,1671465827520786416,gps,2,1,42.3009653253,-83.6975686642,273.204040527,0.001369,0.0,0.0,0.0,0.001444,0.0,0.0,0.0,0.004624,2
1671465827541319785,24123,1671465827540863440,gps,2,1,42.3009653262,-83.6975686653,273.20401001,0.001369,0.0,0.0,0.0,0.001444,0.0,0.0,0.0,0.004624,2
1671465827561244888,24124,1671465827560777938,gps,2,1,42.3009653252,-83.6975686644,273.204040527,0.001369,0.0,0.0,0.0,0.001444,0.0,0.0,0.0,0.004624,2
1671465827581318903,24125,1671465827580874633,gps,2,1,42.3009653244,-83.6975686635,273.204040527,0.001369,0.0,0.0,0.0,0.001444,0.0,0.0,0.0,0.004624,2
1671465827601417257,24126,1671465827600950297,gps,2,1,42.3009653253,-83.6975686646,273.20401001,0.001369,0.0,0.0,0.0,0.001444,0.0,0.0,0.0,0.004624,2
1671465827621208898,24127,1671465827620815065,gps,2,1,42.3009653239,-83.6975686633,273.204040527,0.001369,0.0,0.0,0.0,0.001444,0.0,0.0,0.0,0.004624,2
1671465827641321844,24128,1671465827640903221,gps,2,1,42.3009653226,-83.6975686621,273.204071045,0.001369,0.0,0.0,0.0,0.001444,0.0,0.0,0.0,0.004624,2
1671465827661363781,24129,1671465827660920411,gps,2,1,42.3009653236,-83.6975686633,273.204040527,0.001369,0.0,0.0,0.0,0.001444,0.0,0.0,0.0,0.004624,2
1671465827681242790,24130,1671465827680808261,gps,2,1,42.3009653235,-83.697568663,273.20401001,0.001369,0.0,0.0,0.0,0.001444,0.0,0.0,0.0,0.004624,2
1671465827701238027,24131,1671465827700783166,gps,2,1,42.3009653234,-83.6975686629,273.20401001,0.001369,0.0,0.0,0.0,0.001444,0.0,0.0,0.0,0.004624,2
1671465827721379418,24132,1671465827720912085,gps,2,1,42.3009653244,-83.697568664,273.203979492,0.001369,0.0,0.0,0.0,0.001444,0.0,0.0,0.0,0.004624,2
1671465827741231118,24133,1671465827740805801,gps,2,1,42.3009653244,-83.6975686639,273.203979492,0.001369,0.0,0.0,0.0,0.001444,0.0,0.0,0.0,0.004624,2
1671465827761349213,24134,1671465827760901675,gps,2,1,42.3009653235,-83.6975686638,273.203979492,0.001369,0.0,0.0,0.0,0.001444,0.0,0.0,0.0,0.004624,2
1671465827781265854,24135,1671465827780842508,gps,2,1,42.3009653245,-83.6975686649,273.203948975,0.001369,0.0,0.0,0.0,0.001444,0.0,0.0,0.0,0.004624,2
1671465827801363924,24136,1671465827800823221,gps,2,1,42.3009653237,-83.6975686648,273.203948975,0.001369,0.0,0.0,0.0,0.001444,0.0,0.0,0.0,0.004624,2
1671465827821467760,24137,1671465827821013046,gps,2,1,42.3009653229,-83.6975686647,273.203948975,0.001369,0.0,0.0,0.0,0.001444,0.0,0.0,0.0,0.004624,2
1671465827841317558,24138,1671465827840897444,gps,2,1,42.3009653238,-83.6975686657,273.203918457,0.001369,0.0,0.0,0.0,0.001444,0.0,0.0,0.0,0.004624,2
1671465827861306456,24139,1671465827860813862,gps,2,1,42.3009653229,-83.6975686647,273.203918457,0.001369,0.0,0.0,0.0,0.001444,0.0,0.0,0.0,0.004624,2
1671465827881374026,24140,1671465827880853238,gps,2,1,42.3009653221,-83.6975686637,273.203918457,0.001369,0.0,0.0,0.0,0.001444,0.0,0.0,0.0,0.004624,2
1671465827901423327,24141,1671465827900910792,gps,2,1,42.300965323,-83.6975686647,273.203887939,0.001369,0.0,0.0,0.0,0.001444,0.0,0.0,0.0,0.004624,2
1671465827921301150,24142,1671465827920835257,gps,2,1,42.3009653222,-83.6975686638,273.203857422,0.001369,0.0,0.0,0.0,0.001444,0.0,0.0,0.0,0.004624,2
1671465827941385598,24143,1671465827940878970,gps,2,1,42.3009653215,-83.6975686629,273.203857422,0.001369,0.0,0.0,0.0,0.001444,0.0,0.0,0.0,0.004624,2
1671465827961508205,24144,1671465827960906989,gps,2,1,42.3009653224,-83.6975686639,273.203826904,0.001369,0.0,0.0,0.0,0.001444,0.0,0.0,0.0,0.004624,2
1671465827981295842,24145,1671465827980846768,gps,2,1,42.3009653221,-83.6975686637,273.203826904,0.001369,0.0,0.0,0.0,0.001444,0.0,0.0,0.0,0.004624,2
1671465828001474912,24146,1671465828000794693,gps,2,1,42.3009653218,-83.6975686636,273.203826904,0.001369,0.0,0.0,0.0,0.001444,0.0,0.0,0.0,0.004624,2
1671465828021367289,24147,1671465828020903148,gps,2,1,42.3009653227,-83.6975686647,273.203796387,0.001369,0.0,0.0,0.0,0.001444,0.0,0.0,0.0,0.004624,2
1671465828041509822,24148,1671465828040922761,gps,2,1,42.3009653224,-83.6975686651,273.203796387,0.001369,0.0,0.0,0.0,0.001444,0.0,0.0,0.0,0.004624,2
1671465828061453223,24149,1671465828060935135,gps,2,1,42.3009653221,-83.6975686655,273.203765869,0.001369,0.0,0.0,0.0,0.001444,0.0,0.0,0.0,0.004624,2
1671465828081480487,24150,1671465828081017880,gps,2,1,42.3009653231,-83.6975686665,273.203735352,0.001369,0.0,0.0,0.0,0.001444,0.0,0.0,0.0,0.004624,2
1671465828101419451,24151,1671465828100944633,gps,2,1,42.3009653224,-83.6975686667,273.203735352,0.001369,0.0,0.0,0.0,0.001444,0.0,0.0,0.0,0.004624,2
1671465828121337594,24152,1671465828120868933,gps,2,1,42.3009653221,-83.6975686669,273.203735352,0.001369,0.0,0.0,0.0,0.001444,0.0,0.0,0.0,0.004624,2
1671465828141400385,24153,1671465828140924150,gps,2,1,42.300965323,-83.6975686679,273.203674316,0.001369,0.0,0.0,0.0,0.001444,0.0,0.0,0.0,0.004624,2
1671465828161551910,24154,1671465828160920552,gps,2,1,42.3009653227,-83.6975686681,273.203674316,0.001369,0.0,0.0,0.0,0.001444,0.0,0.0,0.0,0.004624,2
1671465828181244935,24155,1671465828180826285,gps,2,1,42.3009653225,-83.6975686683,273.203674316,0.001369,0.0,0.0,0.0,0.001444,0.0,0.0,0.0,0.004624,2
1671465828201379769,24156,1671465828200863206,gps,2,1,42.3009653234,-83.6975686693,273.203613281,0.001369,0.0,0.0,0.0,0.001444,0.0,0.0,0.0,0.004624,2
1671465828221433900,24157,1671465828220872418,gps,2,1,42.3009653232,-83.6975686696,273.203613281,0.001369,0.0,0.0,0.0,0.001444,0.0,0.0,0.0,0.004624,2
1671465828241263185,24158,1671465828240828041,gps,2,1,42.3009653228,-83.6975686692,273.203582764,0.001369,0.0,0.0,0.0,0.001444,0.0,0.0,0.0,0.004624,2
1671465828261379381,24159,1671465828260887691,gps,2,1,42.3009653238,-83.6975686703,273.203552246,0.001369,0.0,0.0,0.0,0.001444,0.0,0.0,0.0,0.004624,2
1671465828281329845,24160,1671465828280896467,gps,2,1,42.3009653236,-83.6975686699,273.203552246,0.001369,0.0,0.0,0.0,0.001444,0.0,0.0,0.0,0.004624,2
1671465828301291892,24161,1671465828300826002,gps,2,1,42.3009653234,-83.6975686696,273.203521729,0.001369,0.0,0.0,0.0,0.001444,0.0,0.0,0.0,0.004624,2
1671465828321536730,24162,1671465828320940115,gps,2,1,42.3009653243,-83.6975686706,273.203491211,0.001369,0.0,0.0,0.0,0.001444,0.0,0.0,0.0,0.004624,2
1671465828341437745,24163,1671465828340908754,gps,2,1,42.3009653242,-83.6975686696,273.203491211,0.001369,0.0,0.0,0.0,0.001444,0.0,0.0,0.0,0.004624,2
1671465828361376269,24164,1671465828360868252,gps,2,1,42.3009653242,-83.6975686687,273.203460693,0.001369,0.0,0.0,0.0,0.001444,0.0,0.0,0.0,0.004624,2
1671465828381349856,24165,1671465828380860925,gps,2,1,42.3009653251,-83.6975686696,273.203430176,0.001369,0.0,0.0,0.0,0.001444,0.0,0.0,0.0,0.004624,2
1671465828401465250,24166,1671465828400917572,gps,2,1,42.3009653251,-83.6975686687,273.203430176,0.001369,0.0,0.0,0.0,0.001444,0.0,0.0,0.0,0.004624,2
1671465828421350469,24167,1671465828420866388,gps,2,1,42.3009653235,-83.6975686678,273.203399658,0.001369,0.0,0.0,0.0,0.001444,0.0,0.0,0.0,0.004624,2
1671465828441321794,24168,1671465828440862830,gps,2,1,42.3009653245,-83.6975686687,273.203369141,0.001369,0.0,0.0,0.0,0.001444,0.0,0.0,0.0,0.004624,2
1671465828461443392,24169,1671465828460975162,gps,2,1,42.300965323,-83.6975686679,273.203338623,0.001369,0.0,0.0,0.0,0.001444,0.0,0.0,0.0,0.004624,2
1671465828481363919,24170,1671465828480899877,gps,2,1,42.3009653216,-83.6975686672,273.203308105,0.001369,0.0,0.0,0.0,0.001444,0.0,0.0,0.0,0.004624,2
1671465828501331459,24171,1671465828500917559,gps,2,1,42.3009653225,-83.6975686682,273.203277588,0.001369,0.0,0.0,0.0,0.001444,0.0,0.0,0.0,0.004624,2
1671465828521380088,24172,1671465828520965193,gps,2,1,42.3009653211,-83.6975686676,273.20324707,0.001369,0.0,0.0,0.0,0.001444,0.0,0.0,0.0,0.004624,2
1671465828541300607,24173,1671465828540909613,gps,2,1,42.3009653211,-83.6975686667,273.20324707,0.001369,0.0,0.0,0.0,0.001444,0.0,0.0,0.0,0.004624,2
1671465828561374360,24174,1671465828560935913,gps,2,1,42.3009653221,-83.6975686677,273.203216553,0.001369,0.0,0.0,0.0,0.001444,0.0,0.0,0.0,0.004624,2
1671465828581448453,24175,1671465828581024191,gps,2,1,42.3009653218,-83.6975686665,273.203216553,0.001369,0.0,0.0,0.0,0.001444,0.0,0.0,0.0,0.004624,2
1671465828601384366,24176,1671465828600896472,gps,2,1,42.3009653216,-83.6975686655,273.203216553,0.001369,0.0,0.0,0.0,0.001444,0.0,0.0,0.0,0.004624,2
1671465828621469347,24177,1671465828621013504,gps,2,1,42.3009653225,-83.6975686664,273.203186035,0.001369,0.0,0.0,0.0,0.001444,0.0,0.0,0.0,0.004624,2
1671465828641446502,24178,1671465828640995479,gps,2,1,42.3009653226,-83.697568666,273.203186035,0.001369,0.0,0.0,0.0,0.001444,0.0,0.0,0.0,0.004624,2
1671465828661343390,24179,1671465828660885984,gps,2,1,42.3009653227,-83.6975686656,273.203216553,0.001369,0.0,0.0,0.0,0.001444,0.0,0.0,0.0,0.004624,2
1671465828681474723,24180,1671465828681002774,gps,2,1,42.3009653236,-83.6975686665,273.203155518,0.001369,0.0,0.0,0.0,0.001444,0.0,0.0,0.0,0.004624,2
1671465828701458316,24181,1671465828700991564,gps,2,1,42.3009653238,-83.6975686661,273.203186035,0.001369,0.0,0.0,0.0,0.001444,0.0,0.0,0.0,0.004624,2
1671465828721412923,24182,1671465828720936895,gps,2,1,42.3009653235,-83.6975686656,273.203186035,0.001369,0.0,0.0,0.0,0.001444,0.0,0.0,0.0,0.004624,2
1671465828741415587,24183,1671465828740950852,gps,2,1,42.3009653245,-83.6975686664,273.203155518,0.001444,0.0,0.0,0.0,0.001444,0.0,0.0,0.0,0.004624,2
1671465828761492606,24184,1671465828760995902,gps,2,1,42.3009653243,-83.6975686659,273.203186035,0.001444,0.0,0.0,0.0,0.001444,0.0,0.0,0.0,0.004624,2
1671465828781403017,24185,1671465828780935942,gps,2,1,42.3009653241,-83.6975686655,273.203216553,0.001444,0.0,0.0,0.0,0.001444,0.0,0.0,0.0,0.004624,2
1671465828801452396,24186,1671465828800912799,gps,2,1,42.3009653252,-83.6975686662,273.203186035,0.001444,0.0,0.0,0.0,0.001444,0.0,0.0,0.0,0.004624,2
1671465828821531881,24187,1671465828821106030,gps,2,1,42.300965325,-83.6975686658,273.203186035,0.001444,0.0,0.0,0.0,0.001444,0.0,0.0,0.0,0.004624,2
1671465828841467878,24188,1671465828840932247,gps,2,1,42.3009653255,-83.6975686651,273.203216553,0.001444,0.0,0.0,0.0,0.001444,0.0,0.0,0.0,0.004624,2
1671465828861396356,24189,1671465828860952706,gps,2,1,42.3009653265,-83.6975686659,273.203155518,0.001444,0.0,0.0,0.0,0.001444,0.0,0.0,0.0,0.004624,2
1671465828881436587,24190,1671465828880992878,gps,2,1,42.3009653269,-83.6975686653,273.203155518,0.001444,0.0,0.0,0.0,0.001444,0.0,0.0,0.0,0.004624,2
1671465828901395849,24191,1671465828900968661,gps,2,1,42.3009653274,-83.6975686648,273.203155518,0.001444,0.0,0.0,0.0,0.001444,0.0,0.0,0.0,0.004624,2
1671465828921420629,24192,1671465828920969470,gps,2,1,42.3009653283,-83.6975686656,273.203125,0.001444,0.0,0.0,0.0,0.001444,0.0,0.0,0.0,0.004624,2
1671465828941458715,24193,1671465828940977190,gps,2,1,42.3009653274,-83.6975686655,273.203094482,0.001444,0.0,0.0,0.0,0.001444,0.0,0.0,0.0,0.004624,2
1671465828961400408,24194,1671465828960914079,gps,2,1,42.3009653266,-83.6975686653,273.203033447,0.001444,0.0,0.0,0.0,0.001444,0.0,0.0,0.0,0.004624,2
1671465828981406607,24195,1671465828980944987,gps,2,1,42.3009653275,-83.6975686663,273.20300293,0.001444,0.0,0.0,0.0,0.001444,0.0,0.0,0.0,0.004624,2
1671465829001474718,24196,1671465829001015981,gps,2,1,42.3009653267,-83.6975686662,273.202972412,0.001444,0.0,0.0,0.0,0.001444,0.0,0.0,0.0,0.004624,2
1671465829021380818,24197,1671465829020934241,gps,2,1,42.3009653258,-83.6975686664,273.202972412,0.001444,0.0,0.0,0.0,0.001444,0.0,0.0,0.0,0.004624,2
1671465829041422738,24198,1671465829040942792,gps,2,1,42.3009653267,-83.6975686672,273.202941895,0.001444,0.0,0.0,0.0,0.001444,0.0,0.0,0.0,0.004624,2
1671465829061656405,24199,1671465829061199661,gps,2,1,42.300965326,-83.6975686673,273.202941895,0.001444,0.0,0.0,0.0,0.001444,0.0,0.0,0.0,0.004624,2
1671465829081498318,24200,1671465829081028491,gps,2,1,42.3009653248,-83.6975686669,273.202972412,0.001444,0.0,0.0,0.0,0.001444,0.0,0.0,0.0,0.004624,2
1671465829101551976,24201,1671465829101115230,gps,2,1,42.3009653259,-83.6975686676,273.202941895,0.001444,0.0,0.0,0.0,0.001444,0.0,0.0,0.0,0.004624,2
1671465829121555715,24202,1671465829121056627,gps,2,1,42.3009653249,-83.6975686671,273.202941895,0.001444,0.0,0.0,0.0,0.001444,0.0,0.0,0.0,0.004624,2
1671465829141566118,24203,1671465829140993914,gps,2,1,42.3009653245,-83.6975686658,273.202911377,0.001444,0.0,0.0,0.0,0.001444,0.0,0.0,0.0,0.004624,2
1671465829161432612,24204,1671465829161002921,gps,2,1,42.3009653256,-83.6975686664,273.202850342,0.001444,0.0,0.0,0.0,0.001444,0.0,0.0,0.0,0.004624,2
1671465829181406975,24205,1671465829180999914,gps,2,1,42.3009653253,-83.6975686651,273.202850342,0.001444,0.0,0.0,0.0,0.001444,0.0,0.0,0.0,0.004624,2
1671465829201457737,24206,1671465829200984952,gps,2,1,42.3009653251,-83.6975686638,273.202819824,0.001444,0.0,0.0,0.0,0.001444,0.0,0.0,0.0,0.004624,2
1671465829221455300,24207,1671465829221024599,gps,2,1,42.3009653261,-83.6975686645,273.202758789,0.001444,0.0,0.0,0.0,0.001444,0.0,0.0,0.0,0.004624,2
1671465829241417101,24208,1671465829240963713,gps,2,1,42.3009653259,-83.6975686634,273.202728271,0.001444,0.0,0.0,0.0,0.001444,0.0,0.0,0.0,0.004624,2
1671465829261372710,24209,1671465829260952177,gps,2,1,42.3009653248,-83.6975686621,273.202728271,0.001444,0.0,0.0,0.0,0.001444,0.0,0.0,0.0,0.004624,2
1671465829281487576,24210,1671465829281029951,gps,2,1,42.3009653258,-83.6975686628,273.202667236,0.001444,0.0,0.0,0.0,0.001444,0.0,0.0,0.0,0.004624,2
1671465829301388448,24211,1671465829300963283,gps,2,1,42.3009653247,-83.6975686617,273.202667236,0.001444,0.0,0.0,0.0,0.001444,0.0,0.0,0.0,0.004624,2
1671465829321602404,24212,1671465829321084297,gps,2,1,42.3009653236,-83.6975686606,273.202667236,0.001444,0.0,0.0,0.0,0.001444,0.0,0.0,0.0,0.004624,2
1671465829341520898,24213,1671465829341035161,gps,2,1,42.3009653246,-83.6975686613,273.202636719,0.001444,0.0,0.0,0.0,0.001444,0.0,0.0,0.0,0.004624,2
1671465829361461053,24214,1671465829360991092,gps,2,1,42.3009653239,-83.6975686605,273.202636719,0.001444,0.0,0.0,0.0,0.001444,0.0,0.0,0.0,0.004624,2
1671465829381457665,24215,1671465829380966596,gps,2,1,42.3009653234,-83.6975686597,273.202636719,0.001444,0.0,0.0,0.0,0.001444,0.0,0.0,0.0,0.004624,2
1671465829401521188,24216,1671465829401094015,gps,2,1,42.3009653243,-83.6975686605,273.202606201,0.001444,0.0,0.0,0.0,0.001444,0.0,0.0,0.0,0.004624,2
1671465829421414744,24217,1671465829420981966,gps,2,1,42.3009653239,-83.6975686597,273.202606201,0.001444,0.0,0.0,0.0,0.001444,0.0,0.0,0.0,0.004624,2
1671465829441470486,24218,1671465829441015201,gps,2,1,42.3009653232,-83.6975686588,273.202575684,0.001444,0.0,0.0,0.0,0.001444,0.0,0.0,0.0,0.004624,2
1671465829461561658,24219,1671465829461108250,gps,2,1,42.3009653242,-83.6975686595,273.202545166,0.001444,0.0,0.0,0.0,0.001444,0.0,0.0,0.0,0.004624,2
1671465829481605137,24220,1671465829481044552,gps,2,1,42.3009653236,-83.6975686586,273.202514648,0.001444,0.0,0.0,0.0,0.001444,0.0,0.0,0.0,0.004624,2
1671465829501359182,24221,1671465829500968780,gps,2,1,42.3009653231,-83.6975686577,273.202514648,0.001444,0.0,0.0,0.0,0.001444,0.0,0.0,0.0,0.004624,2
1671465829521512225,24222,1671465829520956321,gps,2,1,42.3009653242,-83.6975686583,273.202453613,0.001444,0.0,0.0,0.0,0.001444,0.0,0.0,0.0,0.004624,2
1671465829541627278,24223,1671465829541091499,gps,2,1,42.3009653238,-83.6975686575,273.202423096,0.001444,0.0,0.0,0.0,0.001444,0.0,0.0,0.0,0.004624,2
1671465829561483504,24224,1671465829561035956,gps,2,1,42.3009653235,-83.697568656,273.202392578,0.001444,0.0,0.0,0.0,0.001444,0.0,0.0,0.0,0.004624,2
1671465829581636552,24225,1671465829581168663,gps,2,1,42.3009653246,-83.6975686565,273.202362061,0.001444,0.0,0.0,0.0,0.001444,0.0,0.0,0.0,0.004624,2
1671465829601471562,24226,1671465829601014094,gps,2,1,42.300965324,-83.6975686545,273.202362061,0.001444,0.0,0.0,0.0,0.001444,0.0,0.0,0.0,0.004624,2
1671465829621591783,24227,1671465829621064299,gps,2,1,42.3009653235,-83.6975686526,273.202331543,0.001444,0.0,0.0,0.0,0.001444,0.0,0.0,0.0,0.004624,2
1671465829641566126,24228,1671465829641080753,gps,2,1,42.3009653245,-83.6975686531,273.202301025,0.001444,0.0,0.0,0.0,0.001444,0.0,0.0,0.0,0.004624,2
1671465829661465437,24229,1671465829661019867,gps,2,1,42.3009653238,-83.6975686516,273.202301025,0.001444,0.0,0.0,0.0,0.001444,0.0,0.0,0.0,0.004624,2
1671465829681344070,24230,1671465829680961852,gps,2,1,42.3009653232,-83.6975686502,273.202301025,0.001444,0.0,0.0,0.0,0.001444,0.0,0.0,0.0,0.004624,2
1671465829701760597,24231,1671465829701120848,gps,2,1,42.3009653242,-83.6975686508,273.20223999,0.001444,0.0,0.0,0.0,0.001444,0.0,0.0,0.0,0.004624,2
1671465829721469776,24232,1671465829721061307,gps,2,1,42.3009653236,-83.6975686495,273.20223999,0.001444,0.0,0.0,0.0,0.001444,0.0,0.0,0.0,0.004624,2
1671465829741482514,24233,1671465829741020598,gps,2,1,42.3009653231,-83.6975686494,273.202209473,0.001444,0.0,0.0,0.0,0.001444,0.0,0.0,0.0,0.004624,2
1671465829761593195,24234,1671465829761161404,gps,2,1,42.300965324,-83.6975686499,273.202148438,0.001444,0.0,0.0,0.0,0.001444,0.0,0.0,0.0,0.004624,2
1671465829781596107,24235,1671465829781011278,gps,2,1,42.3009653236,-83.6975686499,273.20211792,0.001444,0.0,0.0,0.0,0.001444,0.0,0.0,0.0,0.004624,2
1671465829801470648,24236,1671465829800993944,gps,2,1,42.3009653233,-83.6975686499,273.202087402,0.001444,0.0,0.0,0.0,0.001444,0.0,0.0,0.0,0.004624,2
1671465829821719141,24237,1671465829821160690,gps,2,1,42.3009653242,-83.6975686505,273.202056885,0.001444,0.0,0.0,0.0,0.001444,0.0,0.0,0.0,0.004624,2
1671465829841562444,24238,1671465829841068062,gps,2,1,42.3009653239,-83.6975686505,273.202026367,0.001444,0.0,0.0,0.0,0.001444,0.0,0.0,0.0,0.004624,2
1671465829861506835,24239,1671465829861025921,gps,2,1,42.3009653225,-83.6975686499,273.202026367,0.001444,0.0,0.0,0.0,0.001444,0.0,0.0,0.0,0.004624,2
1671465829881610072,24240,1671465829881096917,gps,2,1,42.3009653235,-83.6975686504,273.20199585,0.001444,0.0,0.0,0.0,0.001444,0.0,0.0,0.0,0.004624,2
1671465829901510854,24241,1671465829901053914,gps,2,1,42.3009653222,-83.6975686498,273.20199585,0.001444,0.0,0.0,0.0,0.001444,0.0,0.0,0.0,0.004624,2
1671465829921562169,24242,1671465829921101610,gps,2,1,42.3009653209,-83.6975686492,273.20199585,0.001444,0.0,0.0,0.0,0.001444,0.0,0.0,0.0,0.004624,2
1671465829941590859,24243,1671465829941156273,gps,2,1,42.3009653219,-83.6975686497,273.201934814,0.001444,0.0,0.0,0.0,0.001444,0.0,0.0,0.0,0.004624,2
1671465829961503219,24244,1671465829961061651,gps,2,1,42.3009653224,-83.6975686489,273.201904297,0.001444,0.0,0.0,0.0,0.001444,0.0,0.0,0.0,0.004624,2
1671465829981555883,24245,1671465829981081402,gps,2,1,42.3009653229,-83.6975686482,273.201843262,0.001444,0.0,0.0,0.0,0.001444,0.0,0.0,0.0,0.004624,2
1671465830001574112,24246,1671465830001126504,gps,2,1,42.3009653239,-83.6975686487,273.201812744,0.001444,0.0,0.0,0.0,0.001444,0.0,0.0,0.0,0.004624,2
1671465830021563472,24247,1671465830021096132,gps,2,1,42.3009653244,-83.6975686479,273.201751709,0.001444,0.0,0.0,0.0,0.001444,0.0,0.0,0.0,0.004624,2
1671465830041464661,24248,1671465830041028988,gps,2,1,42.3009653241,-83.6975686471,273.201751709,0.001444,0.0,0.0,0.0,0.001444,0.0,0.0,0.0,0.004624,2
1671465830061639741,24249,1671465830061270751,gps,2,1,42.3009653251,-83.6975686476,273.201690674,0.001444,0.0,0.0,0.0,0.001444,0.0,0.0,0.0,0.004624,2
1671465830081627813,24250,1671465830081198338,gps,2,1,42.3009653248,-83.6975686467,273.201690674,0.001444,0.0,0.0,0.0,0.001444,0.0,0.0,0.0,0.004624,2
1671465830101521732,24251,1671465830101078420,gps,2,1,42.3009653245,-83.6975686456,273.201721191,0.001444,0.0,0.0,0.0,0.001444,0.0,0.0,0.0,0.004624,2
1671465830121741050,24252,1671465830121256195,gps,2,1,42.3009653255,-83.697568646,273.201660156,0.001444,0.0,0.0,0.0,0.001444,0.0,0.0,0.0,0.004624,2
1671465830141548129,24253,1671465830141117781,gps,2,1,42.3009653252,-83.6975686449,273.201690674,0.001444,0.0,0.0,0.0,0.001444,0.0,0.0,0.0,0.004624,2
1671465830161449064,24254,1671465830161053461,gps,2,1,42.3009653245,-83.6975686431,273.201751709,0.001444,0.0,0.0,0.0,0.001444,0.0,0.0,0.0,0.004624,2
1671465830181513971,24255,1671465830181136519,gps,2,1,42.3009653254,-83.6975686435,273.201690674,0.001444,0.0,0.0,0.0,0.001444,0.0,0.0,0.0,0.004624,2
1671465830201534362,24256,1671465830201071475,gps,2,1,42.3009653247,-83.6975686419,273.201751709,0.001444,0.0,0.0,0.0,0.001444,0.0,0.0,0.0,0.004624,2
1671465830221617587,24257,1671465830221129932,gps,2,1,42.300965324,-83.6975686403,273.201812744,0.001444,0.0,0.0,0.0,0.001444,0.0,0.0,0.0,0.004624,2
1671465830241579839,24258,1671465830241130657,gps,2,1,42.300965325,-83.6975686407,273.201751709,0.001444,0.0,0.0,0.0,0.001444,0.0,0.0,0.0,0.004624,2
1671465830261585164,24259,1671465830261132393,gps,2,1,42.3009653243,-83.6975686388,273.201782227,0.001444,0.0,0.0,0.0,0.001444,0.0,0.0,0.0,0.004624,2
1671465830281455978,24260,1671465830281070688,gps,2,1,42.3009653235,-83.697568637,273.201782227,0.001444,0.0,0.0,0.0,0.001444,0.0,0.0,0.0,0.004624,2
1671465830301512726,24261,1671465830301084727,gps,2,1,42.3009653245,-83.6975686374,273.201751709,0.001444,0.0,0.0,0.0,0.001444,0.0,0.0,0.0,0.004624,2
1671465830321731711,24262,1671465830321272413,gps,2,1,42.3009653239,-83.6975686356,273.201751709,0.001444,0.0,0.0,0.0,0.001444,0.0,0.0,0.0,0.004624,2
1671465830341484886,24263,1671465830341080019,gps,2,1,42.3009653231,-83.6975686336,273.201751709,0.001444,0.0,0.0,0.0,0.001444,0.0,0.0,0.0,0.004624,2
1671465830361537518,24264,1671465830361092947,gps,2,1,42.3009653241,-83.6975686339,273.201721191,0.001444,0.0,0.0,0.0,0.001444,0.0,0.0,0.0,0.004624,2
1671465830381573966,24265,1671465830381139104,gps,2,1,42.3009653234,-83.6975686318,273.201721191,0.001444,0.0,0.0,0.0,0.001444,0.0,0.0,0.0,0.004624,2
1671465830401498223,24266,1671465830401096796,gps,2,1,42.3009653228,-83.6975686299,273.201721191,0.001444,0.0,0.0,0.0,0.001444,0.0,0.0,0.0,0.004624,2
1671465830421586026,24267,1671465830421108921,gps,2,1,42.3009653238,-83.6975686302,273.201690674,0.001444,0.0,0.0,0.0,0.001444,0.0,0.0,0.0,0.004624,2
1671465830441665822,24268,1671465830441194495,gps,2,1,42.3009653233,-83.6975686278,273.201690674,0.001444,0.0,0.0,0.0,0.001444,0.0,0.0,0.0,0.004624,2
1671465830461551806,24269,1671465830461115194,gps,2,1,42.3009653229,-83.6975686255,273.201690674,0.001444,0.0,0.0,0.0,0.001444,0.0,0.0,0.0,0.004624,2
1671465830481501084,24270,1671465830481105936,gps,2,1,42.3009653239,-83.6975686257,273.201660156,0.001444,0.0,0.0,0.0,0.001444,0.0,0.0,0.0,0.004624,2
1671465830501503745,24271,1671465830501108437,gps,2,1,42.3009653236,-83.6975686235,273.201660156,0.001444,0.0,0.0,0.0,0.001444,0.0,0.0,0.0,0.004624,2
1671465830521496699,24272,1671465830521093673,gps,2,1,42.3009653233,-83.6975686213,273.201660156,0.001444,0.0,0.0,0.0,0.001444,0.0,0.0,0.0,0.004624,2
1671465830541623201,24273,1671465830541202717,gps,2,1,42.3009653243,-83.6975686215,273.201629639,0.001444,0.0,0.0,0.0,0.001444,0.0,0.0,0.0,0.004624,2
1671465830561659175,24274,1671465830561205708,gps,2,1,42.3009653228,-83.6975686199,273.201629639,0.001444,0.0,0.0,0.0,0.001444,0.0,0.0,0.0,0.004624,2
1671465830581657861,24275,1671465830581268846,gps,2,1,42.3009653214,-83.6975686185,273.201629639,0.001444,0.0,0.0,0.0,0.001444,0.0,0.0,0.0,0.004624,2
1671465830601622116,24276,1671465830601233918,gps,2,1,42.3009653224,-83.6975686186,273.201599121,0.001444,0.0,0.0,0.0,0.001444,0.0,0.0,0.0,0.004624,2
1671465830621738432,24277,1671465830621258492,gps,2,1,42.3009653207,-83.6975686166,273.201660156,0.001444,0.0,0.0,0.0,0.001444,0.0,0.0,0.0,0.004624,2
1671465830641710925,24278,1671465830641231121,gps,2,1,42.3009653191,-83.6975686147,273.201721191,0.001444,0.0,0.0,0.0,0.001444,0.0,0.0,0.0,0.004624,2
1671465830661772052,24279,1671465830661282809,gps,2,1,42.3009653201,-83.6975686149,273.201660156,0.001444,0.0,0.0,0.0,0.001444,0.0,0.0,0.0,0.004624,2
1671465830681714328,24280,1671465830681198632,gps,2,1,42.3009653199,-83.6975686131,273.201721191,0.001444,0.0,0.0,0.0,0.001444,0.0,0.0,0.0,0.004624,2
1671465830701639395,24281,1671465830701116028,gps,2,1,42.3009653197,-83.6975686113,273.201751709,0.001444,0.0,0.0,0.0,0.001444,0.0,0.0,0.0,0.004624,2
1671465830721677132,24282,1671465830721177177,gps,2,1,42.3009653207,-83.6975686114,273.201721191,0.001444,0.0,0.0,0.0,0.001444,0.0,0.0,0.0,0.004624,2
1671465830741634764,24283,1671465830741157196,gps,2,1,42.3009653205,-83.6975686098,273.201751709,0.001156,0.0,0.0,0.0,0.001156,0.0,0.0,0.0,0.004356,2
1671465830761617492,24284,1671465830761169216,gps,2,1,42.3009653197,-83.6975686079,273.201812744,0.001156,0.0,0.0,0.0,0.001156,0.0,0.0,0.0,0.004356,2
1671465830781768844,24285,1671465830781248003,gps,2,1,42.3009653207,-83.697568608,273.201782227,0.001156,0.0,0.0,0.0,0.001156,0.0,0.0,0.0,0.004356,2
1671465830801788421,24286,1671465830801202551,gps,2,1,42.30096532,-83.6975686062,273.201843262,0.001156,0.0,0.0,0.0,0.001156,0.0,0.0,0.0,0.004356,2
1671465830821795839,24287,1671465830821272651,gps,2,1,42.3009653193,-83.6975686044,273.201873779,0.001156,0.0,0.0,0.0,0.001156,0.0,0.0,0.0,0.004356,2
1671465830841649779,24288,1671465830841194249,gps,2,1,42.3009653203,-83.6975686044,273.201843262,0.001156,0.0,0.0,0.0,0.001156,0.0,0.0,0.0,0.004356,2
1671465830861670449,24289,1671465830861193195,gps,2,1,42.3009653196,-83.6975686037,273.201904297,0.001156,0.0,0.0,0.0,0.001156,0.0,0.0,0.0,0.004356,2
1671465830881620401,24290,1671465830881162953,gps,2,1,42.300965319,-83.697568603,273.201965332,0.001156,0.0,0.0,0.0,0.001156,0.0,0.0,0.0,0.004356,2
1671465830901757735,24291,1671465830901257350,gps,2,1,42.30096532,-83.697568603,273.201904297,0.001156,0.0,0.0,0.0,0.001156,0.0,0.0,0.0,0.004356,2
1671465830921627166,24292,1671465830921185304,gps,2,1,42.3009653194,-83.6975686023,273.201965332,0.001156,0.0,0.0,0.0,0.001156,0.0,0.0,0.0,0.004356,2
1671465830941666425,24293,1671465830941249677,gps,2,1,42.3009653189,-83.6975686017,273.20199585,0.001156,0.0,0.0,0.0,0.001156,0.0,0.0,0.0,0.004356,2
1671465830961748063,24294,1671465830961260319,gps,2,1,42.3009653199,-83.6975686016,273.201965332,0.001156,0.0,0.0,0.0,0.001156,0.0,0.0,0.0,0.004356,2
1671465830981613162,24295,1671465830981194758,gps,2,1,42.3009653196,-83.6975686004,273.20199585,0.001156,0.0,0.0,0.0,0.001156,0.0,0.0,0.0,0.004356,2
1671465831001649280,24296,1671465831001180589,gps,2,1,42.3009653193,-83.6975685992,273.202026367,0.001156,0.0,0.0,0.0,0.001156,0.0,0.0,0.0,0.004356,2
1671465831021667859,24297,1671465831021239249,gps,2,1,42.3009653203,-83.6975685992,273.201965332,0.001156,0.0,0.0,0.0,0.001156,0.0,0.0,0.0,0.004356,2
1671465831041782903,24298,1671465831041274495,gps,2,1,42.3009653193,-83.6975685978,273.202026367,0.001156,0.0,0.0,0.0,0.001156,0.0,0.0,0.0,0.004356,2
1671465831061750434,24299,1671465831061280232,gps,2,1,42.3009653183,-83.6975685965,273.202087402,0.001156,0.0,0.0,0.0,0.001156,0.0,0.0,0.0,0.004356,2
1671465831081873019,24300,1671465831081392214,gps,2,1,42.3009653193,-83.6975685965,273.202056885,0.001156,0.0,0.0,0.0,0.001156,0.0,0.0,0.0,0.004356,2
1671465831101719952,24301,1671465831101262802,gps,2,1,42.300965318,-83.6975685951,273.202148438,0.001156,0.0,0.0,0.0,0.001156,0.0,0.0,0.0,0.004356,2
1671465831121657634,24302,1671465831121238406,gps,2,1,42.3009653167,-83.6975685928,273.202178955,0.001156,0.0,0.0,0.0,0.001156,0.0,0.0,0.0,0.004356,2
1671465831141901148,24303,1671465831141320137,gps,2,1,42.3009653177,-83.6975685927,273.202148438,0.001156,0.0,0.0,0.0,0.001156,0.0,0.0,0.0,0.004356,2
1671465831161858686,24304,1671465831161274738,gps,2,1,42.3009653165,-83.6975685905,273.202209473,0.001156,0.0,0.0,0.0,0.001156,0.0,0.0,0.0,0.004356,2
1671465831181637150,24305,1671465831181197530,gps,2,1,42.3009653153,-83.6975685883,273.20223999,0.001156,0.0,0.0,0.0,0.001156,0.0,0.0,0.0,0.004356,2
1671465831201731268,24306,1671465831201222279,gps,2,1,42.3009653163,-83.6975685882,273.202209473,0.001156,0.0,0.0,0.0,0.001156,0.0,0.0,0.0,0.004356,2
1671465831221731270,24307,1671465831221243370,gps,2,1,42.3009653152,-83.697568586,273.20223999,0.001156,0.0,0.0,0.0,0.001156,0.0,0.0,0.0,0.004356,2
1671465831241634067,24308,1671465831241181499,gps,2,1,42.3009653149,-83.6975685847,273.202301025,0.001156,0.0,0.0,0.0,0.001156,0.0,0.0,0.0,0.004356,2
1671465831261788096,24309,1671465831261279993,gps,2,1,42.3009653159,-83.6975685846,273.202270508,0.001156,0.0,0.0,0.0,0.001156,0.0,0.0,0.0,0.004356,2
1671465831281626321,24310,1671465831281152487,gps,2,1,42.3009653157,-83.6975685832,273.202331543,0.001156,0.0,0.0,0.0,0.001156,0.0,0.0,0.0,0.004356,2
1671465831301673306,24311,1671465831301197833,gps,2,1,42.3009653155,-83.6975685819,273.202362061,0.001156,0.0,0.0,0.0,0.001156,0.0,0.0,0.0,0.004356,2
1671465831321821643,24312,1671465831321332263,gps,2,1,42.3009653165,-83.6975685816,273.202331543,0.001156,0.0,0.0,0.0,0.001156,0.0,0.0,0.0,0.004356,2
1671465831341722185,24313,1671465831341181629,gps,2,1,42.3009653163,-83.6975685802,273.202362061,0.001156,0.0,0.0,0.0,0.001156,0.0,0.0,0.0,0.004356,2
1671465831361722328,24314,1671465831361180610,gps,2,1,42.300965315,-83.6975685791,273.202423096,0.001156,0.0,0.0,0.0,0.001156,0.0,0.0,0.0,0.004356,2
1671465831381650087,24315,1671465831381222959,gps,2,1,42.3009653159,-83.6975685788,273.202362061,0.001156,0.0,0.0,0.0,0.001156,0.0,0.0,0.0,0.004356,2
1671465831401737475,24316,1671465831401259165,gps,2,1,42.3009653147,-83.6975685778,273.202423096,0.001156,0.0,0.0,0.0,0.001156,0.0,0.0,0.0,0.004356,2
1671465831421640176,24317,1671465831421189396,gps,2,1,42.3009653135,-83.6975685767,273.202453613,0.001156,0.0,0.0,0.0,0.001156,0.0,0.0,0.0,0.004356,2
1671465831441795896,24318,1671465831441312601,gps,2,1,42.3009653145,-83.6975685764,273.202392578,0.001156,0.0,0.0,0.0,0.001156,0.0,0.0,0.0,0.004356,2
1671465831461773739,24319,1671465831461321025,gps,2,1,42.3009653139,-83.6975685739,273.202423096,0.001156,0.0,0.0,0.0,0.001156,0.0,0.0,0.0,0.004356,2
1671465831481740699,24320,1671465831481220451,gps,2,1,42.3009653135,-83.6975685716,273.202423096,0.001156,0.0,0.0,0.0,0.001156,0.0,0.0,0.0,0.004356,2
1671465831501801555,24321,1671465831501353630,gps,2,1,42.3009653144,-83.6975685713,273.202392578,0.001156,0.0,0.0,0.0,0.001156,0.0,0.0,0.0,0.004356,2
1671465831521666835,24322,1671465831521251031,gps,2,1,42.300965314,-83.6975685691,273.202392578,0.001156,0.0,0.0,0.0,0.001156,0.0,0.0,0.0,0.004356,2
1671465831541634832,24323,1671465831541236237,gps,2,1,42.3009653136,-83.6975685669,273.202392578,0.001156,0.0,0.0,0.0,0.001156,0.0,0.0,0.0,0.004356,2
1671465831561839291,24324,1671465831561432001,gps,2,1,42.3009653145,-83.6975685666,273.202362061,0.001156,0.0,0.0,0.0,0.001156,0.0,0.0,0.0,0.004356,2
1671465831581786211,24325,1671465831581294564,gps,2,1,42.3009653152,-83.6975685664,273.202392578,0.001156,0.0,0.0,0.0,0.001156,0.0,0.0,0.0,0.004356,2
1671465831601886549,24326,1671465831601330908,gps,2,1,42.3009653158,-83.6975685661,273.202423096,0.001156,0.0,0.0,0.0,0.001156,0.0,0.0,0.0,0.004356,2
1671465831621821606,24327,1671465831621407539,gps,2,1,42.3009653167,-83.6975685658,273.202392578,0.001156,0.0,0.0,0.0,0.001156,0.0,0.0,0.0,0.004356,2
1671465831641815911,24328,1671465831641294818,gps,2,1,42.3009653174,-83.6975685654,273.202423096,0.001156,0.0,0.0,0.0,0.001156,0.0,0.0,0.0,0.004356,2
1671465831661818379,24329,1671465831661289020,gps,2,1,42.3009653175,-83.6975685639,273.202453613,0.001156,0.0,0.0,0.0,0.001156,0.0,0.0,0.0,0.004356,2
1671465831681728198,24330,1671465831681307769,gps,2,1,42.3009653185,-83.6975685634,273.202423096,0.001156,0.0,0.0,0.0,0.001156,0.0,0.0,0.0,0.004356,2
1671465831701634040,24331,1671465831701201262,gps,2,1,42.3009653188,-83.6975685618,273.202453613,0.001156,0.0,0.0,0.0,0.001156,0.0,0.0,0.0,0.004356,2
1671465831721704761,24332,1671465831721263358,gps,2,1,42.300965319,-83.6975685601,273.202484131,0.001156,0.0,0.0,0.0,0.001156,0.0,0.0,0.0,0.004356,2
1671465831741797981,24333,1671465831741308031,gps,2,1,42.3009653201,-83.6975685596,273.202453613,0.001156,0.0,0.0,0.0,0.001156,0.0,0.0,0.0,0.004356,2
