%time,field.header.seq,field.header.stamp,field.header.frame_id,field.status.status,field.status.service,field.latitude,field.longitude,field.altitude,field.position_covariance0,field.position_covariance1,field.position_covariance2,field.position_covariance3,field.position_covariance4,field.position_covariance5,field.position_covariance6,field.position_covariance7,field.position_covariance8,field.position_covariance_type
1671466463823841049,791281,1671466463824347637,gps,2,1,42.3009679825,-83.6976949307,272.773345947,4.9e-05,0.0,0.0,0.0,6.4e-05,0.0,0.0,0.0,0.000784,2
1671466463834101037,791282,1671466463834282782,gps,2,1,42.3009679821,-83.6976949305,272.773376465,4.9e-05,0.0,0.0,0.0,6.4e-05,0.0,0.0,0.0,0.000784,2
1671466463843942095,791283,1671466463844331686,gps,2,1,42.3009679816,-83.6976949303,272.773406982,4.9e-05,0.0,0.0,0.0,6.4e-05,0.0,0.0,0.0,0.000784,2
1671466463854054156,791284,1671466463854274007,gps,2,1,42.3009679825,-83.6976949301,272.7734375,4.9e-05,0.0,0.0,0.0,6.4e-05,0.0,0.0,0.0,0.000784,2
1671466463863732611,791285,1671466463864280990,gps,2,1,42.3009679823,-83.6976949298,272.773468018,4.9e-05,0.0,0.0,0.0,6.4e-05,0.0,0.0,0.0,0.000784,2
1671466463873986124,791286,1671466463874352098,gps,2,1,42.3009679819,-83.6976949297,272.773498535,4.9e-05,0.0,0.0,0.0,6.4e-05,0.0,0.0,0.0,0.000784,2
1671466463883870563,791287,1671466463884248334,gps,2,1,42.300967983,-83.6976949296,272.77355957,4.9e-05,0.0,0.0,0.0,6.4e-05,0.0,0.0,0.0,0.000784,2
1671466463893892819,791288,1671466463894357651,gps,2,1,42.3009679827,-83.6976949294,272.773590088,4.9e-05,0.0,0.0,0.0,6.4e-05,0.0,0.0,0.0,0.000784,2
1671466463903881872,791289,1671466463904326250,gps,2,1,42.3009679825,-83.6976949292,272.773620605,4.9e-05,0.0,0.0,0.0,6.4e-05,0.0,0.0,0.0,0.000784,2
1671466463913815217,791290,1671466463914259932,gps,2,1,42.3009679836,-83.6976949292,272.773681641,4.9e-05,0.0,0.0,0.0,6.4e-05,0.0,0.0,0.0,0.000784,2
1671466463923747209,791291,1671466463924264594,gps,2,1,42.3009679833,-83.697694929,272.773712158,4.9e-05,0.0,0.0,0.0,6.4e-05,0.0,0.0,0.0,0.000784,2
1671466463934099812,791292,1671466463934321740,gps,2,1,42.300967983,-83.6976949289,272.773742676,4.9e-05,0.0,0.0,0.0,6.4e-05,0.0,0.0,0.0,0.000784,2
1671466463943934796,791293,1671466463944276370,gps,2,1,42.300967984,-83.6976949289,272.773803711,4.9e-05,0.0,0.0,0.0,6.4e-05,0.0,0.0,0.0,0.000784,2
1671466463954197641,791294,1671466463954335272,gps,2,1,42.3009679836,-83.6976949289,272.773834229,4.9e-05,0.0,0.0,0.0,6.4e-05,0.0,0.0,0.0,0.000784,2
1671466463964108928,791295,1671466463964260315,gps,2,1,42.3009679834,-83.6976949287,272.773864746,4.9e-05,0.0,0.0,0.0,6.4e-05,0.0,0.0,0.0,0.000784,2
1671466463973814025,791296,1671466463974266052,gps,2,1,42.3009679842,-83.6976949288,272.773895264,4.9e-05,0.0,0.0,0.0,6.4e-05,0.0,0.0,0.0,0.000784,2
1671466463983913400,791297,1671466463984248101,gps,2,1,42.3009679837,-83.6976949289,272.773925781,4.9e-05,0.0,0.0,0.0,6.4e-05,0.0,0.0,0.0,0.000784,2
1671466463994012685,791298,1671466463994346781,gps,2,1,42.3009679833,-83.6976949288,272.773956299,4.9e-05,0.0,0.0,0.0,6.4e-05,0.0,0.0,0.0,0.000784,2
1671466464003947879,791299,1671466464004261918,gps,2,1,42.300967985,-83.6976949299,272.774078369,4.9e-05,0.0,0.0,0.0,6.4e-05,0.0,0.0,0.0,0.000784,2
1671466464013954730,791300,1671466464014381307,gps,2,1,42.3009679844,-83.69769493,272.774078369,4.9e-05,0.0,0.0,0.0,6.4e-05,0.0,0.0,0.0,0.000784,2
1671466464023845913,791301,1671466464024322873,gps,2,1,42.3009679838,-83.69769493,272.774108887,4.9e-05,0.0,0.0,0.0,6.4e-05,0.0,0.0,0.0,0.000784,2
1671466464033887793,791302,1671466464034341695,gps,2,1,42.3009679854,-83.697694931,272.774200439,4.9e-05,0.0,0.0,0.0,6.4e-05,0.0,0.0,0.0,0.000784,2
1671466464043952633,791303,1671466464044256578,gps,2,1,42.3009679847,-83.6976949311,272.774230957,4.9e-05,0.0,0.0,0.0,6.4e-05,0.0,0.0,0.0,0.000784,2
1671466464053770762,791304,1671466464054347752,gps,2,1,42.300967984,-83.6976949312,272.774230957,4.9e-05,0.0,0.0,0.0,6.4e-05,0.0,0.0,0.0,0.000784,2
1671466464063819578,791305,1671466464064322506,gps,2,1,42.3009679855,-83.6976949322,272.77432251,4.9e-05,0.0,0.0,0.0,6.4e-05,0.0,0.0,0.0,0.000784,2
1671466464074238520,791306,1671466464074438778,gps,2,1,42.3009679847,-83.6976949323,272.774353027,4.9e-05,0.0,0.0,0.0,6.4e-05,0.0,0.0,0.0,0.000784,2
1671466464084293737,791307,1671466464084356231,gps,2,1,42.300967984,-83.6976949324,272.774383545,4.9e-05,0.0,0.0,0.0,6.4e-05,0.0,0.0,0.0,0.000784,2
1671466464094156749,791308,1671466464094271191,gps,2,1,42.3009679853,-83.6976949334,272.774475098,4.9e-05,0.0,0.0,0.0,6.4e-05,0.0,0.0,0.0,0.000784,2
1671466464104005273,791309,1671466464104246570,gps,2,1,42.3009679846,-83.6976949335,272.774475098,4.9e-05,0.0,0.0,0.0,6.4e-05,0.0,0.0,0.0,0.000784,2
1671466464113760878,791310,1671466464114311794,gps,2,1,42.3009679838,-83.6976949335,272.774505615,4.9e-05,0.0,0.0,0.0,6.4e-05,0.0,0.0,0.0,0.000784,2
1671466464123647270,791311,1671466464124256523,gps,2,1,42.3009679851,-83.6976949344,272.774597168,4.9e-05,0.0,0.0,0.0,6.4e-05,0.0,0.0,0.0,0.000784,2
1671466464133914738,791312,1671466464134258596,gps,2,1,42.3009679844,-83.6976949345,272.774597168,4.9e-05,0.0,0.0,0.0,6.4e-05,0.0,0.0,0.0,0.000784,2
1671466464143990666,791313,1671466464144444870,gps,2,1,42.3009679836,-83.6976949345,272.774627686,4.9e-05,0.0,0.0,0.0,6.4e-05,0.0,0.0,0.0,0.000784,2
1671466464153770495,791314,1671466464154256057,gps,2,1,42.3009679849,-83.6976949352,272.774719238,4.9e-05,0.0,0.0,0.0,6.4e-05,0.0,0.0,0.0,0.000784,2
1671466464163989227,791315,1671466464164279315,gps,2,1,42.3009679843,-83.6976949352,272.774749756,4.9e-05,0.0,0.0,0.0,6.4e-05,0.0,0.0,0.0,0.000784,2
1671466464173747943,791316,1671466464174306070,gps,2,1,42.3009679837,-83.6976949352,272.774780273,4.9e-05,0.0,0.0,0.0,6.4e-05,0.0,0.0,0.0,0.000784,2
1671466464183882934,791317,1671466464184244408,gps,2,1,42.300967985,-83.6976949358,272.774841309,4.9e-05,0.0,0.0,0.0,6.4e-05,0.0,0.0,0.0,0.000784,2
1671466464193780843,791318,1671466464194238004,gps,2,1,42.3009679845,-83.6976949357,272.774871826,4.9e-05,0.0,0.0,0.0,6.4e-05,0.0,0.0,0.0,0.000784,2
1671466464203729887,791319,1671466464204311129,gps,2,1,42.300967984,-83.6976949356,272.774902344,4.9e-05,0.0,0.0,0.0,6.4e-05,0.0,0.0,0.0,0.000784,2
1671466464213696760,791320,1671466464214264618,gps,2,1,42.3009679854,-83.6976949362,272.774963379,4.9e-05,0.0,0.0,0.0,6.4e-05,0.0,0.0,0.0,0.000784,2
1671466464223589134,791321,1671466464224260101,gps,2,1,42.3009679851,-83.697694936,272.774993896,4.9e-05,0.0,0.0,0.0,6.4e-05,0.0,0.0,0.0,0.000784,2
1671466464234017164,791322,1671466464234341978,gps,2,1,42.3009679846,-83.6976949359,272.775024414,4.9e-05,0.0,0.0,0.0,6.4e-05,0.0,0.0,0.0,0.000784,2
1671466464244064767,791323,1671466464244255171,gps,2,1,42.3009679861,-83.6976949364,272.775115967,4.9e-05,0.0,0.0,0.0,6.4e-05,0.0,0.0,0.0,0.000784,2
1671466464254054536,791324,1671466464254315053,gps,2,1,42.3009679858,-83.6976949361,272.775115967,4.9e-05,0.0,0.0,0.0,6.4e-05,0.0,0.0,0.0,0.000784,2
1671466464263896778,791325,1671466464264283400,gps,2,1,42.3009679855,-83.697694936,272.775146484,4.9e-05,0.0,0.0,0.0,6.4e-05,0.0,0.0,0.0,0.000784,2
1671466464273857729,791326,1671466464274252730,gps,2,1,42.3009679869,-83.6976949363,272.775238037,4.9e-05,0.0,0.0,0.0,6.4e-05,0.0,0.0,0.0,0.000784,2
1671466464283914801,791327,1671466464284253395,gps,2,1,42.3009679866,-83.6976949361,272.775238037,4.9e-05,0.0,0.0,0.0,6.4e-05,0.0,0.0,0.0,0.000784,2
1671466464293835716,791328,1671466464294323003,gps,2,1,42.3009679862,-83.6976949358,272.775268555,4.9e-05,0.0,0.0,0.0,6.4e-05,0.0,0.0,0.0,0.000784,2
1671466464303737891,791329,1671466464304252767,gps,2,1,42.3009679876,-83.6976949362,272.77532959,4.9e-05,0.0,0.0,0.0,6.4e-05,0.0,0.0,0.0,0.000784,2
1671466464313736495,791330,1671466464314243854,gps,2,1,42.3009679872,-83.6976949359,272.775360107,4.9e-05,0.0,0.0,0.0,6.4e-05,0.0,0.0,0.0,0.000784,2
1671466464323764143,791331,1671466464324400506,gps,2,1,42.3009679869,-83.6976949356,272.775390625,4.9e-05,0.0,0.0,0.0,6.4e-05,0.0,0.0,0.0,0.000784,2
1671466464333963385,791332,1671466464334244101,gps,2,1,42.3009679881,-83.6976949359,272.775482178,4.9e-05,0.0,0.0,0.0,6.4e-05,0.0,0.0,0.0,0.000784,2
1671466464343796205,791333,1671466464344253866,gps,2,1,42.3009679876,-83.6976949357,272.775512695,4.9e-05,0.0,0.0,0.0,6.4e-05,0.0,0.0,0.0,0.000784,2
1671466464353698723,791334,1671466464354310820,gps,2,1,42.3009679872,-83.6976949354,272.775543213,4.9e-05,0.0,0.0,0.0,6.4e-05,0.0,0.0,0.0,0.000784,2
1671466464363692370,791335,1671466464364252495,gps,2,1,42.3009679884,-83.6976949358,272.775604248,4.9e-05,0.0,0.0,0.0,6.4e-05,0.0,0.0,0.0,0.000784,2
1671466464373657933,791336,1671466464374269970,gps,2,1,42.3009679904,-83.6976949471,272.775634766,4.9e-05,0.0,0.0,0.0,6.4e-05,0.0,0.0,0.0,0.000784,2
1671466464384159062,791337,1671466464384337883,gps,2,1,42.3009679861,-83.6976949318,272.775634766,4.9e-05,0.0,0.0,0.0,6.4e-05,0.0,0.0,0.0,0.000784,2
1671466464394057701,791338,1671466464394478541,gps,2,1,42.3009679872,-83.6976949306,272.775634766,4.9e-05,0.0,0.0,0.0,6.4e-05,0.0,0.0,0.0,0.000784,2
1671466464404226220,791339,1671466464404327179,gps,2,1,42.3009679862,-83.6976949347,272.775787354,4.9e-05,0.0,0.0,0.0,6.4e-05,0.0,0.0,0.0,0.000784,2
1671466464413773337,791340,1671466464414255936,gps,2,1,42.3009679852,-83.6976949263,272.775665283,4.9e-05,0.0,0.0,0.0,6.4e-05,0.0,0.0,0.0,0.000784,2
1671466464423772080,791341,1671466464424245121,gps,2,1,42.3009679857,-83.6976949257,272.775695801,4.9e-05,0.0,0.0,0.0,6.4e-05,0.0,0.0,0.0,0.000784,2
1671466464433878189,791342,1671466464434261447,gps,2,1,42.3009679848,-83.6976949254,272.775726318,4.9e-05,0.0,0.0,0.0,6.4e-05,0.0,0.0,0.0,0.000784,2
1671466464443913463,791343,1671466464444312110,gps,2,1,42.3009679872,-83.6976949287,272.775695801,4.9e-05,0.0,0.0,0.0,6.4e-05,0.0,0.0,0.0,0.000784,2
1671466464453827555,791344,1671466464454242398,gps,2,1,42.3009679875,-83.6976949281,272.775756836,4.9e-05,0.0,0.0,0.0,6.4e-05,0.0,0.0,0.0,0.000784,2
1671466464463788970,791345,1671466464464287726,gps,2,1,42.3009679877,-83.6976949296,272.775787354,4.9e-05,0.0,0.0,0.0,6.4e-05,0.0,0.0,0.0,0.000784,2
1671466464473703667,791346,1671466464474319988,gps,2,1,42.3009679871,-83.6976949286,272.775817871,4.9e-05,0.0,0.0,0.0,6.4e-05,0.0,0.0,0.0,0.000784,2
1671466464483639794,791347,1671466464484242331,gps,2,1,42.3009679878,-83.697694929,272.775878906,4.9e-05,0.0,0.0,0.0,6.4e-05,0.0,0.0,0.0,0.000784,2
1671466464493705574,791348,1671466464494242382,gps,2,1,42.3009679877,-83.6976949279,272.775878906,4.9e-05,0.0,0.0,0.0,6.4e-05,0.0,0.0,0.0,0.000784,2
1671466464504217010,791349,1671466464504502043,gps,2,1,42.3009679861,-83.6976949268,272.775939941,4.9e-05,0.0,0.0,0.0,6.4e-05,0.0,0.0,0.0,0.000784,2
1671466464514051591,791350,1671466464514309130,gps,2,1,42.3009679873,-83.6976949271,272.775939941,4.9e-05,0.0,0.0,0.0,6.4e-05,0.0,0.0,0.0,0.000784,2
1671466464524043516,791351,1671466464524316794,gps,2,1,42.3009679864,-83.6976949262,272.775970459,4.9e-05,0.0,0.0,0.0,6.4e-05,0.0,0.0,0.0,0.000784,2
1671466464533971405,791352,1671466464534350745,gps,2,1,42.3009679856,-83.6976949265,272.776000977,4.9e-05,0.0,0.0,0.0,6.4e-05,0.0,0.0,0.0,0.000784,2
1671466464543858331,791353,1671466464544331866,gps,2,1,42.3009679869,-83.6976949265,272.776000977,4.9e-05,0.0,0.0,0.0,6.4e-05,0.0,0.0,0.0,0.000784,2
1671466464554053054,791354,1671466464554306120,gps,2,1,42.3009679861,-83.6976949268,272.776062012,4.9e-05,0.0,0.0,0.0,6.4e-05,0.0,0.0,0.0,0.000784,2
1671466464563864838,791355,1671466464564320947,gps,2,1,42.3009679865,-83.6976949267,272.776092529,4.9e-05,0.0,0.0,0.0,6.4e-05,0.0,0.0,0.0,0.000784,2
1671466464573918315,791356,1671466464574365549,gps,2,1,42.3009679875,-83.6976949271,272.776123047,4.9e-05,0.0,0.0,0.0,6.4e-05,0.0,0.0,0.0,0.000784,2
1671466464583901751,791357,1671466464584365928,gps,2,1,42.3009679877,-83.6976949266,272.776153564,4.9e-05,0.0,0.0,0.0,6.4e-05,0.0,0.0,0.0,0.000784,2
1671466464593885528,791358,1671466464594274149,gps,2,1,42.3009679876,-83.6976949265,272.776184082,4.9e-05,0.0,0.0,0.0,6.4e-05,0.0,0.0,0.0,0.000784,2
1671466464603850694,791359,1671466464604235620,gps,2,1,42.3009679887,-83.6976949267,272.7762146,4.9e-05,0.0,0.0,0.0,6.4e-05,0.0,0.0,0.0,0.000784,2
1671466464613824788,791360,1671466464614238623,gps,2,1,42.3009679888,-83.6976949266,272.776245117,4.9e-05,0.0,0.0,0.0,6.4e-05,0.0,0.0,0.0,0.000784,2
1671466464623789490,791361,1671466464624336515,gps,2,1,42.3009679882,-83.6976949267,272.776306152,4.9e-05,0.0,0.0,0.0,6.4e-05,0.0,0.0,0.0,0.000784,2
1671466464633775812,791362,1671466464634240914,gps,2,1,42.3009679895,-83.697694927,272.77633667,4.9e-05,0.0,0.0,0.0,6.4e-05,0.0,0.0,0.0,0.000784,2
1671466464644123144,791363,1671466464644345286,gps,2,1,42.3009679891,-83.697694927,272.776367188,4.9e-05,0.0,0.0,0.0,6.4e-05,0.0,0.0,0.0,0.000784,2
1671466464654153324,791364,1671466464654305766,gps,2,1,42.3009679888,-83.6976949266,272.776397705,4.9e-05,0.0,0.0,0.0,6.4e-05,0.0,0.0,0.0,0.000784,2
1671466464663944569,791365,1671466464664254971,gps,2,1,42.3009679899,-83.697694927,272.776397705,4.9e-05,0.0,0.0,0.0,6.4e-05,0.0,0.0,0.0,0.000784,2
1671466464673963819,791366,1671466464674252908,gps,2,1,42.3009679894,-83.6976949267,272.776428223,4.9e-05,0.0,0.0,0.0,6.4e-05,0.0,0.0,0.0,0.000784,2
1671466464683863234,791367,1671466464684323588,gps,2,1,42.3009679893,-83.6976949266,272.77645874,4.9e-05,0.0,0.0,0.0,6.4e-05,0.0,0.0,0.0,0.000784,2
1671466464693752902,791368,1671466464694249323,gps,2,1,42.3009679901,-83.6976949268,272.77645874,4.9e-05,0.0,0.0,0.0,6.4e-05,0.0,0.0,0.0,0.000784,2
1671466464703785409,791369,1671466464704260950,gps,2,1,42.3009679897,-83.6976949268,272.776489258,4.9e-05,0.0,0.0,0.0,6.4e-05,0.0,0.0,0.0,0.000784,2
1671466464713843525,791370,1671466464714302928,gps,2,1,42.3009679893,-83.6976949268,272.776489258,4.9e-05,0.0,0.0,0.0,6.4e-05,0.0,0.0,0.0,0.000784,2
1671466464723773636,791371,1671466464724242427,gps,2,1,42.30096799,-83.6976949271,272.776519775,4.9e-05,0.0,0.0,0.0,6.4e-05,0.0,0.0,0.0,0.000784,2
1671466464733883346,791372,1671466464734237610,gps,2,1,42.3009679895,-83.697694927,272.776519775,4.9e-05,0.0,0.0,0.0,6.4e-05,0.0,0.0,0.0,0.000784,2
1671466464744032234,791373,1671466464744290614,gps,2,1,42.3009679889,-83.6976949268,272.776550293,4.9e-05,0.0,0.0,0.0,6.4e-05,0.0,0.0,0.0,0.000784,2
1671466464753750164,791374,1671466464754242450,gps,2,1,42.3009679895,-83.6976949271,272.776550293,4.9e-05,0.0,0.0,0.0,6.4e-05,0.0,0.0,0.0,0.000784,2
1671466464763728895,791375,1671466464764278225,gps,2,1,42.3009679888,-83.6976949269,272.776580811,4.9e-05,0.0,0.0,0.0,6.4e-05,0.0,0.0,0.0,0.000784,2
1671466464773696718,791376,1671466464774296731,gps,2,1,42.3009679881,-83.6976949268,272.776611328,4.9e-05,0.0,0.0,0.0,6.4e-05,0.0,0.0,0.0,0.000784,2
1671466464783780003,791377,1671466464784240287,gps,2,1,42.3009679887,-83.697694927,272.776611328,4.9e-05,0.0,0.0,0.0,6.4e-05,0.0,0.0,0.0,0.000784,2
1671466464793554365,791378,1671466464794250717,gps,2,1,42.3009679879,-83.6976949269,272.776672363,4.9e-05,0.0,0.0,0.0,6.4e-05,0.0,0.0,0.0,0.000784,2
1671466464804112860,791379,1671466464804308747,gps,2,1,42.3009679873,-83.6976949268,272.776672363,4.9e-05,0.0,0.0,0.0,6.4e-05,0.0,0.0,0.0,0.000784,2
1671466464813957760,791380,1671466464814253831,gps,2,1,42.3009679878,-83.697694927,272.776702881,4.9e-05,0.0,0.0,0.0,6.4e-05,0.0,0.0,0.0,0.000784,2
1671466464823875283,791381,1671466464824348002,gps,2,1,42.3009679871,-83.6976949268,272.776733398,4.9e-05,0.0,0.0,0.0,6.4e-05,0.0,0.0,0.0,0.000784,2
1671466464834026305,791382,1671466464834319468,gps,2,1,42.3009679865,-83.6976949266,272.776763916,4.9e-05,0.0,0.0,0.0,6.4e-05,0.0,0.0,0.0,0.000784,2
1671466464843849908,791383,1671466464844241556,gps,2,1,42.300967987,-83.6976949268,272.776794434,4.9e-05,0.0,0.0,0.0,6.4e-05,0.0,0.0,0.0,0.000784,2
1671466464853819314,791384,1671466464854328820,gps,2,1,42.3009679865,-83.6976949266,272.776824951,4.9e-05,0.0,0.0,0.0,6.4e-05,0.0,0.0,0.0,0.000784,2
1671466464863751753,791385,1671466464864312124,gps,2,1,42.3009679859,-83.6976949264,272.776855469,4.9e-05,0.0,0.0,0.0,6.4e-05,0.0,0.0,0.0,0.000784,2
1671466464873806859,791386,1671466464874272797,gps,2,1,42.3009679865,-83.6976949265,272.776885986,4.9e-05,0.0,0.0,0.0,6.4e-05,0.0,0.0,0.0,0.000784,2
1671466464883917142,791387,1671466464884226445,gps,2,1,42.300967986,-83.6976949264,272.776916504,4.9e-05,0.0,0.0,0.0,6.4e-05,0.0,0.0,0.0,0.000784,2
1671466464894006038,791388,1671466464894435389,gps,2,1,42.3009679854,-83.6976949262,272.776947021,4.9e-05,0.0,0.0,0.0,6.4e-05,0.0,0.0,0.0,0.000784,2
1671466464903719062,791389,1671466464904227494,gps,2,1,42.3009679861,-83.6976949262,272.776947021,4.9e-05,0.0,0.0,0.0,6.4e-05,0.0,0.0,0.0,0.000784,2
1671466464913654936,791390,1671466464914307167,gps,2,1,42.3009679857,-83.697694926,272.776977539,4.9e-05,0.0,0.0,0.0,6.4e-05,0.0,0.0,0.0,0.000784,2
1671466464923749023,791391,1671466464924249059,gps,2,1,42.3009679852,-83.6976949258,272.777008057,4.9e-05,0.0,0.0,0.0,6.4e-05,0.0,0.0,0.0,0.000784,2
1671466464933633003,791392,1671466464934241715,gps,2,1,42.3009679859,-83.6976949259,272.777008057,4.9e-05,0.0,0.0,0.0,6.4e-05,0.0,0.0,0.0,0.000784,2
1671466464944053241,791393,1671466464944247711,gps,2,1,42.3009679856,-83.6976949257,272.777038574,4.9e-05,0.0,0.0,0.0,6.4e-05,0.0,0.0,0.0,0.000784,2
1671466464953623285,791394,1671466464954311143,gps,2,1,42.3009679852,-83.6976949255,272.777069092,4.9e-05,0.0,0.0,0.0,6.4e-05,0.0,0.0,0.0,0.000784,2
1671466464963720247,791395,1671466464964237076,gps,2,1,42.3009679859,-83.6976949256,272.777069092,4.9e-05,0.0,0.0,0.0,6.4e-05,0.0,0.0,0.0,0.000784,2
1671466464973728244,791396,1671466464974248915,gps,2,1,42.3009679856,-83.6976949254,272.777099609,4.9e-05,0.0,0.0,0.0,6.4e-05,0.0,0.0,0.0,0.000784,2
1671466464983879230,791397,1671466464984298605,gps,2,1,42.3009679853,-83.6976949253,272.777130127,4.9e-05,0.0,0.0,0.0,6.4e-05,0.0,0.0,0.0,0.000784,2
1671466464993802234,791398,1671466464994235476,gps,2,1,42.300967986,-83.6976949254,272.777160645,4.9e-05,0.0,0.0,0.0,6.4e-05,0.0,0.0,0.0,0.000784,2
1671466465003926071,791399,1671466465004406846,gps,2,1,42.3009679857,-83.6976949253,272.777191162,4.9e-05,0.0,0.0,0.0,6.4e-05,0.0,0.0,0.0,0.000784,2
1671466465013895200,791400,1671466465014352431,gps,2,1,42.3009679853,-83.6976949252,272.77722168,4.9e-05,0.0,0.0,0.0,6.4e-05,0.0,0.0,0.0,0.000784,2
1671466465023808733,791401,1671466465024322793,gps,2,1,42.3009679859,-83.6976949253,272.77722168,4.9e-05,0.0,0.0,0.0,6.4e-05,0.0,0.0,0.0,0.000784,2
1671466465033834471,791402,1671466465034311195,gps,2,1,42.3009679855,-83.6976949251,272.777252197,4.9e-05,0.0,0.0,0.0,6.4e-05,0.0,0.0,0.0,0.000784,2
1671466465043701459,791403,1671466465044370941,gps,2,1,42.3009679851,-83.697694925,272.777282715,4.9e-05,0.0,0.0,0.0,6.4e-05,0.0,0.0,0.0,0.000784,2
1671466465053912767,791404,1671466465054236104,gps,2,1,42.3009679861,-83.6976949247,272.777191162,4.9e-05,0.0,0.0,0.0,6.4e-05,0.0,0.0,0.0,0.000784,2
1671466465063828785,791405,1671466465064296034,gps,2,1,42.3009679856,-83.6976949245,272.77722168,4.9e-05,0.0,0.0,0.0,6.4e-05,0.0,0.0,0.0,0.000784,2
1671466465073958856,791406,1671466465074451850,gps,2,1,42.3009679851,-83.6976949244,272.777252197,4.9e-05,0.0,0.0,0.0,6.4e-05,0.0,0.0,0.0,0.000784,2
1671466465084159590,791407,1671466465084344964,gps,2,1,42.300967986,-83.6976949241,272.777160645,4.9e-05,0.0,0.0,0.0,6.4e-05,0.0,0.0,0.0,0.000784,2
1671466465094117952,791408,1671466465094211519,gps,2,1,42.3009679854,-83.6976949239,272.777191162,4.9e-05,0.0,0.0,0.0,6.4e-05,0.0,0.0,0.0,0.000784,2
1671466465103909835,791409,1671466465104192671,gps,2,1,42.3009679849,-83.6976949238,272.77722168,4.9e-05,0.0,0.0,0.0,6.4e-05,0.0,0.0,0.0,0.000784,2
1671466465113981830,791410,1671466465114200477,gps,2,1,42.3009679856,-83.6976949234,272.777130127,4.9e-05,0.0,0.0,0.0,6.4e-05,0.0,0.0,0.0,0.000784,2
1671466465123872708,791411,1671466465124331822,gps,2,1,42.300967985,-83.6976949232,272.777160645,4.9e-05,0.0,0.0,0.0,6.4e-05,0.0,0.0,0.0,0.000784,2
1671466465134006938,791412,1671466465134302690,gps,2,1,42.3009679844,-83.697694923,272.777191162,4.9e-05,0.0,0.0,0.0,6.4e-05,0.0,0.0,0.0,0.000784,2
1671466465143903144,791413,1671466465144357155,gps,2,1,42.3009679851,-83.6976949226,272.777130127,4.9e-05,0.0,0.0,0.0,6.4e-05,0.0,0.0,0.0,0.000784,2
1671466465153938563,791414,1671466465154236431,gps,2,1,42.3009679845,-83.6976949224,272.777160645,4.9e-05,0.0,0.0,0.0,6.4e-05,0.0,0.0,0.0,0.000784,2
1671466465163800321,791415,1671466465164279313,gps,2,1,42.3009679839,-83.6976949222,272.777191162,4.9e-05,0.0,0.0,0.0,6.4e-05,0.0,0.0,0.0,0.000784,2
1671466465173900805,791416,1671466465174253866,gps,2,1,42.3009679846,-83.6976949219,272.777099609,4.9e-05,0.0,0.0,0.0,6.4e-05,0.0,0.0,0.0,0.000784,2
1671466465183856195,791417,1671466465184240645,gps,2,1,42.3009679841,-83.6976949217,272.777130127,4.9e-05,0.0,0.0,0.0,6.4e-05,0.0,0.0,0.0,0.000784,2
1671466465193887457,791418,1671466465194300066,gps,2,1,42.3009679835,-83.6976949215,272.777160645,4.9e-05,0.0,0.0,0.0,6.4e-05,0.0,0.0,0.0,0.000784,2
1671466465203722830,791419,1671466465204243897,gps,2,1,42.3009679843,-83.6976949211,272.777069092,4.9e-05,0.0,0.0,0.0,6.4e-05,0.0,0.0,0.0,0.000784,2
1671466465213725719,791420,1671466465214250141,gps,2,1,42.3009679837,-83.697694921,272.777099609,4.9e-05,0.0,0.0,0.0,6.4e-05,0.0,0.0,0.0,0.000784,2
1671466465224126763,791421,1671466465224302540,gps,2,1,42.3009679832,-83.6976949208,272.777130127,4.9e-05,0.0,0.0,0.0,6.4e-05,0.0,0.0,0.0,0.000784,2
1671466465233644398,791422,1671466465234251292,gps,2,1,42.300967984,-83.6976949205,272.777069092,4.9e-05,0.0,0.0,0.0,6.4e-05,0.0,0.0,0.0,0.000784,2
1671466465244021375,791423,1671466465244238882,gps,2,1,42.3009679835,-83.6976949203,272.777099609,4.9e-05,0.0,0.0,0.0,6.4e-05,0.0,0.0,0.0,0.000784,2
1671466465253930420,791424,1671466465254315212,gps,2,1,42.3009679831,-83.6976949201,272.777130127,0.0001,0.0,0.0,0.0,0.000121,0.0,0.0,0.0,0.000841,2
1671466465264117541,791425,1671466465264263425,gps,2,1,42.3009679839,-83.6976949199,272.777069092,0.0001,0.0,0.0,0.0,0.000121,0.0,0.0,0.0,0.000841,2
1671466465273838085,791426,1671466465274245585,gps,2,1,42.3009679835,-83.6976949197,272.777099609,0.0001,0.0,0.0,0.0,0.000121,0.0,0.0,0.0,0.000841,2
1671466465283823918,791427,1671466465284299935,gps,2,1,42.3009679831,-83.6976949196,272.777130127,0.0001,0.0,0.0,0.0,0.000121,0.0,0.0,0.0,0.000841,2
1671466465293847826,791428,1671466465294252893,gps,2,1,42.3009679839,-83.6976949193,272.777069092,0.0001,0.0,0.0,0.0,0.000121,0.0,0.0,0.0,0.000841,2
1671466465303807302,791429,1671466465304265695,gps,2,1,42.3009679835,-83.6976949192,272.777099609,0.0001,0.0,0.0,0.0,0.000121,0.0,0.0,0.0,0.000841,2
1671466465313857615,791430,1671466465314297762,gps,2,1,42.3009679831,-83.6976949191,272.777130127,0.0001,0.0,0.0,0.0,0.000121,0.0,0.0,0.0,0.000841,2
1671466465323727361,791431,1671466465324317316,gps,2,1,42.3009679839,-83.6976949189,272.777069092,0.0001,0.0,0.0,0.0,0.000121,0.0,0.0,0.0,0.000841,2
1671466465333893185,791432,1671466465334234676,gps,2,1,42.3009679836,-83.6976949188,272.777099609,0.0001,0.0,0.0,0.0,0.000121,0.0,0.0,0.0,0.000841,2
1671466465343691231,791433,1671466465344296427,gps,2,1,42.3009679832,-83.6976949186,272.777160645,0.0001,0.0,0.0,0.0,0.000121,0.0,0.0,0.0,0.000841,2
1671466465353603025,791434,1671466465354257814,gps,2,1,42.3009679839,-83.6976949184,272.777099609,0.0001,0.0,0.0,0.0,0.000121,0.0,0.0,0.0,0.000841,2
1671466465363644911,791435,1671466465364251619,gps,2,1,42.3009679835,-83.6976949182,272.777130127,0.0001,0.0,0.0,0.0,0.000121,0.0,0.0,0.0,0.000841,2
1671466465374206848,791436,1671466465374337712,gps,2,1,42.3009679831,-83.697694918,272.777160645,0.0001,0.0,0.0,0.0,0.000121,0.0,0.0,0.0,0.000841,2
1671466465384051140,791437,1671466465384298294,gps,2,1,42.300967984,-83.6976949179,272.777099609,0.0001,0.0,0.0,0.0,0.000121,0.0,0.0,0.0,0.000841,2
1671466465393943551,791438,1671466465394420627,gps,2,1,42.3009679835,-83.6976949176,272.777099609,0.0001,0.0,0.0,0.0,0.000121,0.0,0.0,0.0,0.000841,2
1671466465403772278,791439,1671466465404328443,gps,2,1,42.3009679831,-83.6976949175,272.777130127,0.0001,0.0,0.0,0.0,0.000121,0.0,0.0,0.0,0.000841,2
1671466465413847161,791440,1671466465414250400,gps,2,1,42.3009679838,-83.6976949172,272.777099609,0.0001,0.0,0.0,0.0,0.000121,0.0,0.0,0.0,0.000841,2
1671466465423849096,791441,1671466465424252359,gps,2,1,42.3009679833,-83.6976949169,272.777099609,0.0001,0.0,0.0,0.0,0.000121,0.0,0.0,0.0,0.000841,2
1671466465433976579,791442,1671466465434325774,gps,2,1,42.3009679828,-83.6976949167,272.777130127,0.0001,0.0,0.0,0.0,0.000121,0.0,0.0,0.0,0.000841,2
1671466465443819536,791443,1671466465444238530,gps,2,1,42.3009679835,-83.6976949164,272.777069092,0.0001,0.0,0.0,0.0,0.000121,0.0,0.0,0.0,0.000841,2
1671466465453822281,791444,1671466465454222557,gps,2,1,42.3009679829,-83.6976949161,272.777099609,0.0001,0.0,0.0,0.0,0.000121,0.0,0.0,0.0,0.000841,2
1671466465464062418,791445,1671466465464331574,gps,2,1,42.3009679824,-83.6976949158,272.777130127,0.0001,0.0,0.0,0.0,0.000121,0.0,0.0,0.0,0.000841,2
1671466465473704964,791446,1671466465474259019,gps,2,1,42.300967983,-83.6976949155,272.777069092,0.0001,0.0,0.0,0.0,0.000121,0.0,0.0,0.0,0.000841,2
1671466465483659791,791447,1671466465484234344,gps,2,1,42.3009679824,-83.6976949151,272.777099609,0.0001,0.0,0.0,0.0,0.000121,0.0,0.0,0.0,0.000841,2
1671466465494102085,791448,1671466465494302838,gps,2,1,42.3009679819,-83.6976949147,272.777099609,0.0001,0.0,0.0,0.0,0.000121,0.0,0.0,0.0,0.000841,2
1671466465504319260,791449,1671466465504371822,gps,2,1,42.3009679824,-83.6976949144,272.777069092,0.0001,0.0,0.0,0.0,0.000121,0.0,0.0,0.0,0.000841,2
1671466465514147797,791450,1671466465514326769,gps,2,1,42.3009679819,-83.697694914,272.777099609,0.0001,0.0,0.0,0.0,0.000121,0.0,0.0,0.0,0.000841,2
1671466465524021758,791451,1671466465524292110,gps,2,1,42.3009679813,-83.6976949137,272.777099609,0.0001,0.0,0.0,0.0,0.000121,0.0,0.0,0.0,0.000841,2
1671466465533864908,791452,1671466465534305903,gps,2,1,42.3009679818,-83.6976949133,272.777069092,0.0001,0.0,0.0,0.0,0.000121,0.0,0.0,0.0,0.000841,2
1671466465543944312,791453,1671466465544309059,gps,2,1,42.3009679813,-83.6976949129,272.777099609,0.0001,0.0,0.0,0.0,0.000121,0.0,0.0,0.0,0.000841,2
1671466465553803309,791454,1671466465554345164,gps,2,1,42.3009679807,-83.6976949126,272.777130127,0.0001,0.0,0.0,0.0,0.000121,0.0,0.0,0.0,0.000841,2
1671466465563741917,791455,1671466465564303614,gps,2,1,42.3009679815,-83.6976949123,272.777038574,0.0001,0.0,0.0,0.0,0.000121,0.0,0.0,0.0,0.000841,2
1671466465573844223,791456,1671466465574353528,gps,2,1,42.300967981,-83.6976949119,272.777069092,0.0001,0.0,0.0,0.0,0.000121,0.0,0.0,0.0,0.000841,2
1671466465583975013,791457,1671466465584279451,gps,2,1,42.3009679804,-83.6976949115,272.777099609,0.0001,0.0,0.0,0.0,0.000121,0.0,0.0,0.0,0.000841,2
1671466465593781792,791458,1671466465594224158,gps,2,1,42.3009679813,-83.6976949113,272.777008057,0.0001,0.0,0.0,0.0,0.000121,0.0,0.0,0.0,0.000841,2
1671466465603815193,791459,1671466465604239084,gps,2,1,42.3009679807,-83.697694911,272.777038574,0.0001,0.0,0.0,0.0,0.000121,0.0,0.0,0.0,0.000841,2
1671466465613717579,791460,1671466465614280521,gps,2,1,42.3009679802,-83.6976949106,272.777069092,0.0001,0.0,0.0,0.0,0.000121,0.0,0.0,0.0,0.000841,2
1671466465623734592,791461,1671466465624217510,gps,2,1,42.3009679811,-83.6976949104,272.776977539,0.0001,0.0,0.0,0.0,0.000121,0.0,0.0,0.0,0.000841,2
1671466465633700404,791462,1671466465634235628,gps,2,1,42.3009679806,-83.6976949101,272.777008057,0.0001,0.0,0.0,0.0,0.000121,0.0,0.0,0.0,0.000841,2
1671466465643742675,791463,1671466465644411055,gps,2,1,42.3009679801,-83.6976949098,272.777038574,0.0001,0.0,0.0,0.0,0.000121,0.0,0.0,0.0,0.000841,2
1671466465654025132,791464,1671466465654228567,gps,2,1,42.3009679809,-83.6976949098,272.776947021,0.0001,0.0,0.0,0.0,0.000121,0.0,0.0,0.0,0.000841,2
1671466465663907887,791465,1671466465664227346,gps,2,1,42.3009679804,-83.6976949095,272.776977539,0.0001,0.0,0.0,0.0,0.000121,0.0,0.0,0.0,0.000841,2
1671466465674009462,791466,1671466465674289910,gps,2,1,42.30096798,-83.6976949093,272.777008057,0.0001,0.0,0.0,0.0,0.000121,0.0,0.0,0.0,0.000841,2
1671466465683860383,791467,1671466465684231623,gps,2,1,42.3009679808,-83.6976949092,272.776916504,0.0001,0.0,0.0,0.0,0.000121,0.0,0.0,0.0,0.000841,2
1671466465693841312,791468,1671466465694249135,gps,2,1,42.3009679803,-83.697694909,272.776947021,0.0001,0.0,0.0,0.0,0.000121,0.0,0.0,0.0,0.000841,2
1671466465703792486,791469,1671466465704293472,gps,2,1,42.3009679798,-83.6976949088,272.776977539,0.0001,0.0,0.0,0.0,0.000121,0.0,0.0,0.0,0.000841,2
1671466465713715171,791470,1671466465714240542,gps,2,1,42.3009679806,-83.6976949088,272.776916504,0.0001,0.0,0.0,0.0,0.000121,0.0,0.0,0.0,0.000841,2
1671466465723740592,791471,1671466465724243779,gps,2,1,42.3009679801,-83.6976949085,272.776916504,0.0001,0.0,0.0,0.0,0.000121,0.0,0.0,0.0,0.000841,2
1671466465733957002,791472,1671466465734295566,gps,2,1,42.3009679797,-83.6976949083,272.776947021,0.0001,0.0,0.0,0.0,0.000121,0.0,0.0,0.0,0.000841,2
1671466465743697306,791473,1671466465744253395,gps,2,1,42.3009679804,-83.6976949084,272.776885986,0.0001,0.0,0.0,0.0,0.000121,0.0,0.0,0.0,0.000841,2
1671466465753672458,791474,1671466465754222076,gps,2,1,42.3009679799,-83.6976949084,272.776916504,0.0001,0.0,0.0,0.0,0.000121,0.0,0.0,0.0,0.000841,2
1671466465763778210,791475,1671466465764325148,gps,2,1,42.3009679793,-83.6976949081,272.776916504,0.0001,0.0,0.0,0.0,0.000121,0.0,0.0,0.0,0.000841,2
1671466465773559957,791476,1671466465774255506,gps,2,1,42.30096798,-83.6976949084,272.776855469,0.0001,0.0,0.0,0.0,0.000121,0.0,0.0,0.0,0.000841,2
1671466465784051214,791477,1671466465784240598,gps,2,1,42.3009679795,-83.6976949083,272.776885986,0.0001,0.0,0.0,0.0,0.000121,0.0,0.0,0.0,0.000841,2
1671466465794129894,791478,1671466465794324315,gps,2,1,42.3009679789,-83.6976949083,272.776916504,0.0001,0.0,0.0,0.0,0.000121,0.0,0.0,0.0,0.000841,2
1671466465804017439,791479,1671466465804226619,gps,2,1,42.3009679795,-83.6976949084,272.776855469,0.0001,0.0,0.0,0.0,0.000121,0.0,0.0,0.0,0.000841,2
1671466465814064605,791480,1671466465814246370,gps,2,1,42.3009679788,-83.6976949082,272.776855469,0.0001,0.0,0.0,0.0,0.000121,0.0,0.0,0.0,0.000841,2
1671466465823995617,791481,1671466465824386814,gps,2,1,42.3009679783,-83.6976949082,272.776885986,0.0001,0.0,0.0,0.0,0.000121,0.0,0.0,0.0,0.000841,2
1671466465833831949,791482,1671466465834233693,gps,2,1,42.3009679788,-83.6976949082,272.776824951,0.0001,0.0,0.0,0.0,0.000121,0.0,0.0,0.0,0.000841,2
1671466465843851944,791483,1671466465844243209,gps,2,1,42.3009679782,-83.6976949079,272.776885986,0.0001,0.0,0.0,0.0,0.000121,0.0,0.0,0.0,0.000841,2
1671466465854032898,791484,1671466465854381616,gps,2,1,42.3009679777,-83.6976949078,272.776885986,0.0001,0.0,0.0,0.0,0.000121,0.0,0.0,0.0,0.000841,2
1671466465863793459,791485,1671466465864251880,gps,2,1,42.3009679782,-83.6976949077,272.776855469,0.0001,0.0,0.0,0.0,0.000121,0.0,0.0,0.0,0.000841,2
1671466465873761855,791486,1671466465874236960,gps,2,1,42.3009679777,-83.6976949074,272.776885986,0.0001,0.0,0.0,0.0,0.000121,0.0,0.0,0.0,0.000841,2
1671466465884048202,791487,1671466465884290271,gps,2,1,42.3009679771,-83.6976949071,272.776916504,0.0001,0.0,0.0,0.0,0.000121,0.0,0.0,0.0,0.000841,2
1671466465893948734,791488,1671466465894233474,gps,2,1,42.3009679777,-83.6976949067,272.776855469,0.0001,0.0,0.0,0.0,0.000121,0.0,0.0,0.0,0.000841,2
1671466465903851797,791489,1671466465904232522,gps,2,1,42.3009679773,-83.6976949062,272.776885986,0.0001,0.0,0.0,0.0,0.000121,0.0,0.0,0.0,0.000841,2
1671466465913647870,791490,1671466465914291059,gps,2,1,42.3009679767,-83.6976949057,272.776916504,0.0001,0.0,0.0,0.0,0.000121,0.0,0.0,0.0,0.000841,2
1671466465923725285,791491,1671466465924222630,gps,2,1,42.3009679774,-83.6976949052,272.776855469,0.0001,0.0,0.0,0.0,0.000121,0.0,0.0,0.0,0.000841,2
1671466465934086016,791492,1671466465934226770,gps,2,1,42.3009679769,-83.6976949046,272.776885986,0.0001,0.0,0.0,0.0,0.000121,0.0,0.0,0.0,0.000841,2
1671466465944076777,791493,1671466465944290800,gps,2,1,42.3009679765,-83.6976949039,272.776916504,0.0001,0.0,0.0,0.0,0.000121,0.0,0.0,0.0,0.000841,2
1671466465954161002,791494,1671466465954228606,gps,2,1,42.3009679771,-83.6976949035,272.776855469,0.0001,0.0,0.0,0.0,0.000121,0.0,0.0,0.0,0.000841,2
1671466465964154872,791495,1671466465964237880,gps,2,1,42.3009679767,-83.6976949033,272.776855469,0.0001,0.0,0.0,0.0,0.000121,0.0,0.0,0.0,0.000841,2
1671466465973811389,791496,1671466465974304868,gps,2,1,42.3009679762,-83.6976949027,272.776855469,0.0001,0.0,0.0,0.0,0.000121,0.0,0.0,0.0,0.000841,2
1671466465983899855,791497,1671466465984226337,gps,2,1,42.3009679768,-83.6976949024,272.776794434,0.0001,0.0,0.0,0.0,0.000121,0.0,0.0,0.0,0.000841,2
1671466465993836181,791498,1671466465994238012,gps,2,1,42.3009679764,-83.697694902,272.776824951,0.0001,0.0,0.0,0.0,0.000121,0.0,0.0,0.0,0.000841,2
1671466466004097053,791499,1671466466004442123,gps,2,1,42.300967976,-83.6976949017,272.776824951,0.0001,0.0,0.0,0.0,0.000121,0.0,0.0,0.0,0.000841,2
1671466466013813993,791500,1671466466014326114,gps,2,1,42.3009679773,-83.6976949017,272.776733398,0.0001,0.0,0.0,0.0,0.000121,0.0,0.0,0.0,0.000841,2
1671466466023772743,791501,1671466466024314220,gps,2,1,42.3009679768,-83.6976949014,272.776763916,0.0001,0.0,0.0,0.0,0.000121,0.0,0.0,0.0,0.000841,2
1671466466033882810,791502,1671466466034303872,gps,2,1,42.3009679763,-83.6976949011,272.776794434,0.0001,0.0,0.0,0.0,0.000121,0.0,0.0,0.0,0.000841,2
1671466466043752602,791503,1671466466044279762,gps,2,1,42.3009679775,-83.6976949013,272.776702881,0.0001,0.0,0.0,0.0,0.000121,0.0,0.0,0.0,0.000841,2
1671466466054212829,791504,1671466466054309256,gps,2,1,42.300967977,-83.6976949012,272.776763916,0.0001,0.0,0.0,0.0,0.000121,0.0,0.0,0.0,0.000841,2
1671466466063913734,791505,1671466466064298122,gps,2,1,42.3009679766,-83.6976949009,272.776794434,0.0001,0.0,0.0,0.0,0.000121,0.0,0.0,0.0,0.000841,2
1671466466073911093,791506,1671466466074374112,gps,2,1,42.3009679777,-83.6976949012,272.776702881,0.0001,0.0,0.0,0.0,0.000121,0.0,0.0,0.0,0.000841,2
1671466466084006555,791507,1671466466084365129,gps,2,1,42.3009679771,-83.6976949012,272.776763916,0.0001,0.0,0.0,0.0,0.000121,0.0,0.0,0.0,0.000841,2
1671466466094106215,791508,1671466466094314809,gps,2,1,42.3009679766,-83.6976949012,272.776794434,0.0001,0.0,0.0,0.0,0.000121,0.0,0.0,0.0,0.000841,2
1671466466103880272,791509,1671466466104223801,gps,2,1,42.3009679776,-83.6976949016,272.776733398,0.0001,0.0,0.0,0.0,0.000121,0.0,0.0,0.0,0.000841,2
1671466466113971223,791510,1671466466114313067,gps,2,1,42.300967977,-83.6976949018,272.776763916,0.0001,0.0,0.0,0.0,0.000121,0.0,0.0,0.0,0.000841,2
1671466466123750617,791511,1671466466124229875,gps,2,1,42.3009679764,-83.6976949018,272.776794434,0.0001,0.0,0.0,0.0,0.000121,0.0,0.0,0.0,0.000841,2
1671466466133866220,791512,1671466466134231775,gps,2,1,42.3009679775,-83.6976949024,272.776733398,0.0001,0.0,0.0,0.0,0.000121,0.0,0.0,0.0,0.000841,2
1671466466143947963,791513,1671466466144384365,gps,2,1,42.3009679769,-83.6976949028,272.776763916,0.0001,0.0,0.0,0.0,0.000121,0.0,0.0,0.0,0.000841,2
1671466466153841010,791514,1671466466154221847,gps,2,1,42.3009679764,-83.697694903,272.776763916,0.0001,0.0,0.0,0.0,0.000121,0.0,0.0,0.0,0.000841,2
1671466466163966228,791515,1671466466164212782,gps,2,1,42.3009679774,-83.6976949039,272.776702881,0.0001,0.0,0.0,0.0,0.000121,0.0,0.0,0.0,0.000841,2
1671466466173805813,791516,1671466466174303075,gps,2,1,42.3009679769,-83.6976949045,272.776733398,0.0001,0.0,0.0,0.0,0.000121,0.0,0.0,0.0,0.000841,2
1671466466183883381,791517,1671466466184222505,gps,2,1,42.3009679763,-83.697694905,272.776733398,0.0001,0.0,0.0,0.0,0.000121,0.0,0.0,0.0,0.000841,2
1671466466193647270,791518,1671466466194209133,gps,2,1,42.3009679773,-83.6976949062,272.776672363,0.0001,0.0,0.0,0.0,0.000121,0.0,0.0,0.0,0.000841,2
1671466466204051261,791519,1671466466204308908,gps,2,1,42.3009679768,-83.6976949075,272.776672363,0.0001,0.0,0.0,0.0,0.000121,0.0,0.0,0.0,0.000841,2
1671466466213977130,791520,1671466466214265007,gps,2,1,42.3009679762,-83.6976949084,272.776702881,0.0001,0.0,0.0,0.0,0.000121,0.0,0.0,0.0,0.000841,2
1671466466223918278,791521,1671466466224222591,gps,2,1,42.3009679772,-83.6976949103,272.776641846,0.0001,0.0,0.0,0.0,0.000121,0.0,0.0,0.0,0.000841,2
1671466466234054197,791522,1671466466234240113,gps,2,1,42.3009679766,-83.6976949126,272.776641846,0.0001,0.0,0.0,0.0,0.000121,0.0,0.0,0.0,0.000841,2
1671466466243714462,791523,1671466466244294942,gps,2,1,42.3009679761,-83.6976949139,272.776672363,0.0001,0.0,0.0,0.0,0.000121,0.0,0.0,0.0,0.000841,2
1671466466253754913,791524,1671466466254232254,gps,2,1,42.300967977,-83.6976949168,272.776611328,4.9e-05,0.0,0.0,0.0,6.4e-05,0.0,0.0,0.0,0.000784,2
1671466466264083527,791525,1671466466264308485,gps,2,1,42.3009679765,-83.6976949199,272.776611328,4.9e-05,0.0,0.0,0.0,6.4e-05,0.0,0.0,0.0,0.000784,2
1671466466273912168,791526,1671466466274234881,gps,2,1,42.300967976,-83.6976949223,272.776611328,4.9e-05,0.0,0.0,0.0,6.4e-05,0.0,0.0,0.0,0.000784,2
1671466466284018334,791527,1671466466284216297,gps,2,1,42.3009679769,-83.6976949262,272.776550293,4.9e-05,0.0,0.0,0.0,6.4e-05,0.0,0.0,0.0,0.000784,2
1671466466293928705,791528,1671466466294289876,gps,2,1,42.3009679764,-83.6976949306,272.776580811,4.9e-05,0.0,0.0,0.0,6.4e-05,0.0,0.0,0.0,0.000784,2
1671466466304097305,791529,1671466466304230787,gps,2,1,42.3009679759,-83.6976949339,272.776580811,4.9e-05,0.0,0.0,0.0,6.4e-05,0.0,0.0,0.0,0.000784,2
1671466466313737974,791530,1671466466314198028,gps,2,1,42.3009679768,-83.697694939,272.776550293,4.9e-05,0.0,0.0,0.0,6.4e-05,0.0,0.0,0.0,0.000784,2
1671466466324311491,791531,1671466466324480223,gps,2,1,42.3009679762,-83.6976949446,272.776550293,4.9e-05,0.0,0.0,0.0,6.4e-05,0.0,0.0,0.0,0.000784,2
1671466466333721099,791532,1671466466334230239,gps,2,1,42.3009679757,-83.6976949492,272.776550293,4.9e-05,0.0,0.0,0.0,6.4e-05,0.0,0.0,0.0,0.000784,2
1671466466343667619,791533,1671466466344211581,gps,2,1,42.3009679765,-83.6976949555,272.776489258,4.9e-05,0.0,0.0,0.0,6.4e-05,0.0,0.0,0.0,0.000784,2
1671466466353968708,791534,1671466466354273494,gps,2,1,42.300967976,-83.6976949624,272.776489258,4.9e-05,0.0,0.0,0.0,6.4e-05,0.0,0.0,0.0,0.000784,2
1671466466363933871,791535,1671466466364226365,gps,2,1,42.3009679754,-83.6976949682,272.776489258,4.9e-05,0.0,0.0,0.0,6.4e-05,0.0,0.0,0.0,0.000784,2
1671466466373876123,791536,1671466466374226322,gps,2,1,42.3009679762,-83.6976949758,272.776397705,4.9e-05,0.0,0.0,0.0,6.4e-05,0.0,0.0,0.0,0.000784,2
1671466466383875800,791537,1671466466384303134,gps,2,1,42.3009679755,-83.697694984,272.776367188,4.9e-05,0.0,0.0,0.0,6.4e-05,0.0,0.0,0.0,0.000784,2
1671466466393947665,791538,1671466466394441871,gps,2,1,42.300967975,-83.6976949911,272.776367188,4.9e-05,0.0,0.0,0.0,6.4e-05,0.0,0.0,0.0,0.000784,2
1671466466403871288,791539,1671466466404227375,gps,2,1,42.3009679759,-83.6976950001,272.776275635,4.9e-05,0.0,0.0,0.0,6.4e-05,0.0,0.0,0.0,0.000784,2
1671466466413973900,791540,1671466466414282045,gps,2,1,42.3009679752,-83.6976950097,272.776245117,4.9e-05,0.0,0.0,0.0,6.4e-05,0.0,0.0,0.0,0.000784,2
1671466466423775941,791541,1671466466424222028,gps,2,1,42.3009679746,-83.697695018,272.7762146,4.9e-05,0.0,0.0,0.0,6.4e-05,0.0,0.0,0.0,0.000784,2
1671466466433914036,791542,1671466466434226398,gps,2,1,42.3009679753,-83.6976950283,272.776123047,4.9e-05,0.0,0.0,0.0,6.4e-05,0.0,0.0,0.0,0.000784,2
1671466466443850667,791543,1671466466444272876,gps,2,1,42.3009679746,-83.6976950392,272.776062012,4.9e-05,0.0,0.0,0.0,6.4e-05,0.0,0.0,0.0,0.000784,2
1671466466453957124,791544,1671466466454218221,gps,2,1,42.3009679739,-83.697695049,272.776031494,4.9e-05,0.0,0.0,0.0,6.4e-05,0.0,0.0,0.0,0.000784,2
1671466466464171829,791545,1671466466464268384,gps,2,1,42.3009679746,-83.6976950606,272.775939941,4.9e-05,0.0,0.0,0.0,6.4e-05,0.0,0.0,0.0,0.000784,2
1671466466473684701,791546,1671466466474298983,gps,2,1,42.3009679738,-83.6976950728,272.775909424,4.9e-05,0.0,0.0,0.0,6.4e-05,0.0,0.0,0.0,0.000784,2
1671466466483749064,791547,1671466466484227657,gps,2,1,42.300967973,-83.697695084,272.775848389,4.9e-05,0.0,0.0,0.0,6.4e-05,0.0,0.0,0.0,0.000784,2
1671466466493638209,791548,1671466466494221739,gps,2,1,42.3009679736,-83.697695097,272.775787354,4.9e-05,0.0,0.0,0.0,6.4e-05,0.0,0.0,0.0,0.000784,2
1671466466504248756,791549,1671466466504419308,gps,2,1,42.3009679729,-83.6976951106,272.775726318,4.9e-05,0.0,0.0,0.0,6.4e-05,0.0,0.0,0.0,0.000784,2
1671466466514122592,791550,1671466466514302728,gps,2,1,42.3009679721,-83.6976951231,272.775695801,4.9e-05,0.0,0.0,0.0,6.4e-05,0.0,0.0,0.0,0.000784,2
1671466466524038883,791551,1671466466524288955,gps,2,1,42.300967974,-83.6976951379,272.77557373,4.9e-05,0.0,0.0,0.0,6.4e-05,0.0,0.0,0.0,0.000784,2
1671466466533879899,791552,1671466466534292670,gps,2,1,42.3009679732,-83.697695153,272.77557373,4.9e-05,0.0,0.0,0.0,6.4e-05,0.0,0.0,0.0,0.000784,2
1671466466543830845,791553,1671466466544290236,gps,2,1,42.3009679725,-83.6976951669,272.775512695,4.9e-05,0.0,0.0,0.0,6.4e-05,0.0,0.0,0.0,0.000784,2
1671466466553961668,791554,1671466466554341305,gps,2,1,42.3009679742,-83.6976951832,272.775390625,4.9e-05,0.0,0.0,0.0,6.4e-05,0.0,0.0,0.0,0.000784,2
1671466466563918276,791555,1671466466564371497,gps,2,1,42.3009679734,-83.6976951999,272.775390625,4.9e-05,0.0,0.0,0.0,6.4e-05,0.0,0.0,0.0,0.000784,2
1671466466573856696,791556,1671466466574345871,gps,2,1,42.3009679727,-83.6976952152,272.77532959,4.9e-05,0.0,0.0,0.0,6.4e-05,0.0,0.0,0.0,0.000784,2
1671466466583890482,791557,1671466466584225456,gps,2,1,42.3009679744,-83.697695233,272.775238037,4.9e-05,0.0,0.0,0.0,6.4e-05,0.0,0.0,0.0,0.000784,2
1671466466593822114,791558,1671466466594276765,gps,2,1,42.3009679736,-83.6976952513,272.77520752,4.9e-05,0.0,0.0,0.0,6.4e-05,0.0,0.0,0.0,0.000784,2
1671466466603962053,791559,1671466466604205512,gps,2,1,42.300967973,-83.6976952682,272.775177002,4.9e-05,0.0,0.0,0.0,6.4e-05,0.0,0.0,0.0,0.000784,2
1671466466613679278,791560,1671466466614204914,gps,2,1,42.3009679746,-83.6976952876,272.775054932,4.9e-05,0.0,0.0,0.0,6.4e-05,0.0,0.0,0.0,0.000784,2
1671466466623640663,791561,1671466466624295933,gps,2,1,42.3009679738,-83.6976953075,272.775024414,4.9e-05,0.0,0.0,0.0,6.4e-05,0.0,0.0,0.0,0.000784,2
1671466466633697768,791562,1671466466634241175,gps,2,1,42.3009679731,-83.6976953261,272.775024414,4.9e-05,0.0,0.0,0.0,6.4e-05,0.0,0.0,0.0,0.000784,2
1671466466643792376,791563,1671466466644217307,gps,2,1,42.3009679745,-83.697695347,272.774902344,4.9e-05,0.0,0.0,0.0,6.4e-05,0.0,0.0,0.0,0.000784,2
1671466466654094418,791564,1671466466654270658,gps,2,1,42.3009679738,-83.6976953687,272.774871826,4.9e-05,0.0,0.0,0.0,6.4e-05,0.0,0.0,0.0,0.000784,2
1671466466663956098,791565,1671466466664217384,gps,2,1,42.3009679731,-83.6976953889,272.774871826,4.9e-05,0.0,0.0,0.0,6.4e-05,0.0,0.0,0.0,0.000784,2
1671466466674047528,791566,1671466466674205107,gps,2,1,42.3009679744,-83.6976954116,272.774749756,4.9e-05,0.0,0.0,0.0,6.4e-05,0.0,0.0,0.0,0.000784,2
1671466466684025106,791567,1671466466684288538,gps,2,1,42.3009679738,-83.6976954349,272.774719238,4.9e-05,0.0,0.0,0.0,6.4e-05,0.0,0.0,0.0,0.000784,2
1671466466693740688,791568,1671466466694220581,gps,2,1,42.3009679731,-83.6976954568,272.774719238,4.9e-05,0.0,0.0,0.0,6.4e-05,0.0,0.0,0.0,0.000784,2
1671466466703892339,791569,1671466466704224738,gps,2,1,42.3009679744,-83.6976954812,272.774627686,4.9e-05,0.0,0.0,0.0,6.4e-05,0.0,0.0,0.0,0.000784,2
1671466466713827535,791570,1671466466714286502,gps,2,1,42.3009679739,-83.6976955064,272.774597168,4.9e-05,0.0,0.0,0.0,6.4e-05,0.0,0.0,0.0,0.000784,2
1671466466723782602,791571,1671466466724235288,gps,2,1,42.3009679732,-83.6976955299,272.774597168,4.9e-05,0.0,0.0,0.0,6.4e-05,0.0,0.0,0.0,0.000784,2
1671466466733856532,791572,1671466466734212159,gps,2,1,42.3009679745,-83.6976955562,272.774475098,4.9e-05,0.0,0.0,0.0,6.4e-05,0.0,0.0,0.0,0.000784,2
1671466466743754519,791573,1671466466744268297,gps,2,1,42.3009679738,-83.6976955833,272.774475098,4.9e-05,0.0,0.0,0.0,6.4e-05,0.0,0.0,0.0,0.000784,2
1671466466753881052,791574,1671466466754210475,gps,2,1,42.3009679732,-83.6976956088,272.77444458,4.9e-05,0.0,0.0,0.0,6.4e-05,0.0,0.0,0.0,0.000784,2
1671466466763661255,791575,1671466466764247653,gps,2,1,42.3009679744,-83.6976956371,272.774353027,4.9e-05,0.0,0.0,0.0,6.4e-05,0.0,0.0,0.0,0.000784,2
1671466466774022588,791576,1671466466774281605,gps,2,1,42.3009679738,-83.6976956663,272.77432251,4.9e-05,0.0,0.0,0.0,6.4e-05,0.0,0.0,0.0,0.000784,2
1671466466783685570,791577,1671466466784229609,gps,2,1,42.3009679732,-83.6976956937,272.774291992,4.9e-05,0.0,0.0,0.0,6.4e-05,0.0,0.0,0.0,0.000784,2
1671466466793938480,791578,1671466466794213838,gps,2,1,42.3009679744,-83.6976957242,272.774200439,4.9e-05,0.0,0.0,0.0,6.4e-05,0.0,0.0,0.0,0.000784,2
1671466466804147464,791579,1671466466804279188,gps,2,1,42.3009679737,-83.6976957559,272.774139404,4.9e-05,0.0,0.0,0.0,6.4e-05,0.0,0.0,0.0,0.000784,2
1671466466813940487,791580,1671466466814226115,gps,2,1,42.300967973,-83.6976957857,272.774078369,4.9e-05,0.0,0.0,0.0,6.4e-05,0.0,0.0,0.0,0.000784,2
1671466466823838250,791581,1671466466824299694,gps,2,1,42.300967974,-83.6976958188,272.773956299,4.9e-05,0.0,0.0,0.0,6.4e-05,0.0,0.0,0.0,0.000784,2
1671466466833972645,791582,1671466466834279147,gps,2,1,42.3009679733,-83.6976958532,272.773895264,4.9e-05,0.0,0.0,0.0,6.4e-05,0.0,0.0,0.0,0.000784,2
1671466466843837012,791583,1671466466844214202,gps,2,1,42.3009679726,-83.6976958853,272.773834229,4.9e-05,0.0,0.0,0.0,6.4e-05,0.0,0.0,0.0,0.000784,2
1671466466853963131,791584,1671466466854207035,gps,2,1,42.3009679736,-83.6976959213,272.773712158,4.9e-05,0.0,0.0,0.0,6.4e-05,0.0,0.0,0.0,0.000784,2
1671466466864171270,791585,1671466466864324094,gps,2,1,42.3009679729,-83.6976959589,272.773620605,4.9e-05,0.0,0.0,0.0,6.4e-05,0.0,0.0,0.0,0.000784,2
1671466466873925634,791586,1671466466874208895,gps,2,1,42.3009679722,-83.697695994,272.77355957,4.9e-05,0.0,0.0,0.0,6.4e-05,0.0,0.0,0.0,0.000784,2
1671466466883864166,791587,1671466466884209140,gps,2,1,42.3009679731,-83.6976960332,272.773406982,4.9e-05,0.0,0.0,0.0,6.4e-05,0.0,0.0,0.0,0.000784,2
1671466466893765982,791588,1671466466894265308,gps,2,1,42.3009679724,-83.6976960742,272.77331543,4.9e-05,0.0,0.0,0.0,6.4e-05,0.0,0.0,0.0,0.000784,2
1671466466903818855,791589,1671466466904214022,gps,2,1,42.3009679717,-83.6976961123,272.773223877,4.9e-05,0.0,0.0,0.0,6.4e-05,0.0,0.0,0.0,0.000784,2
1671466466913596752,791590,1671466466914208963,gps,2,1,42.3009679726,-83.697696155,272.773071289,4.9e-05,0.0,0.0,0.0,6.4e-05,0.0,0.0,0.0,0.000784,2
1671466466924123364,791591,1671466466924218842,gps,2,1,42.3009679719,-83.6976961997,272.772949219,4.9e-05,0.0,0.0,0.0,6.4e-05,0.0,0.0,0.0,0.000784,2
1671466466934037510,791592,1671466466934302208,gps,2,1,42.3009679712,-83.6976962414,272.772857666,4.9e-05,0.0,0.0,0.0,6.4e-05,0.0,0.0,0.0,0.000784,2
1671466466944021103,791593,1671466466944208941,gps,2,1,42.3009679721,-83.697696288,272.772705078,4.9e-05,0.0,0.0,0.0,6.4e-05,0.0,0.0,0.0,0.000784,2
1671466466954179705,791594,1671466466954263026,gps,2,1,42.3009679715,-83.6976963368,272.772583008,4.9e-05,0.0,0.0,0.0,6.4e-05,0.0,0.0,0.0,0.000784,2
1671466466964007081,791595,1671466466964220901,gps,2,1,42.3009679708,-83.6976963821,272.772460938,4.9e-05,0.0,0.0,0.0,6.4e-05,0.0,0.0,0.0,0.000784,2
1671466466973742787,791596,1671466466974216628,gps,2,1,42.3009679717,-83.697696433,272.77230835,4.9e-05,0.0,0.0,0.0,6.4e-05,0.0,0.0,0.0,0.000784,2
1671466466983963744,791597,1671466466984283869,gps,2,1,42.3009679711,-83.6976964863,272.772155762,4.9e-05,0.0,0.0,0.0,6.4e-05,0.0,0.0,0.0,0.000784,2
1671466466993838436,791598,1671466466994211901,gps,2,1,42.3009679705,-83.697696536,272.772033691,4.9e-05,0.0,0.0,0.0,6.4e-05,0.0,0.0,0.0,0.000784,2
1671466467003970973,791599,1671466467004215530,gps,2,1,42.3009679714,-83.6976965914,272.771850586,4.9e-05,0.0,0.0,0.0,6.4e-05,0.0,0.0,0.0,0.000784,2
1671466467013811258,791600,1671466467014339105,gps,2,1,42.3009679709,-83.6976966495,272.771697998,4.9e-05,0.0,0.0,0.0,6.4e-05,0.0,0.0,0.0,0.000784,2
1671466467023826929,791601,1671466467024322458,gps,2,1,42.3009679704,-83.6976967036,272.77154541,4.9e-05,0.0,0.0,0.0,6.4e-05,0.0,0.0,0.0,0.000784,2
1671466467033776600,791602,1671466467034243253,gps,2,1,42.3009679702,-83.697696764,272.771331787,4.9e-05,0.0,0.0,0.0,6.4e-05,0.0,0.0,0.0,0.000784,2
1671466467043674987,791603,1671466467044273680,gps,2,1,42.3009679698,-83.6976968272,272.771179199,4.9e-05,0.0,0.0,0.0,6.4e-05,0.0,0.0,0.0,0.000784,2
1671466467054232758,791604,1671466467054356394,gps,2,1,42.3009679693,-83.6976968863,272.771026611,4.9e-05,0.0,0.0,0.0,6.4e-05,0.0,0.0,0.0,0.000784,2
1671466467063680205,791605,1671466467064242723,gps,2,1,42.3009679692,-83.6976969519,272.770782471,4.9e-05,0.0,0.0,0.0,6.4e-05,0.0,0.0,0.0,0.000784,2
1671466467074041240,791606,1671466467074367124,gps,2,1,42.3009679687,-83.6976970205,272.770599365,4.9e-05,0.0,0.0,0.0,6.4e-05,0.0,0.0,0.0,0.000784,2
1671466467083905486,791607,1671466467084367647,gps,2,1,42.3009679683,-83.6976970846,272.770446777,4.9e-05,0.0,0.0,0.0,6.4e-05,0.0,0.0,0.0,0.000784,2
1671466467093750967,791608,1671466467094225681,gps,2,1,42.3009679682,-83.6976971557,272.770202637,4.9e-05,0.0,0.0,0.0,6.4e-05,0.0,0.0,0.0,0.000784,2
1671466467103904521,791609,1671466467104275189,gps,2,1,42.3009679678,-83.6976972298,272.770019531,4.9e-05,0.0,0.0,0.0,6.4e-05,0.0,0.0,0.0,0.000784,2
1671466467114051307,791610,1671466467114352646,gps,2,1,42.3009679674,-83.6976972995,272.769836426,4.9e-05,0.0,0.0,0.0,6.4e-05,0.0,0.0,0.0,0.000784,2
1671466467123770354,791611,1671466467124237592,gps,2,1,42.3009679674,-83.6976973761,272.769561768,4.9e-05,0.0,0.0,0.0,6.4e-05,0.0,0.0,0.0,0.000784,2
1671466467133800002,791612,1671466467134269404,gps,2,1,42.3009679671,-83.6976974562,272.769378662,4.9e-05,0.0,0.0,0.0,6.4e-05,0.0,0.0,0.0,0.000784,2
1671466467143788031,791613,1671466467144300502,gps,2,1,42.3009679667,-83.6976975313,272.769165039,4.9e-05,0.0,0.0,0.0,6.4e-05,0.0,0.0,0.0,0.000784,2
1671466467153825726,791614,1671466467154273122,gps,2,1,42.3009679667,-83.697697614,272.768890381,4.9e-05,0.0,0.0,0.0,6.4e-05,0.0,0.0,0.0,0.000784,2
1671466467163795755,791615,1671466467164254233,gps,2,1,42.3009679664,-83.6976977002,272.768676758,4.9e-05,0.0,0.0,0.0,6.4e-05,0.0,0.0,0.0,0.000784,2
1671466467173726737,791616,1671466467174351172,gps,2,1,42.300967966,-83.6976977814,272.768463135,4.9e-05,0.0,0.0,0.0,6.4e-05,0.0,0.0,0.0,0.000784,2
1671466467183772742,791617,1671466467184232689,gps,2,1,42.3009679661,-83.6976978704,272.768188477,4.9e-05,0.0,0.0,0.0,6.4e-05,0.0,0.0,0.0,0.000784,2
1671466467194088633,791618,1671466467194319922,gps,2,1,42.3009679658,-83.6976979631,272.767944336,4.9e-05,0.0,0.0,0.0,6.4e-05,0.0,0.0,0.0,0.000784,2
1671466467204188998,791619,1671466467204341954,gps,2,1,42.3009679655,-83.6976980504,272.767730713,4.9e-05,0.0,0.0,0.0,6.4e-05,0.0,0.0,0.0,0.000784,2
1671466467213731505,791620,1671466467214229580,gps,2,1,42.3009679655,-83.6976981459,272.767425537,4.9e-05,0.0,0.0,0.0,6.4e-05,0.0,0.0,0.0,0.000784,2
1671466467224082967,791621,1671466467224206301,gps,2,1,42.3009679652,-83.6976982454,272.767181396,4.9e-05,0.0,0.0,0.0,6.4e-05,0.0,0.0,0.0,0.000784,2
1671466467234132772,791622,1671466467234278023,gps,2,1,42.3009679648,-83.6976983393,272.766937256,4.9e-05,0.0,0.0,0.0,6.4e-05,0.0,0.0,0.0,0.000784,2
1671466467243954165,791623,1671466467244196170,gps,2,1,42.3009679648,-83.6976984416,272.76663208,4.9e-05,0.0,0.0,0.0,6.4e-05,0.0,0.0,0.0,0.000784,2
1671466467254054685,791624,1671466467254210675,gps,2,1,42.3009679643,-83.697698548,272.766387939,0.0001,0.0,0.0,0.0,0.000121,0.0,0.0,0.0,0.000841,2
1671466467263927236,791625,1671466467264304883,gps,2,1,42.3009679639,-83.6976986485,272.766143799,0.0001,0.0,0.0,0.0,0.000121,0.0,0.0,0.0,0.000841,2
1671466467273891527,791626,1671466467274223196,gps,2,1,42.3009679638,-83.6976987577,272.765838623,0.0001,0.0,0.0,0.0,0.000121,0.0,0.0,0.0,0.000841,2
1671466467283910171,791627,1671466467284197628,gps,2,1,42.3009679633,-83.6976988709,272.765563965,0.0001,0.0,0.0,0.0,0.000121,0.0,0.0,0.0,0.000841,2
1671466467293864213,791628,1671466467294287728,gps,2,1,42.3009679628,-83.6976989785,272.765319824,0.0001,0.0,0.0,0.0,0.000121,0.0,0.0,0.0,0.000841,2
1671466467303846640,791629,1671466467304231726,gps,2,1,42.3009679626,-83.6976990945,272.765014648,0.0001,0.0,0.0,0.0,0.000121,0.0,0.0,0.0,0.000841,2
1671466467313789539,791630,1671466467314241606,gps,2,1,42.300967962,-83.6976992145,272.764770508,0.0001,0.0,0.0,0.0,0.000121,0.0,0.0,0.0,0.000841,2
1671466467323878449,791631,1671466467324353908,gps,2,1,42.3009679614,-83.6976993289,272.764526367,0.0001,0.0,0.0,0.0,0.000121,0.0,0.0,0.0,0.000841,2
1671466467333641242,791632,1671466467334195201,gps,2,1,42.3009679611,-83.6976994516,272.764221191,0.0001,0.0,0.0,0.0,0.000121,0.0,0.0,0.0,0.000841,2
1671466467343658222,791633,1671466467344204917,gps,2,1,42.3009679605,-83.6976995783,272.763977051,0.0001,0.0,0.0,0.0,0.000121,0.0,0.0,0.0,0.000841,2
1671466467354023302,791634,1671466467354283506,gps,2,1,42.3009679599,-83.6976996996,272.76373291,0.0001,0.0,0.0,0.0,0.000121,0.0,0.0,0.0,0.000841,2
1671466467364010093,791635,1671466467364219704,gps,2,1,42.3009679596,-83.6976998291,272.763458252,0.0001,0.0,0.0,0.0,0.000121,0.0,0.0,0.0,0.000841,2
1671466467373575209,791636,1671466467374203613,gps,2,1,42.3009679589,-83.6976999627,272.763244629,0.0001,0.0,0.0,0.0,0.000121,0.0,0.0,0.0,0.000841,2
1671466467383965436,791637,1671466467384301912,gps,2,1,42.3009679582,-83.6977000905,272.763000488,0.0001,0.0,0.0,0.0,0.000121,0.0,0.0,0.0,0.000841,2
1671466467393917456,791638,1671466467394295624,gps,2,1,42.300967958,-83.6977002269,272.76272583,0.0001,0.0,0.0,0.0,0.000121,0.0,0.0,0.0,0.000841,2
1671466467403940862,791639,1671466467404237505,gps,2,1,42.3009679574,-83.6977003673,272.762481689,0.0001,0.0,0.0,0.0,0.000121,0.0,0.0,0.0,0.000841,2
1671466467413760046,791640,1671466467414277094,gps,2,1,42.3009679568,-83.6977005021,272.762268066,0.0001,0.0,0.0,0.0,0.000121,0.0,0.0,0.0,0.000841,2
1671466467423843025,791641,1671466467424196871,gps,2,1,42.3009679566,-83.6977006454,272.761962891,0.0001,0.0,0.0,0.0,0.000121,0.0,0.0,0.0,0.000841,2
1671466467433782895,791642,1671466467434214651,gps,2,1,42.3009679561,-83.6977007929,272.76171875,0.0001,0.0,0.0,0.0,0.000121,0.0,0.0,0.0,0.000841,2
1671466467443744594,791643,1671466467444273354,gps,2,1,42.3009679556,-83.6977009345,272.761505127,0.0001,0.0,0.0,0.0,0.000121,0.0,0.0,0.0,0.000841,2
1671466467454059245,791644,1671466467454190879,gps,2,1,42.3009679556,-83.6977010848,272.761230469,0.0001,0.0,0.0,0.0,0.000121,0.0,0.0,0.0,0.000841,2
1671466467463661980,791645,1671466467464187058,gps,2,1,42.3009679553,-83.6977012393,272.760986328,0.0001,0.0,0.0,0.0,0.000121,0.0,0.0,0.0,0.000841,2
1671466467473643570,791646,1671466467474291315,gps,2,1,42.3009679548,-83.6977013879,272.76071167,0.0001,0.0,0.0,0.0,0.000121,0.0,0.0,0.0,0.000841,2
1671466467483699192,791647,1671466467484212839,gps,2,1,42.300967955,-83.6977015452,272.760406494,0.0001,0.0,0.0,0.0,0.000121,0.0,0.0,0.0,0.000841,2
1671466467493518290,791648,1671466467494209584,gps,2,1,42.3009679549,-83.6977017069,272.760131836,0.0001,0.0,0.0,0.0,0.000121,0.0,0.0,0.0,0.000841,2
1671466467504253660,791649,1671466467504412353,gps,2,1,42.3009679546,-83.6977018625,272.759887695,0.0001,0.0,0.0,0.0,0.000121,0.0,0.0,0.0,0.000841,2
1671466467514004423,791650,1671466467514323610,gps,2,1,42.3009679551,-83.6977020269,272.759552002,0.0001,0.0,0.0,0.0,0.000121,0.0,0.0,0.0,0.000841,2
1671466467523945518,791651,1671466467524209312,gps,2,1,42.3009679554,-83.6977021956,272.759246826,0.0001,0.0,0.0,0.0,0.000121,0.0,0.0,0.0,0.000841,2
1671466467534013850,791652,1671466467534321431,gps,2,1,42.3009679554,-83.6977023584,272.758972168,0.0001,0.0,0.0,0.0,0.000121,0.0,0.0,0.0,0.000841,2
1671466467543780960,791653,1671466467544262801,gps,2,1,42.300967958,-83.6977025308,272.758453369,0.0001,0.0,0.0,0.0,0.000121,0.0,0.0,0.0,0.000841,2
1671466467553851149,791654,1671466467554285478,gps,2,1,42.3009679588,-83.6977027068,272.758117676,0.0001,0.0,0.0,0.0,0.000121,0.0,0.0,0.0,0.000841,2
1671466467563911148,791655,1671466467564339037,gps,2,1,42.3009679591,-83.6977028766,272.7578125,0.0001,0.0,0.0,0.0,0.000121,0.0,0.0,0.0,0.000841,2
1671466467573765854,791656,1671466467574366214,gps,2,1,42.3009679621,-83.6977030562,272.757263184,0.0001,0.0,0.0,0.0,0.000121,0.0,0.0,0.0,0.000841,2
1671466467583796111,791657,1671466467584226879,gps,2,1,42.3009679632,-83.6977032395,272.756896973,0.0001,0.0,0.0,0.0,0.000121,0.0,0.0,0.0,0.000841,2
1671466467593765218,791658,1671466467594260197,gps,2,1,42.3009679639,-83.6977034164,272.756530762,0.0001,0.0,0.0,0.0,0.000121,0.0,0.0,0.0,0.000841,2
1671466467603797020,791659,1671466467604202875,gps,2,1,42.3009679671,-83.6977036033,272.755981445,0.0001,0.0,0.0,0.0,0.000121,0.0,0.0,0.0,0.000841,2
1671466467614123240,791660,1671466467614202869,gps,2,1,42.3009679684,-83.6977037937,272.755584717,0.0001,0.0,0.0,0.0,0.000121,0.0,0.0,0.0,0.000841,2
1671466467623584466,791661,1671466467624285940,gps,2,1,42.3009679695,-83.6977039779,272.755187988,0.0001,0.0,0.0,0.0,0.000121,0.0,0.0,0.0,0.000841,2
1671466467633560745,791662,1671466467634221732,gps,2,1,42.300967973,-83.6977041719,272.754608154,0.0001,0.0,0.0,0.0,0.000121,0.0,0.0,0.0,0.000841,2
1671466467644027221,791663,1671466467644229557,gps,2,1,42.3009679744,-83.6977043693,272.754180908,0.0001,0.0,0.0,0.0,0.000121,0.0,0.0,0.0,0.000841,2
1671466467654349577,791664,1671466467654261280,gps,2,1,42.3009679759,-83.6977045612,272.75378418,0.0001,0.0,0.0,0.0,0.000121,0.0,0.0,0.0,0.000841,2
1671466467663842177,791665,1671466467664202954,gps,2,1,42.3009679793,-83.6977047625,272.753173828,0.0001,0.0,0.0,0.0,0.000121,0.0,0.0,0.0,0.000841,2
1671466467673956675,791666,1671466467674224250,gps,2,1,42.3009679808,-83.6977049676,272.752716064,0.0001,0.0,0.0,0.0,0.000121,0.0,0.0,0.0,0.000841,2
1671466467684097523,791667,1671466467684267334,gps,2,1,42.3009679825,-83.6977051664,272.752288818,0.0001,0.0,0.0,0.0,0.000121,0.0,0.0,0.0,0.000841,2
1671466467693988760,791668,1671466467694208450,gps,2,1,42.3009679858,-83.6977053751,272.751678467,0.0001,0.0,0.0,0.0,0.000121,0.0,0.0,0.0,0.000841,2
1671466467703814095,791669,1671466467704214911,gps,2,1,42.3009679873,-83.6977055875,272.751190186,0.0001,0.0,0.0,0.0,0.000121,0.0,0.0,0.0,0.000841,2
1671466467713808810,791670,1671466467714247329,gps,2,1,42.3009679886,-83.6977057937,272.750732422,0.0001,0.0,0.0,0.0,0.000121,0.0,0.0,0.0,0.000841,2
1671466467723943941,791671,1671466467724220170,gps,2,1,42.3009679918,-83.6977060096,272.750091553,0.0001,0.0,0.0,0.0,0.000121,0.0,0.0,0.0,0.000841,2
1671466467733770415,791672,1671466467734254587,gps,2,1,42.300967993,-83.6977062293,272.749572754,0.0001,0.0,0.0,0.0,0.000121,0.0,0.0,0.0,0.000841,2
1671466467743728361,791673,1671466467744201839,gps,2,1,42.3009679944,-83.697706443,272.749084473,0.0001,0.0,0.0,0.0,0.000121,0.0,0.0,0.0,0.000841,2
1671466467753658584,791674,1671466467754216542,gps,2,1,42.3009679974,-83.6977066662,272.748413086,0.0001,0.0,0.0,0.0,0.000121,0.0,0.0,0.0,0.000841,2
1671466467763596724,791675,1671466467764244943,gps,2,1,42.3009679985,-83.6977068929,272.74786377,0.0001,0.0,0.0,0.0,0.000121,0.0,0.0,0.0,0.000841,2
1671466467773942128,791676,1671466467774266292,gps,2,1,42.3009679998,-83.6977071137,272.747375488,0.0001,0.0,0.0,0.0,0.000121,0.0,0.0,0.0,0.000841,2
1671466467784037144,791677,1671466467784219360,gps,2,1,42.3009680026,-83.6977073438,272.746704102,0.0001,0.0,0.0,0.0,0.000121,0.0,0.0,0.0,0.000841,2
1671466467793911607,791678,1671466467794203244,gps,2,1,42.3009680038,-83.6977075774,272.746154785,0.0001,0.0,0.0,0.0,0.000121,0.0,0.0,0.0,0.000841,2
1671466467803963014,791679,1671466467804277380,gps,2,1,42.3009680051,-83.6977078055,272.745605469,0.0001,0.0,0.0,0.0,0.000121,0.0,0.0,0.0,0.000841,2
1671466467813839512,791680,1671466467814201510,gps,2,1,42.300968008,-83.6977080424,272.744934082,0.0001,0.0,0.0,0.0,0.000121,0.0,0.0,0.0,0.000841,2
