%time,field.header.seq,field.header.stamp,field.header.frame_id,field.status.status,field.status.service,field.latitude,field.longitude,field.altitude,field.position_covariance0,field.position_covariance1,field.position_covariance2,field.position_covariance3,field.position_covariance4,field.position_covariance5,field.position_covariance6,field.position_covariance7,field.position_covariance8,field.position_covariance_type
1671464581553516179,603054,1671464581582843298,gps,2,1,42.3009905514,-83.6977241089,272.725860596,0.000121,0.0,0.0,0.0,0.000144,0.0,0.0,0.0,0.001156,2
1671464581563359836,603055,1671464581592755873,gps,2,1,42.3009905512,-83.6977241093,272.725830078,0.000121,0.0,0.0,0.0,0.000144,0.0,0.0,0.0,0.001156,2
1671464581573676387,603056,1671464581602719080,gps,2,1,42.300990551,-83.6977241089,272.725830078,0.000121,0.0,0.0,0.0,0.000144,0.0,0.0,0.0,0.001156,2
1671464581583409043,603057,1671464581612787888,gps,2,1,42.3009905509,-83.6977241085,272.725830078,0.000121,0.0,0.0,0.0,0.000144,0.0,0.0,0.0,0.001156,2
1671464581593631828,603058,1671464581622711450,gps,2,1,42.3009905506,-83.6977241089,272.725799561,0.000121,0.0,0.0,0.0,0.000144,0.0,0.0,0.0,0.001156,2
1671464581603490784,603059,1671464581632710495,gps,2,1,42.3009905504,-83.6977241085,272.725799561,0.000121,0.0,0.0,0.0,0.000144,0.0,0.0,0.0,0.001156,2
1671464581613569318,603060,1671464581642805658,gps,2,1,42.3009905503,-83.6977241081,272.725830078,0.000121,0.0,0.0,0.0,0.000144,0.0,0.0,0.0,0.001156,2
1671464581623513450,603061,1671464581652711460,gps,2,1,42.30099055,-83.6977241085,272.725799561,0.000121,0.0,0.0,0.0,0.000144,0.0,0.0,0.0,0.001156,2
1671464581633460497,603062,1671464581662702396,gps,2,1,42.3009905499,-83.6977241082,272.725799561,0.000121,0.0,0.0,0.0,0.000144,0.0,0.0,0.0,0.001156,2
1671464581643809051,603063,1671464581672792774,gps,2,1,42.3009905497,-83.6977241078,272.725799561,0.000121,0.0,0.0,0.0,0.000144,0.0,0.0,0.0,0.001156,2
1671464581653168639,603064,1671464581682728772,gps,2,1,42.3009905494,-83.6977241081,272.725769043,0.000121,0.0,0.0,0.0,0.000144,0.0,0.0,0.0,0.001156,2
1671464581663329877,603065,1671464581692717064,gps,2,1,42.3009905493,-83.6977241077,272.725769043,0.000121,0.0,0.0,0.0,0.000144,0.0,0.0,0.0,0.001156,2
1671464581673288363,603066,1671464581702776168,gps,2,1,42.3009905491,-83.6977241074,272.725769043,0.000121,0.0,0.0,0.0,0.000144,0.0,0.0,0.0,0.001156,2
1671464581683104891,603067,1671464581712705904,gps,2,1,42.3009905488,-83.6977241077,272.725769043,0.000121,0.0,0.0,0.0,0.000144,0.0,0.0,0.0,0.001156,2
1671464581693638621,603068,1671464581722710006,gps,2,1,42.3009905487,-83.6977241072,272.725769043,0.000121,0.0,0.0,0.0,0.000144,0.0,0.0,0.0,0.001156,2
1671464581703445933,603069,1671464581732779837,gps,2,1,42.3009905486,-83.6977241068,272.725769043,0.000121,0.0,0.0,0.0,0.000144,0.0,0.0,0.0,0.001156,2
1671464581713390382,603070,1671464581742709450,gps,2,1,42.3009905483,-83.6977241071,272.725738525,0.000121,0.0,0.0,0.0,0.000144,0.0,0.0,0.0,0.001156,2
1671464581723575146,603071,1671464581752721721,gps,2,1,42.3009905483,-83.6977241066,272.725738525,0.000121,0.0,0.0,0.0,0.000144,0.0,0.0,0.0,0.001156,2
1671464581733499235,603072,1671464581762779243,gps,2,1,42.3009905482,-83.6977241062,272.725738525,0.000121,0.0,0.0,0.0,0.000144,0.0,0.0,0.0,0.001156,2
1671464581743517234,603073,1671464581772727103,gps,2,1,42.3009905479,-83.6977241065,272.725738525,0.000121,0.0,0.0,0.0,0.000144,0.0,0.0,0.0,0.001156,2
1671464581753563132,603074,1671464581782816535,gps,2,1,42.3009905478,-83.697724106,272.725738525,0.000121,0.0,0.0,0.0,0.000144,0.0,0.0,0.0,0.001156,2
1671464581763236085,603075,1671464581792775935,gps,2,1,42.3009905477,-83.6977241056,272.725738525,0.000121,0.0,0.0,0.0,0.000144,0.0,0.0,0.0,0.001156,2
1671464581773391606,603076,1671464581802702106,gps,2,1,42.3009905474,-83.6977241058,272.725708008,0.000121,0.0,0.0,0.0,0.000144,0.0,0.0,0.0,0.001156,2
1671464581783175543,603077,1671464581812692260,gps,2,1,42.3009905473,-83.6977241053,272.725708008,0.000121,0.0,0.0,0.0,0.000144,0.0,0.0,0.0,0.001156,2
1671464581793287158,603078,1671464581822775391,gps,2,1,42.3009905472,-83.6977241049,272.725708008,0.000121,0.0,0.0,0.0,0.000144,0.0,0.0,0.0,0.001156,2
1671464581803593807,603079,1671464581832699901,gps,2,1,42.3009905469,-83.6977241051,272.725708008,0.000121,0.0,0.0,0.0,0.000144,0.0,0.0,0.0,0.001156,2
1671464581813210557,603080,1671464581842704743,gps,2,1,42.3009905467,-83.6977241046,272.725708008,0.000121,0.0,0.0,0.0,0.000144,0.0,0.0,0.0,0.001156,2
1671464581823886830,603081,1671464581852855687,gps,2,1,42.3009905466,-83.6977241042,272.725708008,0.000121,0.0,0.0,0.0,0.000144,0.0,0.0,0.0,0.001156,2
1671464581833773536,603082,1671464581862713360,gps,2,1,42.3009905463,-83.6977241043,272.72567749,0.000121,0.0,0.0,0.0,0.000144,0.0,0.0,0.0,0.001156,2
1671464581843496081,603083,1671464581872724393,gps,2,1,42.3009905461,-83.6977241039,272.72567749,0.000121,0.0,0.0,0.0,0.000144,0.0,0.0,0.0,0.001156,2
1671464581853743109,603084,1671464581882769814,gps,2,1,42.300990546,-83.6977241034,272.72567749,0.000121,0.0,0.0,0.0,0.000144,0.0,0.0,0.0,0.001156,2
1671464581863626296,603085,1671464581892719724,gps,2,1,42.3009905457,-83.6977241036,272.72567749,0.000121,0.0,0.0,0.0,0.000144,0.0,0.0,0.0,0.001156,2
1671464581873275492,603086,1671464581902712199,gps,2,1,42.3009905456,-83.6977241031,272.72567749,0.000121,0.0,0.0,0.0,0.000144,0.0,0.0,0.0,0.001156,2
1671464581883527753,603087,1671464581912797698,gps,2,1,42.3009905455,-83.6977241027,272.72567749,0.000121,0.0,0.0,0.0,0.000144,0.0,0.0,0.0,0.001156,2
1671464581893466742,603088,1671464581922694909,gps,2,1,42.3009905455,-83.697724103,272.725646973,0.000121,0.0,0.0,0.0,0.000144,0.0,0.0,0.0,0.001156,2
1671464581903541046,603089,1671464581932719535,gps,2,1,42.3009905453,-83.6977241026,272.725646973,0.000121,0.0,0.0,0.0,0.000144,0.0,0.0,0.0,0.001156,2
1671464581913235595,603090,1671464581942761970,gps,2,1,42.3009905452,-83.6977241022,272.725616455,0.000121,0.0,0.0,0.0,0.000144,0.0,0.0,0.0,0.001156,2
1671464581923242806,603091,1671464581952693282,gps,2,1,42.3009905452,-83.6977241025,272.725585938,0.000121,0.0,0.0,0.0,0.000144,0.0,0.0,0.0,0.001156,2
1671464581933260269,603092,1671464581962685994,gps,2,1,42.300990545,-83.6977241021,272.725585938,0.000121,0.0,0.0,0.0,0.000144,0.0,0.0,0.0,0.001156,2
1671464581943355004,603093,1671464581972769452,gps,2,1,42.3009905449,-83.6977241017,272.725585938,0.000121,0.0,0.0,0.0,0.000144,0.0,0.0,0.0,0.001156,2
1671464581953159722,603094,1671464581982702238,gps,2,1,42.3009905448,-83.697724102,272.72555542,0.000121,0.0,0.0,0.0,0.000144,0.0,0.0,0.0,0.001156,2
1671464581963472548,603095,1671464581992714956,gps,2,1,42.3009905447,-83.6977241016,272.72555542,0.000121,0.0,0.0,0.0,0.000144,0.0,0.0,0.0,0.001156,2
1671464581973585109,603096,1671464582002766949,gps,2,1,42.3009905445,-83.6977241012,272.72555542,0.000121,0.0,0.0,0.0,0.000144,0.0,0.0,0.0,0.001156,2
1671464581983367250,603097,1671464582012722394,gps,2,1,42.3009905444,-83.6977241015,272.725524902,0.000121,0.0,0.0,0.0,0.000144,0.0,0.0,0.0,0.001156,2
1671464581993587429,603098,1671464582022702029,gps,2,1,42.3009905443,-83.6977241011,272.725524902,0.000121,0.0,0.0,0.0,0.000144,0.0,0.0,0.0,0.001156,2
1671464582003497049,603099,1671464582032991378,gps,2,1,42.3009905442,-83.6977241007,272.725524902,0.000121,0.0,0.0,0.0,0.000144,0.0,0.0,0.0,0.001156,2
1671464582013333022,603100,1671464582042803092,gps,2,1,42.3009905454,-83.6977241022,272.725494385,0.000121,0.0,0.0,0.0,0.000144,0.0,0.0,0.0,0.001156,2
1671464582023361774,603101,1671464582052800969,gps,2,1,42.3009905453,-83.6977241018,272.725494385,0.000121,0.0,0.0,0.0,0.000144,0.0,0.0,0.0,0.001156,2
1671464582033229337,603102,1671464582062805941,gps,2,1,42.3009905451,-83.6977241014,272.725494385,0.000121,0.0,0.0,0.0,0.000144,0.0,0.0,0.0,0.001156,2
1671464582043262630,603103,1671464582072759415,gps,2,1,42.3009905463,-83.6977241028,272.725463867,0.000121,0.0,0.0,0.0,0.000144,0.0,0.0,0.0,0.001156,2
1671464582053346360,603104,1671464582082758795,gps,2,1,42.3009905463,-83.6977241024,272.725463867,0.000121,0.0,0.0,0.0,0.000144,0.0,0.0,0.0,0.001156,2
1671464582063344499,603105,1671464582092756333,gps,2,1,42.3009905462,-83.697724102,272.725463867,0.000121,0.0,0.0,0.0,0.000144,0.0,0.0,0.0,0.001156,2
1671464582073152377,603106,1671464582102752120,gps,2,1,42.3009905473,-83.6977241034,272.72543335,0.000121,0.0,0.0,0.0,0.000144,0.0,0.0,0.0,0.001156,2
1671464582083517683,603107,1671464582112784483,gps,2,1,42.3009905473,-83.697724103,272.72543335,0.000121,0.0,0.0,0.0,0.000144,0.0,0.0,0.0,0.001156,2
1671464582093515576,603108,1671464582122768529,gps,2,1,42.3009905472,-83.6977241026,272.72543335,0.000121,0.0,0.0,0.0,0.000144,0.0,0.0,0.0,0.001156,2
1671464582103590284,603109,1671464582132758067,gps,2,1,42.3009905483,-83.6977241038,272.725402832,0.000121,0.0,0.0,0.0,0.000144,0.0,0.0,0.0,0.001156,2
1671464582113457457,603110,1671464582142783783,gps,2,1,42.3009905483,-83.6977241034,272.725402832,0.000121,0.0,0.0,0.0,0.000144,0.0,0.0,0.0,0.001156,2
1671464582123607751,603111,1671464582152752175,gps,2,1,42.3009905482,-83.697724103,272.725402832,0.000121,0.0,0.0,0.0,0.000144,0.0,0.0,0.0,0.001156,2
1671464582133349812,603112,1671464582162833282,gps,2,1,42.3009905493,-83.6977241042,272.725372314,0.000121,0.0,0.0,0.0,0.000144,0.0,0.0,0.0,0.001156,2
1671464582143461949,603113,1671464582172793533,gps,2,1,42.3009905492,-83.6977241038,272.725341797,0.000121,0.0,0.0,0.0,0.000144,0.0,0.0,0.0,0.001156,2
1671464582153395264,603114,1671464582182777343,gps,2,1,42.3009905491,-83.6977241033,272.725341797,0.000121,0.0,0.0,0.0,0.000144,0.0,0.0,0.0,0.001156,2
1671464582163264709,603115,1671464582192742281,gps,2,1,42.3009905501,-83.6977241045,272.725341797,0.000121,0.0,0.0,0.0,0.000144,0.0,0.0,0.0,0.001156,2
1671464582173299837,603116,1671464582202771026,gps,2,1,42.30099055,-83.697724104,272.725341797,0.000121,0.0,0.0,0.0,0.000144,0.0,0.0,0.0,0.001156,2
1671464582183304957,603117,1671464582212786133,gps,2,1,42.3009905498,-83.6977241036,272.725341797,0.000121,0.0,0.0,0.0,0.000144,0.0,0.0,0.0,0.001156,2
1671464582193209539,603118,1671464582222759202,gps,2,1,42.3009905508,-83.6977241048,272.725311279,0.000121,0.0,0.0,0.0,0.000144,0.0,0.0,0.0,0.001156,2
1671464582203315728,603119,1671464582232799786,gps,2,1,42.3009905507,-83.6977241044,272.725311279,0.000121,0.0,0.0,0.0,0.000144,0.0,0.0,0.0,0.001156,2
1671464582213121264,603120,1671464582242780814,gps,2,1,42.3009905505,-83.6977241039,272.725311279,0.000121,0.0,0.0,0.0,0.000144,0.0,0.0,0.0,0.001156,2
1671464582223175354,603121,1671464582252710733,gps,2,1,42.3009905514,-83.6977241051,272.725311279,0.000121,0.0,0.0,0.0,0.000144,0.0,0.0,0.0,0.001156,2
1671464582233034109,603122,1671464582262708905,gps,2,1,42.3009905513,-83.6977241047,272.725311279,0.000121,0.0,0.0,0.0,0.000144,0.0,0.0,0.0,0.001156,2
1671464582243607218,603123,1671464582272779055,gps,2,1,42.3009905511,-83.6977241043,272.725311279,0.000121,0.0,0.0,0.0,0.000144,0.0,0.0,0.0,0.001156,2
1671464582253468811,603124,1671464582282844325,gps,2,1,42.300990552,-83.6977241054,272.725280762,6.4e-05,0.0,0.0,0.0,8.1e-05,0.0,0.0,0.0,0.001089,2
1671464582263418929,603125,1671464582292747654,gps,2,1,42.3009905519,-83.6977241051,272.725280762,6.4e-05,0.0,0.0,0.0,8.1e-05,0.0,0.0,0.0,0.001089,2
1671464582273415998,603126,1671464582302774499,gps,2,1,42.3009905517,-83.6977241047,272.725280762,6.4e-05,0.0,0.0,0.0,8.1e-05,0.0,0.0,0.0,0.001089,2
1671464582283219419,603127,1671464582312713035,gps,2,1,42.3009905526,-83.6977241058,272.725280762,6.4e-05,0.0,0.0,0.0,8.1e-05,0.0,0.0,0.0,0.001089,2
1671464582293336471,603128,1671464582322718361,gps,2,1,42.3009905525,-83.6977241055,272.725280762,6.4e-05,0.0,0.0,0.0,8.1e-05,0.0,0.0,0.0,0.001089,2
1671464582303443583,603129,1671464582332794531,gps,2,1,42.3009905523,-83.6977241051,272.725280762,6.4e-05,0.0,0.0,0.0,8.1e-05,0.0,0.0,0.0,0.001089,2
1671464582313255072,603130,1671464582342714253,gps,2,1,42.3009905531,-83.6977241061,272.725280762,6.4e-05,0.0,0.0,0.0,8.1e-05,0.0,0.0,0.0,0.001089,2
1671464582323250189,603131,1671464582352705797,gps,2,1,42.300990553,-83.6977241058,272.725280762,6.4e-05,0.0,0.0,0.0,8.1e-05,0.0,0.0,0.0,0.001089,2
1671464582333230671,603132,1671464582362760581,gps,2,1,42.3009905529,-83.6977241054,272.725280762,6.4e-05,0.0,0.0,0.0,8.1e-05,0.0,0.0,0.0,0.001089,2
1671464582343242091,603133,1671464582372697918,gps,2,1,42.3009905537,-83.6977241063,272.725250244,6.4e-05,0.0,0.0,0.0,8.1e-05,0.0,0.0,0.0,0.001089,2
1671464582353126332,603134,1671464582382716830,gps,2,1,42.3009905536,-83.6977241059,272.725250244,6.4e-05,0.0,0.0,0.0,8.1e-05,0.0,0.0,0.0,0.001089,2
1671464582363378759,603135,1671464582392763044,gps,2,1,42.3009905535,-83.6977241055,272.725250244,6.4e-05,0.0,0.0,0.0,8.1e-05,0.0,0.0,0.0,0.001089,2
1671464582373443407,603136,1671464582402703824,gps,2,1,42.3009905543,-83.6977241064,272.725219727,6.4e-05,0.0,0.0,0.0,8.1e-05,0.0,0.0,0.0,0.001089,2
1671464582383461856,603137,1671464582412795330,gps,2,1,42.3009905543,-83.697724106,272.725219727,6.4e-05,0.0,0.0,0.0,8.1e-05,0.0,0.0,0.0,0.001089,2
1671464582393499819,603138,1671464582422774055,gps,2,1,42.3009905542,-83.6977241056,272.725219727,6.4e-05,0.0,0.0,0.0,8.1e-05,0.0,0.0,0.0,0.001089,2
1671464582403362054,603139,1671464582432733108,gps,2,1,42.3009905551,-83.6977241066,272.725189209,6.4e-05,0.0,0.0,0.0,8.1e-05,0.0,0.0,0.0,0.001089,2
1671464582413553172,603140,1671464582442715179,gps,2,1,42.300990555,-83.6977241061,272.725189209,6.4e-05,0.0,0.0,0.0,8.1e-05,0.0,0.0,0.0,0.001089,2
1671464582423289830,603141,1671464582452770135,gps,2,1,42.3009905549,-83.6977241057,272.725158691,6.4e-05,0.0,0.0,0.0,8.1e-05,0.0,0.0,0.0,0.001089,2
1671464582433198366,603142,1671464582462707534,gps,2,1,42.3009905558,-83.6977241067,272.725158691,6.4e-05,0.0,0.0,0.0,8.1e-05,0.0,0.0,0.0,0.001089,2
1671464582443265477,603143,1671464582472702001,gps,2,1,42.3009905557,-83.6977241063,272.725158691,6.4e-05,0.0,0.0,0.0,8.1e-05,0.0,0.0,0.0,0.001089,2
1671464582453377377,603144,1671464582482747234,gps,2,1,42.3009905557,-83.6977241059,272.725128174,6.4e-05,0.0,0.0,0.0,8.1e-05,0.0,0.0,0.0,0.001089,2
1671464582463219475,603145,1671464582492711703,gps,2,1,42.3009905566,-83.6977241069,272.725128174,6.4e-05,0.0,0.0,0.0,8.1e-05,0.0,0.0,0.0,0.001089,2
1671464582473239420,603146,1671464582502705407,gps,2,1,42.3009905565,-83.6977241066,272.725128174,6.4e-05,0.0,0.0,0.0,8.1e-05,0.0,0.0,0.0,0.001089,2
1671464582483138332,603147,1671464582512774622,gps,2,1,42.3009905564,-83.6977241062,272.725128174,6.4e-05,0.0,0.0,0.0,8.1e-05,0.0,0.0,0.0,0.001089,2
1671464582493120662,603148,1671464582522708004,gps,2,1,42.3009905573,-83.6977241072,272.725128174,6.4e-05,0.0,0.0,0.0,8.1e-05,0.0,0.0,0.0,0.001089,2
1671464582503499604,603149,1671464582533000887,gps,2,1,42.3009905573,-83.6977241069,272.725128174,6.4e-05,0.0,0.0,0.0,8.1e-05,0.0,0.0,0.0,0.001089,2
1671464582513625691,603150,1671464582542776715,gps,2,1,42.3009905573,-83.6977241065,272.725158691,6.4e-05,0.0,0.0,0.0,8.1e-05,0.0,0.0,0.0,0.001089,2
1671464582523586883,603151,1671464582552705641,gps,2,1,42.3009905597,-83.6977241075,272.725341797,6.4e-05,0.0,0.0,0.0,8.1e-05,0.0,0.0,0.0,0.001089,2
1671464582533153659,603152,1671464582562806489,gps,2,1,42.3009905597,-83.6977241072,272.725341797,6.4e-05,0.0,0.0,0.0,8.1e-05,0.0,0.0,0.0,0.001089,2
1671464582543300095,603153,1671464582572840841,gps,2,1,42.3009905597,-83.6977241069,272.725341797,6.4e-05,0.0,0.0,0.0,8.1e-05,0.0,0.0,0.0,0.001089,2
1671464582553569276,603154,1671464582582725037,gps,2,1,42.3009905621,-83.6977241078,272.725524902,6.4e-05,0.0,0.0,0.0,8.1e-05,0.0,0.0,0.0,0.001089,2
1671464582563384746,603155,1671464582592781449,gps,2,1,42.3009905621,-83.6977241075,272.725524902,6.4e-05,0.0,0.0,0.0,8.1e-05,0.0,0.0,0.0,0.001089,2
1671464582573184054,603156,1671464582602703325,gps,2,1,42.3009905621,-83.6977241071,272.725524902,6.4e-05,0.0,0.0,0.0,8.1e-05,0.0,0.0,0.0,0.001089,2
1671464582583183871,603157,1671464582612711864,gps,2,1,42.3009905644,-83.697724108,272.72567749,6.4e-05,0.0,0.0,0.0,8.1e-05,0.0,0.0,0.0,0.001089,2
1671464582593287939,603158,1671464582622768673,gps,2,1,42.3009905644,-83.6977241076,272.725646973,6.4e-05,0.0,0.0,0.0,8.1e-05,0.0,0.0,0.0,0.001089,2
1671464582603362640,603159,1671464582632718334,gps,2,1,42.3009905644,-83.6977241072,272.725646973,6.4e-05,0.0,0.0,0.0,8.1e-05,0.0,0.0,0.0,0.001089,2
1671464582613322565,603160,1671464582642695660,gps,2,1,42.3009905666,-83.697724108,272.725799561,6.4e-05,0.0,0.0,0.0,8.1e-05,0.0,0.0,0.0,0.001089,2
1671464582623227882,603161,1671464582652807376,gps,2,1,42.3009905666,-83.6977241076,272.725799561,6.4e-05,0.0,0.0,0.0,8.1e-05,0.0,0.0,0.0,0.001089,2
1671464582633219825,603162,1671464582662735002,gps,2,1,42.3009905665,-83.6977241072,272.725799561,6.4e-05,0.0,0.0,0.0,8.1e-05,0.0,0.0,0.0,0.001089,2
1671464582643108526,603163,1671464582672690464,gps,2,1,42.3009905686,-83.697724108,272.725921631,6.4e-05,0.0,0.0,0.0,8.1e-05,0.0,0.0,0.0,0.001089,2
1671464582653462304,603164,1671464582682762667,gps,2,1,42.3009905685,-83.6977241076,272.725921631,6.4e-05,0.0,0.0,0.0,8.1e-05,0.0,0.0,0.0,0.001089,2
1671464582663070215,603165,1671464582692704183,gps,2,1,42.3009905684,-83.6977241072,272.725921631,6.4e-05,0.0,0.0,0.0,8.1e-05,0.0,0.0,0.0,0.001089,2
1671464582673516108,603166,1671464582702700953,gps,2,1,42.3009905704,-83.697724108,272.726043701,6.4e-05,0.0,0.0,0.0,8.1e-05,0.0,0.0,0.0,0.001089,2
1671464582683244399,603167,1671464582712765990,gps,2,1,42.3009905703,-83.6977241077,272.726043701,6.4e-05,0.0,0.0,0.0,8.1e-05,0.0,0.0,0.0,0.001089,2
1671464582693426375,603168,1671464582722713589,gps,2,1,42.3009905702,-83.6977241073,272.726043701,6.4e-05,0.0,0.0,0.0,8.1e-05,0.0,0.0,0.0,0.001089,2
1671464582703337058,603169,1671464582732700609,gps,2,1,42.3009905721,-83.6977241081,272.726165771,6.4e-05,0.0,0.0,0.0,8.1e-05,0.0,0.0,0.0,0.001089,2
1671464582713388656,603170,1671464582742748235,gps,2,1,42.300990572,-83.6977241078,272.726196289,6.4e-05,0.0,0.0,0.0,8.1e-05,0.0,0.0,0.0,0.001089,2
1671464582723181973,603171,1671464582752713166,gps,2,1,42.3009905719,-83.6977241074,272.726196289,6.4e-05,0.0,0.0,0.0,8.1e-05,0.0,0.0,0.0,0.001089,2
1671464582733208680,603172,1671464582762716918,gps,2,1,42.3009905738,-83.6977241082,272.726318359,6.4e-05,0.0,0.0,0.0,8.1e-05,0.0,0.0,0.0,0.001089,2
1671464582743246603,603173,1671464582772790161,gps,2,1,42.3009905737,-83.6977241079,272.726318359,6.4e-05,0.0,0.0,0.0,8.1e-05,0.0,0.0,0.0,0.001089,2
1671464582753187481,603174,1671464582782791282,gps,2,1,42.3009905736,-83.6977241076,272.726318359,6.4e-05,0.0,0.0,0.0,8.1e-05,0.0,0.0,0.0,0.001089,2
1671464582763212822,603175,1671464582792736648,gps,2,1,42.3009905755,-83.6977241084,272.726470947,6.4e-05,0.0,0.0,0.0,8.1e-05,0.0,0.0,0.0,0.001089,2
1671464582773173873,603176,1671464582802763334,gps,2,1,42.3009905755,-83.6977241081,272.726470947,6.4e-05,0.0,0.0,0.0,8.1e-05,0.0,0.0,0.0,0.001089,2
1671464582783096095,603177,1671464582812699414,gps,2,1,42.3009905754,-83.6977241078,272.726470947,6.4e-05,0.0,0.0,0.0,8.1e-05,0.0,0.0,0.0,0.001089,2
1671464582793066615,603178,1671464582822709415,gps,2,1,42.3009905773,-83.6977241086,272.726593018,6.4e-05,0.0,0.0,0.0,8.1e-05,0.0,0.0,0.0,0.001089,2
1671464582803447978,603179,1671464582832762956,gps,2,1,42.3009905774,-83.6977241082,272.726593018,6.4e-05,0.0,0.0,0.0,8.1e-05,0.0,0.0,0.0,0.001089,2
1671464582813340312,603180,1671464582842725745,gps,2,1,42.3009905774,-83.6977241079,272.726593018,6.4e-05,0.0,0.0,0.0,8.1e-05,0.0,0.0,0.0,0.001089,2
1671464582823369412,603181,1671464582852698261,gps,2,1,42.3009905793,-83.6977241086,272.726715088,6.4e-05,0.0,0.0,0.0,8.1e-05,0.0,0.0,0.0,0.001089,2
1671464582833241676,603182,1671464582862763493,gps,2,1,42.3009905794,-83.6977241083,272.726715088,6.4e-05,0.0,0.0,0.0,8.1e-05,0.0,0.0,0.0,0.001089,2
1671464582843379363,603183,1671464582872709022,gps,2,1,42.3009905794,-83.6977241079,272.726715088,6.4e-05,0.0,0.0,0.0,8.1e-05,0.0,0.0,0.0,0.001089,2
1671464582853348045,603184,1671464582882702586,gps,2,1,42.3009905813,-83.6977241086,272.726837158,6.4e-05,0.0,0.0,0.0,8.1e-05,0.0,0.0,0.0,0.001089,2
1671464582863331589,603185,1671464582892786190,gps,2,1,42.3009905814,-83.6977241082,272.726806641,6.4e-05,0.0,0.0,0.0,8.1e-05,0.0,0.0,0.0,0.001089,2
1671464582873237668,603186,1671464582902708124,gps,2,1,42.3009905814,-83.6977241078,272.726837158,6.4e-05,0.0,0.0,0.0,8.1e-05,0.0,0.0,0.0,0.001089,2
1671464582883195534,603187,1671464582912695872,gps,2,1,42.3009905833,-83.6977241084,272.726928711,6.4e-05,0.0,0.0,0.0,8.1e-05,0.0,0.0,0.0,0.001089,2
1671464582893295090,603188,1671464582922760740,gps,2,1,42.3009905833,-83.697724108,272.726928711,6.4e-05,0.0,0.0,0.0,8.1e-05,0.0,0.0,0.0,0.001089,2
1671464582903338129,603189,1671464582932696248,gps,2,1,42.3009905834,-83.6977241077,272.726928711,6.4e-05,0.0,0.0,0.0,8.1e-05,0.0,0.0,0.0,0.001089,2
1671464582913254352,603190,1671464582942683278,gps,2,1,42.3009905852,-83.6977241082,272.727020264,6.4e-05,0.0,0.0,0.0,8.1e-05,0.0,0.0,0.0,0.001089,2
1671464582923171857,603191,1671464582952778307,gps,2,1,42.3009905852,-83.6977241078,272.727020264,6.4e-05,0.0,0.0,0.0,8.1e-05,0.0,0.0,0.0,0.001089,2
1671464582933079082,603192,1671464582962728278,gps,2,1,42.3009905853,-83.6977241075,272.727020264,6.4e-05,0.0,0.0,0.0,8.1e-05,0.0,0.0,0.0,0.001089,2
1671464582943060371,603193,1671464582972703145,gps,2,1,42.300990587,-83.697724108,272.727111816,6.4e-05,0.0,0.0,0.0,8.1e-05,0.0,0.0,0.0,0.001089,2
1671464582953605407,603194,1671464582982764459,gps,2,1,42.300990587,-83.6977241077,272.727111816,6.4e-05,0.0,0.0,0.0,8.1e-05,0.0,0.0,0.0,0.001089,2
1671464582963086676,603195,1671464582992719970,gps,2,1,42.300990587,-83.6977241073,272.727111816,6.4e-05,0.0,0.0,0.0,8.1e-05,0.0,0.0,0.0,0.001089,2
1671464582973437324,603196,1671464583002705677,gps,2,1,42.3009905887,-83.6977241078,272.727203369,6.4e-05,0.0,0.0,0.0,8.1e-05,0.0,0.0,0.0,0.001089,2
1671464582983265786,603197,1671464583012772118,gps,2,1,42.3009905887,-83.6977241075,272.727203369,6.4e-05,0.0,0.0,0.0,8.1e-05,0.0,0.0,0.0,0.001089,2
1671464582993364425,603198,1671464583022705320,gps,2,1,42.3009905887,-83.6977241071,272.727233887,6.4e-05,0.0,0.0,0.0,8.1e-05,0.0,0.0,0.0,0.001089,2
1671464583003547702,603199,1671464583032937013,gps,2,1,42.3009905903,-83.6977241077,272.727325439,6.4e-05,0.0,0.0,0.0,8.1e-05,0.0,0.0,0.0,0.001089,2
1671464583013379674,603200,1671464583042851774,gps,2,1,42.3009905903,-83.6977241074,272.727325439,6.4e-05,0.0,0.0,0.0,8.1e-05,0.0,0.0,0.0,0.001089,2
1671464583023337639,603201,1671464583052845101,gps,2,1,42.3009905903,-83.697724107,272.727325439,6.4e-05,0.0,0.0,0.0,8.1e-05,0.0,0.0,0.0,0.001089,2
1671464583033258411,603202,1671464583062765595,gps,2,1,42.300990593,-83.697724108,272.727508545,6.4e-05,0.0,0.0,0.0,8.1e-05,0.0,0.0,0.0,0.001089,2
1671464583043242717,603203,1671464583072804241,gps,2,1,42.300990593,-83.6977241077,272.727508545,6.4e-05,0.0,0.0,0.0,8.1e-05,0.0,0.0,0.0,0.001089,2
1671464583053239483,603204,1671464583082738136,gps,2,1,42.300990593,-83.6977241074,272.727508545,6.4e-05,0.0,0.0,0.0,8.1e-05,0.0,0.0,0.0,0.001089,2
1671464583063147431,603205,1671464583092821000,gps,2,1,42.3009905957,-83.6977241084,272.727661133,6.4e-05,0.0,0.0,0.0,8.1e-05,0.0,0.0,0.0,0.001089,2
1671464583073488713,603206,1671464583102918203,gps,2,1,42.3009905957,-83.6977241082,272.727661133,6.4e-05,0.0,0.0,0.0,8.1e-05,0.0,0.0,0.0,0.001089,2
1671464583083416036,603207,1671464583112735957,gps,2,1,42.3009905957,-83.6977241079,272.727661133,6.4e-05,0.0,0.0,0.0,8.1e-05,0.0,0.0,0.0,0.001089,2
1671464583093398003,603208,1671464583122701381,gps,2,1,42.3009905984,-83.6977241089,272.727813721,6.4e-05,0.0,0.0,0.0,8.1e-05,0.0,0.0,0.0,0.001089,2
1671464583103578870,603209,1671464583132766542,gps,2,1,42.3009905984,-83.6977241086,272.727813721,6.4e-05,0.0,0.0,0.0,8.1e-05,0.0,0.0,0.0,0.001089,2
1671464583113052004,603210,1671464583142725003,gps,2,1,42.3009905985,-83.6977241085,272.727844238,6.4e-05,0.0,0.0,0.0,8.1e-05,0.0,0.0,0.0,0.001089,2
1671464583123609440,603211,1671464583152713828,gps,2,1,42.3009906011,-83.6977241096,272.727996826,6.4e-05,0.0,0.0,0.0,8.1e-05,0.0,0.0,0.0,0.001089,2
1671464583133217489,603212,1671464583162721041,gps,2,1,42.3009906012,-83.6977241098,272.727996826,6.4e-05,0.0,0.0,0.0,8.1e-05,0.0,0.0,0.0,0.001089,2
1671464583143262377,603213,1671464583172773461,gps,2,1,42.3009906012,-83.6977241095,272.727996826,6.4e-05,0.0,0.0,0.0,8.1e-05,0.0,0.0,0.0,0.001089,2
1671464583153340844,603214,1671464583182706614,gps,2,1,42.3009906038,-83.6977241108,272.728149414,6.4e-05,0.0,0.0,0.0,8.1e-05,0.0,0.0,0.0,0.001089,2
1671464583163373989,603215,1671464583192773520,gps,2,1,42.3009906039,-83.6977241109,272.728118896,6.4e-05,0.0,0.0,0.0,8.1e-05,0.0,0.0,0.0,0.001089,2
1671464583173174610,603216,1671464583202722816,gps,2,1,42.300990604,-83.6977241109,272.728149414,6.4e-05,0.0,0.0,0.0,8.1e-05,0.0,0.0,0.0,0.001089,2
1671464583183141910,603217,1671464583212718804,gps,2,1,42.3009906065,-83.6977241121,272.728271484,6.4e-05,0.0,0.0,0.0,8.1e-05,0.0,0.0,0.0,0.001089,2
1671464583193152352,603218,1671464583222756133,gps,2,1,42.3009906066,-83.6977241119,272.728302002,6.4e-05,0.0,0.0,0.0,8.1e-05,0.0,0.0,0.0,0.001089,2
1671464583203202011,603219,1671464583232696719,gps,2,1,42.3009906067,-83.697724112,272.728302002,6.4e-05,0.0,0.0,0.0,8.1e-05,0.0,0.0,0.0,0.001089,2
1671464583213275409,603220,1671464583242694919,gps,2,1,42.3009906091,-83.697724113,272.728424072,6.4e-05,0.0,0.0,0.0,8.1e-05,0.0,0.0,0.0,0.001089,2
1671464583223047681,603221,1671464583252767158,gps,2,1,42.3009906093,-83.6977241128,272.72845459,6.4e-05,0.0,0.0,0.0,8.1e-05,0.0,0.0,0.0,0.001089,2
1671464583233279111,603222,1671464583262714493,gps,2,1,42.3009906094,-83.6977241127,272.72845459,6.4e-05,0.0,0.0,0.0,8.1e-05,0.0,0.0,0.0,0.001089,2
1671464583243506166,603223,1671464583272700780,gps,2,1,42.3009906118,-83.6977241136,272.72857666,6.4e-05,0.0,0.0,0.0,8.1e-05,0.0,0.0,0.0,0.001089,2
1671464583253540522,603224,1671464583282807557,gps,2,1,42.3009906119,-83.6977241134,272.72857666,0.000121,0.0,0.0,0.0,0.000144,0.0,0.0,0.0,0.001156,2
1671464583263606133,603225,1671464583292774995,gps,2,1,42.3009906121,-83.6977241131,272.728607178,0.000121,0.0,0.0,0.0,0.000144,0.0,0.0,0.0,0.001156,2
1671464583273384446,603226,1671464583302695165,gps,2,1,42.3009906144,-83.6977241138,272.728729248,0.000121,0.0,0.0,0.0,0.000144,0.0,0.0,0.0,0.001156,2
1671464583283208253,603227,1671464583312724217,gps,2,1,42.3009906145,-83.6977241132,272.728759766,0.000121,0.0,0.0,0.0,0.000144,0.0,0.0,0.0,0.001156,2
1671464583293303831,603228,1671464583322765068,gps,2,1,42.3009906147,-83.6977241129,272.728729248,0.000121,0.0,0.0,0.0,0.000144,0.0,0.0,0.0,0.001156,2
1671464583303422163,603229,1671464583332737233,gps,2,1,42.3009906169,-83.6977241134,272.728851318,0.000121,0.0,0.0,0.0,0.000144,0.0,0.0,0.0,0.001156,2
1671464583313362126,603230,1671464583342765613,gps,2,1,42.300990617,-83.6977241129,272.728851318,0.000121,0.0,0.0,0.0,0.000144,0.0,0.0,0.0,0.001156,2
1671464583323266850,603231,1671464583352717668,gps,2,1,42.3009906172,-83.6977241123,272.728851318,0.000121,0.0,0.0,0.0,0.000144,0.0,0.0,0.0,0.001156,2
1671464583333264441,603232,1671464583362713974,gps,2,1,42.3009906194,-83.697724113,272.728942871,0.000121,0.0,0.0,0.0,0.000144,0.0,0.0,0.0,0.001156,2
1671464583343205106,603233,1671464583372753555,gps,2,1,42.3009906196,-83.6977241127,272.728942871,0.000121,0.0,0.0,0.0,0.000144,0.0,0.0,0.0,0.001156,2
1671464583353256236,603234,1671464583382713226,gps,2,1,42.3009906197,-83.6977241123,272.728942871,0.000121,0.0,0.0,0.0,0.000144,0.0,0.0,0.0,0.001156,2
1671464583363184298,603235,1671464583392702448,gps,2,1,42.3009906219,-83.697724113,272.729034424,0.000121,0.0,0.0,0.0,0.000144,0.0,0.0,0.0,0.001156,2
1671464583373026039,603236,1671464583402693823,gps,2,1,42.300990622,-83.6977241126,272.729064941,0.000121,0.0,0.0,0.0,0.000144,0.0,0.0,0.0,0.001156,2
1671464583383534324,603237,1671464583412778621,gps,2,1,42.3009906222,-83.6977241124,272.729034424,0.000121,0.0,0.0,0.0,0.000144,0.0,0.0,0.0,0.001156,2
1671464583393426898,603238,1671464583422705080,gps,2,1,42.3009906242,-83.6977241131,272.729156494,0.000121,0.0,0.0,0.0,0.000144,0.0,0.0,0.0,0.001156,2
1671464583403422978,603239,1671464583432791737,gps,2,1,42.3009906244,-83.6977241128,272.729156494,0.000121,0.0,0.0,0.0,0.000144,0.0,0.0,0.0,0.001156,2
1671464583413350744,603240,1671464583442766747,gps,2,1,42.3009906245,-83.6977241124,272.729156494,0.000121,0.0,0.0,0.0,0.000144,0.0,0.0,0.0,0.001156,2
1671464583423224475,603241,1671464583452690300,gps,2,1,42.3009906266,-83.6977241132,272.729248047,0.000121,0.0,0.0,0.0,0.000144,0.0,0.0,0.0,0.001156,2
1671464583433225910,603242,1671464583462731013,gps,2,1,42.3009906267,-83.6977241131,272.729278564,0.000121,0.0,0.0,0.0,0.000144,0.0,0.0,0.0,0.001156,2
1671464583443110956,603243,1671464583472748957,gps,2,1,42.3009906269,-83.6977241128,272.729278564,0.000121,0.0,0.0,0.0,0.000144,0.0,0.0,0.0,0.001156,2
1671464583453496169,603244,1671464583482711786,gps,2,1,42.3009906288,-83.6977241136,272.729400635,0.000121,0.0,0.0,0.0,0.000144,0.0,0.0,0.0,0.001156,2
1671464583463274258,603245,1671464583492749755,gps,2,1,42.3009906289,-83.6977241136,272.729400635,0.000121,0.0,0.0,0.0,0.000144,0.0,0.0,0.0,0.001156,2
1671464583473220372,603246,1671464583502721257,gps,2,1,42.3009906291,-83.6977241135,272.729400635,0.000121,0.0,0.0,0.0,0.000144,0.0,0.0,0.0,0.001156,2
1671464583483326749,603247,1671464583512694046,gps,2,1,42.300990631,-83.6977241145,272.729492188,0.000121,0.0,0.0,0.0,0.000144,0.0,0.0,0.0,0.001156,2
1671464583493118895,603248,1671464583522686304,gps,2,1,42.3009906312,-83.6977241147,272.729522705,0.000121,0.0,0.0,0.0,0.000144,0.0,0.0,0.0,0.001156,2
1671464583503618394,603249,1671464583532985363,gps,2,1,42.3009906312,-83.6977241147,272.729522705,0.000121,0.0,0.0,0.0,0.000144,0.0,0.0,0.0,0.001156,2
1671464583513573693,603250,1671464583542803971,gps,2,1,42.3009906331,-83.697724116,272.729614258,0.000121,0.0,0.0,0.0,0.000144,0.0,0.0,0.0,0.001156,2
1671464583523465288,603251,1671464583552714429,gps,2,1,42.3009906333,-83.6977241167,272.729614258,0.000121,0.0,0.0,0.0,0.000144,0.0,0.0,0.0,0.001156,2
1671464583533241274,603252,1671464583562811099,gps,2,1,42.3009906335,-83.6977241169,272.729614258,0.000121,0.0,0.0,0.0,0.000144,0.0,0.0,0.0,0.001156,2
1671464583543442621,603253,1671464583572776895,gps,2,1,42.3009906352,-83.6977241203,272.729736328,0.000121,0.0,0.0,0.0,0.000144,0.0,0.0,0.0,0.001156,2
1671464583553269143,603254,1671464583582760848,gps,2,1,42.3009906354,-83.6977241214,272.729736328,0.000121,0.0,0.0,0.0,0.000144,0.0,0.0,0.0,0.001156,2
1671464583563278255,603255,1671464583592819833,gps,2,1,42.3009906357,-83.6977241221,272.729736328,0.000121,0.0,0.0,0.0,0.000144,0.0,0.0,0.0,0.001156,2
1671464583573433901,603256,1671464583602762730,gps,2,1,42.3009906373,-83.6977241258,272.729858398,0.000121,0.0,0.0,0.0,0.000144,0.0,0.0,0.0,0.001156,2
1671464583583404460,603257,1671464583612779504,gps,2,1,42.3009906377,-83.6977241273,272.729827881,0.000121,0.0,0.0,0.0,0.000144,0.0,0.0,0.0,0.001156,2
1671464583593243298,603258,1671464583622693303,gps,2,1,42.300990638,-83.6977241284,272.729827881,0.000121,0.0,0.0,0.0,0.000144,0.0,0.0,0.0,0.001156,2
1671464583603328630,603259,1671464583632713791,gps,2,1,42.3009906396,-83.6977241325,272.729949951,0.000121,0.0,0.0,0.0,0.000144,0.0,0.0,0.0,0.001156,2
1671464583613324328,603260,1671464583642730724,gps,2,1,42.3009906399,-83.6977241344,272.729919434,0.000121,0.0,0.0,0.0,0.000144,0.0,0.0,0.0,0.001156,2
1671464583623182060,603261,1671464583652771546,gps,2,1,42.3009906403,-83.697724136,272.729919434,0.000121,0.0,0.0,0.0,0.000144,0.0,0.0,0.0,0.001156,2
1671464583633166436,603262,1671464583662701337,gps,2,1,42.300990642,-83.6977241404,272.730041504,0.000121,0.0,0.0,0.0,0.000144,0.0,0.0,0.0,0.001156,2
1671464583643096171,603263,1671464583672694752,gps,2,1,42.3009906423,-83.6977241428,272.730010986,0.000121,0.0,0.0,0.0,0.000144,0.0,0.0,0.0,0.001156,2
1671464583653509113,603264,1671464583682779892,gps,2,1,42.3009906426,-83.6977241449,272.730010986,0.000121,0.0,0.0,0.0,0.000144,0.0,0.0,0.0,0.001156,2
1671464583663216636,603265,1671464583692713564,gps,2,1,42.3009906443,-83.6977241499,272.730102539,0.000121,0.0,0.0,0.0,0.000144,0.0,0.0,0.0,0.001156,2
1671464583673282848,603266,1671464583702701804,gps,2,1,42.3009906447,-83.6977241532,272.730072021,0.000121,0.0,0.0,0.0,0.000144,0.0,0.0,0.0,0.001156,2
1671464583683566812,603267,1671464583712811005,gps,2,1,42.300990645,-83.6977241556,272.730072021,0.000121,0.0,0.0,0.0,0.000144,0.0,0.0,0.0,0.001156,2
1671464583693454118,603268,1671464583722697852,gps,2,1,42.3009906467,-83.6977241613,272.730133057,0.000121,0.0,0.0,0.0,0.000144,0.0,0.0,0.0,0.001156,2
1671464583703269081,603269,1671464583732706632,gps,2,1,42.300990647,-83.6977241653,272.730102539,0.000121,0.0,0.0,0.0,0.000144,0.0,0.0,0.0,0.001156,2
1671464583713706553,603270,1671464583742760870,gps,2,1,42.3009906474,-83.6977241687,272.730072021,0.000121,0.0,0.0,0.0,0.000144,0.0,0.0,0.0,0.001156,2
1671464583723262078,603271,1671464583752699225,gps,2,1,42.300990649,-83.6977241752,272.730163574,0.000121,0.0,0.0,0.0,0.000144,0.0,0.0,0.0,0.001156,2
1671464583733297156,603272,1671464583762750393,gps,2,1,42.3009906495,-83.6977241801,272.730102539,0.000121,0.0,0.0,0.0,0.000144,0.0,0.0,0.0,0.001156,2
1671464583743387241,603273,1671464583772695339,gps,2,1,42.3009906498,-83.6977241842,272.730072021,0.000121,0.0,0.0,0.0,0.000144,0.0,0.0,0.0,0.001156,2
1671464583753282555,603274,1671464583782780903,gps,2,1,42.3009906515,-83.6977241916,272.730133057,0.000121,0.0,0.0,0.0,0.000144,0.0,0.0,0.0,0.001156,2
1671464583763183050,603275,1671464583792716714,gps,2,1,42.300990652,-83.6977241977,272.730102539,0.000121,0.0,0.0,0.0,0.000144,0.0,0.0,0.0,0.001156,2
1671464583773158044,603276,1671464583802763720,gps,2,1,42.3009906525,-83.6977242029,272.730041504,0.000121,0.0,0.0,0.0,0.000144,0.0,0.0,0.0,0.001156,2
1671464583783110847,603277,1671464583812688715,gps,2,1,42.3009906542,-83.6977242114,272.730102539,0.000121,0.0,0.0,0.0,0.000144,0.0,0.0,0.0,0.001156,2
1671464583793443068,603278,1671464583822709446,gps,2,1,42.3009906548,-83.6977242186,272.730041504,0.000121,0.0,0.0,0.0,0.000144,0.0,0.0,0.0,0.001156,2
1671464583803599319,603279,1671464583832775114,gps,2,1,42.3009906553,-83.6977242249,272.730010986,0.000121,0.0,0.0,0.0,0.000144,0.0,0.0,0.0,0.001156,2
1671464583813352012,603280,1671464583842701015,gps,2,1,42.3009906571,-83.6977242345,272.730041504,0.000121,0.0,0.0,0.0,0.000144,0.0,0.0,0.0,0.001156,2
1671464583823107535,603281,1671464583852704689,gps,2,1,42.3009906577,-83.6977242429,272.729980469,0.000121,0.0,0.0,0.0,0.000144,0.0,0.0,0.0,0.001156,2
1671464583833265233,603282,1671464583862760057,gps,2,1,42.3009906583,-83.6977242503,272.729919434,0.000121,0.0,0.0,0.0,0.000144,0.0,0.0,0.0,0.001156,2
1671464583843251629,603283,1671464583872700665,gps,2,1,42.30099066,-83.6977242609,272.729980469,0.000121,0.0,0.0,0.0,0.000144,0.0,0.0,0.0,0.001156,2
1671464583853391851,603284,1671464583882707376,gps,2,1,42.3009906607,-83.6977242705,272.729919434,0.000121,0.0,0.0,0.0,0.000144,0.0,0.0,0.0,0.001156,2
1671464583863354796,603285,1671464583892781660,gps,2,1,42.3009906613,-83.6977242791,272.729858398,0.000121,0.0,0.0,0.0,0.000144,0.0,0.0,0.0,0.001156,2
1671464583873495038,603286,1671464583902704763,gps,2,1,42.3009906631,-83.697724291,272.729888916,0.000121,0.0,0.0,0.0,0.000144,0.0,0.0,0.0,0.001156,2
1671464583883548255,603287,1671464583912768823,gps,2,1,42.3009906638,-83.6977243021,272.729827881,0.000121,0.0,0.0,0.0,0.000144,0.0,0.0,0.0,0.001156,2
1671464583893526038,603288,1671464583922696788,gps,2,1,42.3009906645,-83.697724312,272.729766846,0.000121,0.0,0.0,0.0,0.000144,0.0,0.0,0.0,0.001156,2
1671464583903430218,603289,1671464583932702758,gps,2,1,42.3009906663,-83.6977243253,272.729797363,0.000121,0.0,0.0,0.0,0.000144,0.0,0.0,0.0,0.001156,2
1671464583913376638,603290,1671464583942781840,gps,2,1,42.300990667,-83.6977243376,272.729736328,0.000121,0.0,0.0,0.0,0.000144,0.0,0.0,0.0,0.001156,2
1671464583923239289,603291,1671464583952695435,gps,2,1,42.3009906677,-83.6977243489,272.729675293,0.000121,0.0,0.0,0.0,0.000144,0.0,0.0,0.0,0.001156,2
1671464583933447425,603292,1671464583962779710,gps,2,1,42.3009906695,-83.6977243636,272.729705811,0.000121,0.0,0.0,0.0,0.000144,0.0,0.0,0.0,0.001156,2
1671464583943656178,603293,1671464583972712595,gps,2,1,42.3009906703,-83.6977243773,272.729644775,0.000121,0.0,0.0,0.0,0.000144,0.0,0.0,0.0,0.001156,2
1671464583953556305,603294,1671464583982762248,gps,2,1,42.3009906711,-83.69772439,272.72958374,0.000121,0.0,0.0,0.0,0.000144,0.0,0.0,0.0,0.001156,2
1671464583963516305,603295,1671464583992717760,gps,2,1,42.3009906729,-83.697724406,272.729614258,0.000121,0.0,0.0,0.0,0.000144,0.0,0.0,0.0,0.001156,2
1671464583973849730,603296,1671464584002721717,gps,2,1,42.3009906737,-83.6977244211,272.729553223,0.000121,0.0,0.0,0.0,0.000144,0.0,0.0,0.0,0.001156,2
1671464583983526599,603297,1671464584012764137,gps,2,1,42.3009906745,-83.6977244352,272.729522705,0.000121,0.0,0.0,0.0,0.000144,0.0,0.0,0.0,0.001156,2
1671464583993618250,603298,1671464584022701259,gps,2,1,42.3009906764,-83.6977244526,272.729553223,0.000121,0.0,0.0,0.0,0.000144,0.0,0.0,0.0,0.001156,2
1671464584003478227,603299,1671464584032922518,gps,2,1,42.3009906773,-83.6977244692,272.729492188,0.000121,0.0,0.0,0.0,0.000144,0.0,0.0,0.0,0.001156,2
1671464584013547170,603300,1671464584042814294,gps,2,1,42.3009906781,-83.6977244847,272.729431152,0.000121,0.0,0.0,0.0,0.000144,0.0,0.0,0.0,0.001156,2
1671464584023382160,603301,1671464584052808945,gps,2,1,42.30099068,-83.6977245034,272.72946167,0.000121,0.0,0.0,0.0,0.000144,0.0,0.0,0.0,0.001156,2
1671464584033482090,603302,1671464584062714746,gps,2,1,42.3009906809,-83.6977245214,272.729431152,0.000121,0.0,0.0,0.0,0.000144,0.0,0.0,0.0,0.001156,2
1671464584043324975,603303,1671464584072809139,gps,2,1,42.3009906818,-83.6977245384,272.729370117,0.000121,0.0,0.0,0.0,0.000144,0.0,0.0,0.0,0.001156,2
1671464584053381540,603304,1671464584082761270,gps,2,1,42.3009906842,-83.6977245599,272.729492188,0.000121,0.0,0.0,0.0,0.000144,0.0,0.0,0.0,0.001156,2
1671464584063612475,603305,1671464584092745398,gps,2,1,42.3009906852,-83.6977245795,272.729431152,0.000121,0.0,0.0,0.0,0.000144,0.0,0.0,0.0,0.001156,2
1671464584073334199,603306,1671464584102794246,gps,2,1,42.3009906861,-83.6977245977,272.729400635,0.000121,0.0,0.0,0.0,0.000144,0.0,0.0,0.0,0.001156,2
1671464584083613393,603307,1671464584112733460,gps,2,1,42.3009906886,-83.6977246206,272.729492188,0.000121,0.0,0.0,0.0,0.000144,0.0,0.0,0.0,0.001156,2
1671464584093155128,603308,1671464584122765846,gps,2,1,42.3009906896,-83.6977246416,272.72946167,0.000121,0.0,0.0,0.0,0.000144,0.0,0.0,0.0,0.001156,2
1671464584103162935,603309,1671464584132712216,gps,2,1,42.3009906906,-83.6977246614,272.729431152,0.000121,0.0,0.0,0.0,0.000144,0.0,0.0,0.0,0.001156,2
1671464584113123637,603310,1671464584142709956,gps,2,1,42.3009906931,-83.6977246857,272.729522705,0.000121,0.0,0.0,0.0,0.000144,0.0,0.0,0.0,0.001156,2
1671464584123467386,603311,1671464584152784121,gps,2,1,42.3009906942,-83.6977247082,272.729492188,0.000121,0.0,0.0,0.0,0.000144,0.0,0.0,0.0,0.001156,2
1671464584133555110,603312,1671464584162750278,gps,2,1,42.3009906953,-83.6977247294,272.72946167,0.000121,0.0,0.0,0.0,0.000144,0.0,0.0,0.0,0.001156,2
1671464584143207277,603313,1671464584172652716,gps,2,1,42.3009906978,-83.697724755,272.729553223,0.000121,0.0,0.0,0.0,0.000144,0.0,0.0,0.0,0.001156,2
1671464584153753347,603314,1671464584182647266,gps,2,1,42.300990699,-83.697724779,272.729522705,0.000121,0.0,0.0,0.0,0.000144,0.0,0.0,0.0,0.001156,2
1671464584163043810,603315,1671464584192670692,gps,2,1,42.3009907002,-83.6977248017,272.729492188,0.000121,0.0,0.0,0.0,0.000144,0.0,0.0,0.0,0.001156,2
1671464584173484371,603316,1671464584202771606,gps,2,1,42.3009907027,-83.6977248288,272.729553223,0.000121,0.0,0.0,0.0,0.000144,0.0,0.0,0.0,0.001156,2
1671464584183156489,603317,1671464584212810971,gps,2,1,42.300990704,-83.6977248541,272.729522705,0.000121,0.0,0.0,0.0,0.000144,0.0,0.0,0.0,0.001156,2
1671464584193302437,603318,1671464584222755796,gps,2,1,42.3009907052,-83.6977248783,272.729522705,0.000121,0.0,0.0,0.0,0.000144,0.0,0.0,0.0,0.001156,2
1671464584203215711,603319,1671464584232693914,gps,2,1,42.3009907078,-83.6977249069,272.72958374,0.000121,0.0,0.0,0.0,0.000144,0.0,0.0,0.0,0.001156,2
1671464584213154987,603320,1671464584242707875,gps,2,1,42.3009907092,-83.6977249339,272.729553223,0.000121,0.0,0.0,0.0,0.000144,0.0,0.0,0.0,0.001156,2
1671464584223115063,603321,1671464584252754943,gps,2,1,42.3009907105,-83.6977249595,272.729522705,0.000121,0.0,0.0,0.0,0.000144,0.0,0.0,0.0,0.001156,2
1671464584233329369,603322,1671464584262700382,gps,2,1,42.3009907132,-83.6977249894,272.729614258,0.000121,0.0,0.0,0.0,0.000144,0.0,0.0,0.0,0.001156,2
1671464584243887814,603323,1671464584272754413,gps,2,1,42.3009907146,-83.697725018,272.729553223,0.000121,0.0,0.0,0.0,0.000144,0.0,0.0,0.0,0.001156,2
1671464584253821975,603324,1671464584282799865,gps,2,1,42.300990716,-83.6977250454,272.729522705,0.000121,0.0,0.0,0.0,0.000144,0.0,0.0,0.0,0.001156,2
1671464584263436842,603325,1671464584292731944,gps,2,1,42.3009907187,-83.697725077,272.72958374,0.000121,0.0,0.0,0.0,0.000144,0.0,0.0,0.0,0.001156,2
1671464584273420449,603326,1671464584302765113,gps,2,1,42.3009907201,-83.6977251071,272.729553223,0.000121,0.0,0.0,0.0,0.000144,0.0,0.0,0.0,0.001156,2
1671464584283214077,603327,1671464584312713273,gps,2,1,42.3009907216,-83.6977251361,272.729522705,0.000121,0.0,0.0,0.0,0.000144,0.0,0.0,0.0,0.001156,2
1671464584293665618,603328,1671464584322695022,gps,2,1,42.3009907242,-83.6977251692,272.72958374,0.000121,0.0,0.0,0.0,0.000144,0.0,0.0,0.0,0.001156,2
1671464584303469795,603329,1671464584332740665,gps,2,1,42.3009907257,-83.6977252012,272.729522705,0.000121,0.0,0.0,0.0,0.000144,0.0,0.0,0.0,0.001156,2
1671464584313529200,603330,1671464584342761910,gps,2,1,42.3009907271,-83.6977252316,272.729492188,0.000121,0.0,0.0,0.0,0.000144,0.0,0.0,0.0,0.001156,2
1671464584323314071,603331,1671464584352710468,gps,2,1,42.3009907297,-83.6977252664,272.729522705,0.000121,0.0,0.0,0.0,0.000144,0.0,0.0,0.0,0.001156,2
1671464584333411509,603332,1671464584362694165,gps,2,1,42.3009907311,-83.6977253001,272.729492188,0.000121,0.0,0.0,0.0,0.000144,0.0,0.0,0.0,0.001156,2
1671464584343294291,603333,1671464584372754109,gps,2,1,42.3009907326,-83.6977253324,272.729431152,0.000121,0.0,0.0,0.0,0.000144,0.0,0.0,0.0,0.001156,2
1671464584353383803,603334,1671464584382797968,gps,2,1,42.3009907352,-83.6977253691,272.729492188,0.000121,0.0,0.0,0.0,0.000144,0.0,0.0,0.0,0.001156,2
1671464584363170416,603335,1671464584392721220,gps,2,1,42.3009907367,-83.6977254047,272.729431152,0.000121,0.0,0.0,0.0,0.000144,0.0,0.0,0.0,0.001156,2
1671464584373356176,603336,1671464584402774810,gps,2,1,42.3009907383,-83.6977254388,272.729400635,0.000121,0.0,0.0,0.0,0.000144,0.0,0.0,0.0,0.001156,2
1671464584383385588,603337,1671464584412701841,gps,2,1,42.3009907408,-83.6977254773,272.729400635,0.000121,0.0,0.0,0.0,0.000144,0.0,0.0,0.0,0.001156,2
1671464584393083118,603338,1671464584422704371,gps,2,1,42.3009907424,-83.6977255152,272.729370117,0.000121,0.0,0.0,0.0,0.000144,0.0,0.0,0.0,0.001156,2
1671464584403403701,603339,1671464584432811789,gps,2,1,42.300990744,-83.6977255512,272.729309082,0.000121,0.0,0.0,0.0,0.000144,0.0,0.0,0.0,0.001156,2
1671464584413514284,603340,1671464584442764837,gps,2,1,42.3009907466,-83.6977255919,272.729309082,0.000121,0.0,0.0,0.0,0.000144,0.0,0.0,0.0,0.001156,2
1671464584423340844,603341,1671464584452764239,gps,2,1,42.3009907483,-83.6977256321,272.729248047,0.000121,0.0,0.0,0.0,0.000144,0.0,0.0,0.0,0.001156,2
1671464584433585431,603342,1671464584462811438,gps,2,1,42.3009907499,-83.6977256705,272.729187012,0.000121,0.0,0.0,0.0,0.000144,0.0,0.0,0.0,0.001156,2
1671464584443361383,603343,1671464584472685631,gps,2,1,42.3009907526,-83.6977257136,272.729217529,0.000121,0.0,0.0,0.0,0.000144,0.0,0.0,0.0,0.001156,2
1671464584453612761,603344,1671464584482691352,gps,2,1,42.3009907544,-83.6977257563,272.729125977,0.000121,0.0,0.0,0.0,0.000144,0.0,0.0,0.0,0.001156,2
1671464584463503652,603345,1671464584492745575,gps,2,1,42.3009907561,-83.6977257969,272.729064941,0.000121,0.0,0.0,0.0,0.000144,0.0,0.0,0.0,0.001156,2
1671464584473540545,603346,1671464584502718366,gps,2,1,42.3009907588,-83.6977258425,272.729064941,0.000121,0.0,0.0,0.0,0.000144,0.0,0.0,0.0,0.001156,2
1671464584483313079,603347,1671464584512682316,gps,2,1,42.3009907608,-83.6977258879,272.729003906,0.000121,0.0,0.0,0.0,0.000144,0.0,0.0,0.0,0.001156,2
1671464584493159513,603348,1671464584522758818,gps,2,1,42.3009907626,-83.6977259312,272.728912354,0.000121,0.0,0.0,0.0,0.000144,0.0,0.0,0.0,0.001156,2
1671464584503724551,603349,1671464584532920966,gps,2,1,42.3009907654,-83.6977259793,272.728912354,0.000121,0.0,0.0,0.0,0.000144,0.0,0.0,0.0,0.001156,2
1671464584513164652,603350,1671464584542809723,gps,2,1,42.3009907674,-83.6977260275,272.728820801,0.000121,0.0,0.0,0.0,0.000144,0.0,0.0,0.0,0.001156,2
1671464584523381381,603351,1671464584552763029,gps,2,1,42.3009907694,-83.6977260734,272.728729248,0.000121,0.0,0.0,0.0,0.000144,0.0,0.0,0.0,0.001156,2
1671464584533091952,603352,1671464584562781158,gps,2,1,42.3009907723,-83.6977261243,272.72869873,0.000121,0.0,0.0,0.0,0.000144,0.0,0.0,0.0,0.001156,2
1671464584543355291,603353,1671464584572775630,gps,2,1,42.3009907744,-83.6977261755,272.728607178,0.000121,0.0,0.0,0.0,0.000144,0.0,0.0,0.0,0.001156,2
1671464584553685158,603354,1671464584582792081,gps,2,1,42.3009907764,-83.6977262242,272.728515625,0.000121,0.0,0.0,0.0,0.000144,0.0,0.0,0.0,0.001156,2
1671464584563258057,603355,1671464584592727463,gps,2,1,42.3009907771,-83.697726278,272.728271484,0.000121,0.0,0.0,0.0,0.000144,0.0,0.0,0.0,0.001156,2
1671464584573267109,603356,1671464584602725095,gps,2,1,42.3009907793,-83.6977263324,272.728179932,0.000121,0.0,0.0,0.0,0.000144,0.0,0.0,0.0,0.001156,2
1671464584583274692,603357,1671464584612768160,gps,2,1,42.3009907814,-83.697726384,272.728088379,0.000121,0.0,0.0,0.0,0.000144,0.0,0.0,0.0,0.001156,2
1671464584593193838,603358,1671464584622708000,gps,2,1,42.3009907822,-83.697726441,272.727813721,0.000121,0.0,0.0,0.0,0.000144,0.0,0.0,0.0,0.001156,2
1671464584603375082,603359,1671464584632692315,gps,2,1,42.3009907845,-83.6977264986,272.72769165,0.000121,0.0,0.0,0.0,0.000144,0.0,0.0,0.0,0.001156,2
1671464584613294429,603360,1671464584642756771,gps,2,1,42.3009907867,-83.6977265536,272.727600098,0.000121,0.0,0.0,0.0,0.000144,0.0,0.0,0.0,0.001156,2
1671464584623225727,603361,1671464584652687986,gps,2,1,42.3009907877,-83.6977266139,272.727325439,0.000121,0.0,0.0,0.0,0.000144,0.0,0.0,0.0,0.001156,2
1671464584633200193,603362,1671464584662771548,gps,2,1,42.3009907901,-83.6977266752,272.727203369,0.000121,0.0,0.0,0.0,0.000144,0.0,0.0,0.0,0.001156,2
1671464584643174529,603363,1671464584672769564,gps,2,1,42.3009907924,-83.6977267333,272.727050781,0.000121,0.0,0.0,0.0,0.000144,0.0,0.0,0.0,0.001156,2
1671464584653538326,603364,1671464584682702755,gps,2,1,42.3009907935,-83.6977267974,272.726806641,0.000121,0.0,0.0,0.0,0.000144,0.0,0.0,0.0,0.001156,2
1671464584663195921,603365,1671464584692692541,gps,2,1,42.3009907959,-83.6977268624,272.726654053,0.000121,0.0,0.0,0.0,0.000144,0.0,0.0,0.0,0.001156,2
1671464584673829778,603366,1671464584702763512,gps,2,1,42.3009907982,-83.6977269243,272.726501465,0.000121,0.0,0.0,0.0,0.000144,0.0,0.0,0.0,0.001156,2
1671464584683233494,603367,1671464584712786356,gps,2,1,42.3009907993,-83.6977269923,272.726226807,0.000121,0.0,0.0,0.0,0.000144,0.0,0.0,0.0,0.001156,2
1671464584693227362,603368,1671464584722704706,gps,2,1,42.3009908018,-83.6977270612,272.726074219,0.000121,0.0,0.0,0.0,0.000144,0.0,0.0,0.0,0.001156,2
1671464584703224809,603369,1671464584732761386,gps,2,1,42.3009908041,-83.6977271269,272.725891113,0.000121,0.0,0.0,0.0,0.000144,0.0,0.0,0.0,0.001156,2
1671464584713261586,603370,1671464584742701673,gps,2,1,42.3009908054,-83.6977271986,272.725616455,0.000121,0.0,0.0,0.0,0.000144,0.0,0.0,0.0,0.001156,2
1671464584723562180,603371,1671464584752709434,gps,2,1,42.300990808,-83.6977272714,272.725463867,0.000121,0.0,0.0,0.0,0.000144,0.0,0.0,0.0,0.001156,2
1671464584733238579,603372,1671464584762746964,gps,2,1,42.3009908105,-83.6977273411,272.725280762,0.000121,0.0,0.0,0.0,0.000144,0.0,0.0,0.0,0.001156,2
1671464584743154882,603373,1671464584772685974,gps,2,1,42.300990812,-83.6977274168,272.725006104,0.000121,0.0,0.0,0.0,0.000144,0.0,0.0,0.0,0.001156,2
1671464584753347663,603374,1671464584782779907,gps,2,1,42.3009908148,-83.6977274937,272.724853516,0.000121,0.0,0.0,0.0,0.000144,0.0,0.0,0.0,0.001156,2
1671464584763163108,603375,1671464584792765543,gps,2,1,42.3009908175,-83.6977275672,272.72467041,0.000121,0.0,0.0,0.0,0.000144,0.0,0.0,0.0,0.001156,2
1671464584773337649,603376,1671464584802690727,gps,2,1,42.3009908192,-83.697727647,272.724395752,0.000121,0.0,0.0,0.0,0.000144,0.0,0.0,0.0,0.001156,2
1671464584783243205,603377,1671464584812692739,gps,2,1,42.3009908222,-83.697727728,272.724212646,0.000121,0.0,0.0,0.0,0.000144,0.0,0.0,0.0,0.001156,2
1671464584793218934,603378,1671464584822776665,gps,2,1,42.3009908251,-83.6977278056,272.724029541,0.000121,0.0,0.0,0.0,0.000144,0.0,0.0,0.0,0.001156,2
1671464584803569296,603379,1671464584832696640,gps,2,1,42.300990827,-83.6977278895,272.723754883,0.000121,0.0,0.0,0.0,0.000144,0.0,0.0,0.0,0.001156,2
1671464584813423411,603380,1671464584842695987,gps,2,1,42.3009908302,-83.6977279748,272.723571777,0.000121,0.0,0.0,0.0,0.000144,0.0,0.0,0.0,0.001156,2
1671464584823220218,603381,1671464584852760200,gps,2,1,42.3009908333,-83.6977280565,272.723388672,0.000121,0.0,0.0,0.0,0.000144,0.0,0.0,0.0,0.001156,2
1671464584833476713,603382,1671464584862699937,gps,2,1,42.3009908354,-83.6977281447,272.723083496,0.000121,0.0,0.0,0.0,0.000144,0.0,0.0,0.0,0.001156,2
1671464584843139036,603383,1671464584872705382,gps,2,1,42.3009908388,-83.6977282342,272.722900391,0.000121,0.0,0.0,0.0,0.000144,0.0,0.0,0.0,0.001156,2
1671464584853510794,603384,1671464584882756682,gps,2,1,42.3009908421,-83.6977283202,272.722717285,0.000121,0.0,0.0,0.0,0.000144,0.0,0.0,0.0,0.001156,2
1671464584862958474,603385,1671464584892700911,gps,2,1,42.3009908444,-83.6977284126,272.722412109,0.000121,0.0,0.0,0.0,0.000144,0.0,0.0,0.0,0.001156,2
1671464584873086881,603386,1671464584902701919,gps,2,1,42.300990848,-83.6977285068,272.722167969,0.000121,0.0,0.0,0.0,0.000144,0.0,0.0,0.0,0.001156,2
1671464584883258375,603387,1671464584912766073,gps,2,1,42.3009908515,-83.697728597,272.721984863,0.000121,0.0,0.0,0.0,0.000144,0.0,0.0,0.0,0.001156,2
1671464584893523325,603388,1671464584922676052,gps,2,1,42.3009908542,-83.6977286938,272.721679688,0.000121,0.0,0.0,0.0,0.000144,0.0,0.0,0.0,0.001156,2
1671464584903445614,603389,1671464584932698537,gps,2,1,42.3009908581,-83.6977287924,272.721466064,0.000121,0.0,0.0,0.0,0.000144,0.0,0.0,0.0,0.001156,2
1671464584913361234,603390,1671464584942761275,gps,2,1,42.3009908618,-83.6977288874,272.721221924,0.000121,0.0,0.0,0.0,0.000144,0.0,0.0,0.0,0.001156,2
1671464584923111793,603391,1671464584952697706,gps,2,1,42.3009908648,-83.6977289889,272.720916748,0.000121,0.0,0.0,0.0,0.000144,0.0,0.0,0.0,0.001156,2
1671464584933224198,603392,1671464584962795918,gps,2,1,42.300990869,-83.6977290924,272.720672607,0.000121,0.0,0.0,0.0,0.000144,0.0,0.0,0.0,0.001156,2
1671464584943629522,603393,1671464584972759286,gps,2,1,42.3009908729,-83.6977291917,272.720428467,0.000121,0.0,0.0,0.0,0.000144,0.0,0.0,0.0,0.001156,2
1671464584953336465,603394,1671464584982693829,gps,2,1,42.3009908762,-83.6977292981,272.720092773,0.000121,0.0,0.0,0.0,0.000144,0.0,0.0,0.0,0.001156,2
1671464584963146508,603395,1671464584992703610,gps,2,1,42.3009908807,-83.6977294066,272.719818115,0.000121,0.0,0.0,0.0,0.000144,0.0,0.0,0.0,0.001156,2
1671464584973712744,603396,1671464585002764789,gps,2,1,42.3009908848,-83.6977295111,272.719573975,0.000121,0.0,0.0,0.0,0.000144,0.0,0.0,0.0,0.001156,2
1671464584983474972,603397,1671464585012699472,gps,2,1,42.3009908884,-83.6977296226,272.719207764,0.000121,0.0,0.0,0.0,0.000144,0.0,0.0,0.0,0.001156,2
1671464584993456798,603398,1671464585022699000,gps,2,1,42.300990893,-83.6977297364,272.718902588,0.000121,0.0,0.0,0.0,0.000144,0.0,0.0,0.0,0.001156,2
1671464585003492095,603399,1671464585032923125,gps,2,1,42.3009908975,-83.6977298458,272.71862793,0.000121,0.0,0.0,0.0,0.000144,0.0,0.0,0.0,0.001156,2
1671464585013571078,603400,1671464585042776525,gps,2,1,42.3009909004,-83.6977299628,272.718139648,0.000121,0.0,0.0,0.0,0.000144,0.0,0.0,0.0,0.001156,2
1671464585023421976,603401,1671464585052774184,gps,2,1,42.3009909053,-83.6977300818,272.717834473,0.000121,0.0,0.0,0.0,0.000144,0.0,0.0,0.0,0.001156,2
1671464585033555032,603402,1671464585062782688,gps,2,1,42.30099091,-83.6977301966,272.717529297,0.000121,0.0,0.0,0.0,0.000144,0.0,0.0,0.0,0.001156,2
1671464585043357727,603403,1671464585072746385,gps,2,1,42.3009909133,-83.6977303187,272.717041016,0.000121,0.0,0.0,0.0,0.000144,0.0,0.0,0.0,0.001156,2
1671464585053507807,603404,1671464585082777781,gps,2,1,42.3009909183,-83.6977304425,272.71673584,0.000121,0.0,0.0,0.0,0.000144,0.0,0.0,0.0,0.001156,2
1671464585063697965,603405,1671464585092755488,gps,2,1,42.3009909233,-83.6977305627,272.716400146,0.000121,0.0,0.0,0.0,0.000144,0.0,0.0,0.0,0.001156,2
1671464585073329203,603406,1671464585102790234,gps,2,1,42.3009909269,-83.6977306896,272.715911865,0.000121,0.0,0.0,0.0,0.000144,0.0,0.0,0.0,0.001156,2
1671464585083390013,603407,1671464585112749201,gps,2,1,42.300990932,-83.6977308182,272.715576172,0.000121,0.0,0.0,0.0,0.000144,0.0,0.0,0.0,0.001156,2
1671464585093401436,603408,1671464585122766895,gps,2,1,42.3009909371,-83.6977309427,272.715270996,0.000121,0.0,0.0,0.0,0.000144,0.0,0.0,0.0,0.001156,2
1671464585103711064,603409,1671464585132697852,gps,2,1,42.3009909407,-83.6977310739,272.714782715,0.000121,0.0,0.0,0.0,0.000144,0.0,0.0,0.0,0.001156,2
1671464585113126221,603410,1671464585142720614,gps,2,1,42.3009909458,-83.6977312065,272.714447021,0.000121,0.0,0.0,0.0,0.000144,0.0,0.0,0.0,0.001156,2
1671464585123448795,603411,1671464585152778015,gps,2,1,42.300990951,-83.697731336,272.714111328,0.000121,0.0,0.0,0.0,0.000144,0.0,0.0,0.0,0.001156,2
1671464585133653734,603412,1671464585162700473,gps,2,1,42.3009909542,-83.6977314713,272.713653564,0.000121,0.0,0.0,0.0,0.000144,0.0,0.0,0.0,0.001156,2
1671464585143337214,603413,1671464585172697901,gps,2,1,42.3009909594,-83.6977316077,272.713378906,0.000121,0.0,0.0,0.0,0.000144,0.0,0.0,0.0,0.001156,2
1671464585153305096,603414,1671464585182756353,gps,2,1,42.3009909643,-83.6977317409,272.713043213,0.000121,0.0,0.0,0.0,0.000144,0.0,0.0,0.0,0.001156,2
1671464585163395856,603415,1671464585192715663,gps,2,1,42.3009909676,-83.69773188,272.712615967,0.000121,0.0,0.0,0.0,0.000144,0.0,0.0,0.0,0.001156,2
1671464585173462806,603416,1671464585202694735,gps,2,1,42.3009909726,-83.6977320202,272.712341309,0.000121,0.0,0.0,0.0,0.000144,0.0,0.0,0.0,0.001156,2
1671464585183541301,603417,1671464585212851200,gps,2,1,42.3009909776,-83.6977321573,272.71206665,0.000121,0.0,0.0,0.0,0.000144,0.0,0.0,0.0,0.001156,2
1671464585193259320,603418,1671464585222695733,gps,2,1,42.300990981,-83.6977323,272.711669922,0.000121,0.0,0.0,0.0,0.000144,0.0,0.0,0.0,0.001156,2
1671464585203100515,603419,1671464585232682536,gps,2,1,42.300990986,-83.6977324436,272.711395264,0.000121,0.0,0.0,0.0,0.000144,0.0,0.0,0.0,0.001156,2
1671464585213491798,603420,1671464585242760672,gps,2,1,42.3009909912,-83.6977325843,272.711120605,0.000121,0.0,0.0,0.0,0.000144,0.0,0.0,0.0,0.001156,2
1671464585223470774,603421,1671464585252696412,gps,2,1,42.3009909946,-83.6977327304,272.710693359,0.000121,0.0,0.0,0.0,0.000144,0.0,0.0,0.0,0.001156,2
1671464585233133574,603422,1671464585262701897,gps,2,1,42.3009909998,-83.6977328772,272.710418701,0.000121,0.0,0.0,0.0,0.000144,0.0,0.0,0.0,0.001156,2
1671464585243551038,603423,1671464585272761912,gps,2,1,42.3009910051,-83.6977330216,272.710113525,0.000121,0.0,0.0,0.0,0.000144,0.0,0.0,0.0,0.001156,2
1671464585253864812,603424,1671464585282792355,gps,2,1,42.3009910087,-83.6977331709,272.709655762,6.4e-05,0.0,0.0,0.0,8.1e-05,0.0,0.0,0.0,0.001089,2
1671464585263535847,603425,1671464585292732322,gps,2,1,42.3009910141,-83.6977333213,272.709320068,6.4e-05,0.0,0.0,0.0,8.1e-05,0.0,0.0,0.0,0.001089,2
1671464585273915980,603426,1671464585302761483,gps,2,1,42.3009910193,-83.6977334686,272.70904541,6.4e-05,0.0,0.0,0.0,8.1e-05,0.0,0.0,0.0,0.001089,2
1671464585283164979,603427,1671464585312696618,gps,2,1,42.300991023,-83.6977336213,272.708557129,6.4e-05,0.0,0.0,0.0,8.1e-05,0.0,0.0,0.0,0.001089,2
1671464585293531075,603428,1671464585322773583,gps,2,1,42.3009910285,-83.6977337749,272.708190918,6.4e-05,0.0,0.0,0.0,8.1e-05,0.0,0.0,0.0,0.001089,2
1671464585303451832,603429,1671464585332777947,gps,2,1,42.3009910338,-83.6977339257,272.707855225,6.4e-05,0.0,0.0,0.0,8.1e-05,0.0,0.0,0.0,0.001089,2
1671464585313499071,603430,1671464585342696323,gps,2,1,42.3009910377,-83.6977340815,272.707366943,6.4e-05,0.0,0.0,0.0,8.1e-05,0.0,0.0,0.0,0.001089,2
1671464585323434466,603431,1671464585352702426,gps,2,1,42.3009910432,-83.6977342381,272.706970215,6.4e-05,0.0,0.0,0.0,8.1e-05,0.0,0.0,0.0,0.001089,2
1671464585333370468,603432,1671464585362758299,gps,2,1,42.3009910486,-83.6977343922,272.706604004,6.4e-05,0.0,0.0,0.0,8.1e-05,0.0,0.0,0.0,0.001089,2
1671464585343198541,603433,1671464585372692657,gps,2,1,42.3009910526,-83.6977345509,272.706115723,6.4e-05,0.0,0.0,0.0,8.1e-05,0.0,0.0,0.0,0.001089,2
1671464585353440994,603434,1671464585382838843,gps,2,1,42.3009910584,-83.6977347104,272.705749512,6.4e-05,0.0,0.0,0.0,8.1e-05,0.0,0.0,0.0,0.001089,2
1671464585363504682,603435,1671464585392711191,gps,2,1,42.3009910638,-83.6977348674,272.705352783,6.4e-05,0.0,0.0,0.0,8.1e-05,0.0,0.0,0.0,0.001089,2
1671464585373239397,603436,1671464585402697712,gps,2,1,42.3009910679,-83.6977350288,272.704864502,6.4e-05,0.0,0.0,0.0,8.1e-05,0.0,0.0,0.0,0.001089,2
1671464585383344906,603437,1671464585412782137,gps,2,1,42.3009910737,-83.6977351908,272.704498291,6.4e-05,0.0,0.0,0.0,8.1e-05,0.0,0.0,0.0,0.001089,2
1671464585393704316,603438,1671464585422750025,gps,2,1,42.3009910792,-83.6977353507,272.70413208,6.4e-05,0.0,0.0,0.0,8.1e-05,0.0,0.0,0.0,0.001089,2
1671464585403536360,603439,1671464585432799576,gps,2,1,42.3009910833,-83.6977355143,272.703674316,6.4e-05,0.0,0.0,0.0,8.1e-05,0.0,0.0,0.0,0.001089,2
1671464585413652530,603440,1671464585442725816,gps,2,1,42.300991089,-83.6977356789,272.703369141,6.4e-05,0.0,0.0,0.0,8.1e-05,0.0,0.0,0.0,0.001089,2
1671464585423546616,603441,1671464585452761999,gps,2,1,42.3009910945,-83.6977358413,272.70300293,6.4e-05,0.0,0.0,0.0,8.1e-05,0.0,0.0,0.0,0.001089,2
1671464585433601200,603442,1671464585462794528,gps,2,1,42.3009910987,-83.6977360074,272.702575684,6.4e-05,0.0,0.0,0.0,8.1e-05,0.0,0.0,0.0,0.001089,2
1671464585443289141,603443,1671464585472688179,gps,2,1,42.3009911043,-83.6977361743,272.702270508,6.4e-05,0.0,0.0,0.0,8.1e-05,0.0,0.0,0.0,0.001089,2
1671464585453525397,603444,1671464585482757607,gps,2,1,42.3009911101,-83.6977363392,272.701934814,6.4e-05,0.0,0.0,0.0,8.1e-05,0.0,0.0,0.0,0.001089,2
1671464585463544448,603445,1671464585492699519,gps,2,1,42.3009911142,-83.6977365077,272.701507568,6.4e-05,0.0,0.0,0.0,8.1e-05,0.0,0.0,0.0,0.001089,2
1671464585473494352,603446,1671464585502696650,gps,2,1,42.3009911201,-83.697736677,272.701171875,6.4e-05,0.0,0.0,0.0,8.1e-05,0.0,0.0,0.0,0.001089,2
1671464585483393808,603447,1671464585512760615,gps,2,1,42.3009911259,-83.6977368442,272.700866699,6.4e-05,0.0,0.0,0.0,8.1e-05,0.0,0.0,0.0,0.001089,2
1671464585493581540,603448,1671464585522690176,gps,2,1,42.3009911301,-83.6977370151,272.700439453,6.4e-05,0.0,0.0,0.0,8.1e-05,0.0,0.0,0.0,0.001089,2
1671464585503714227,603449,1671464585532972408,gps,2,1,42.3009911361,-83.6977371868,272.70010376,6.4e-05,0.0,0.0,0.0,8.1e-05,0.0,0.0,0.0,0.001089,2
1671464585513612350,603450,1671464585542791116,gps,2,1,42.3009911419,-83.6977373565,272.699737549,6.4e-05,0.0,0.0,0.0,8.1e-05,0.0,0.0,0.0,0.001089,2
