%time,field.header.seq,field.header.stamp,field.header.frame_id,field.status.status,field.status.service,field.latitude,field.longitude,field.altitude,field.position_covariance0,field.position_covariance1,field.position_covariance2,field.position_covariance3,field.position_covariance4,field.position_covariance5,field.position_covariance6,field.position_covariance7,field.position_covariance8,field.position_covariance_type
1671466461963144076,55846,1671466461962626369,gps,2,1,42.300234185,-83.6985893369,271.18157959,0.0009,0.0,0.0,0.0,0.0009,0.0,0.0,0.0,0.004096,2
1671466461983159830,55847,1671466461982683203,gps,2,1,42.3002341853,-83.6985893363,271.181640625,0.0009,0.0,0.0,0.0,0.0009,0.0,0.0,0.0,0.004096,2
1671466462003216569,55848,1671466462002711213,gps,2,1,42.3002341831,-83.698589335,271.181640625,0.0009,0.0,0.0,0.0,0.0009,0.0,0.0,0.0,0.004096,2
1671466462023093326,55849,1671466462022689052,gps,2,1,42.3002341837,-83.6985893345,271.181671143,0.0009,0.0,0.0,0.0,0.0009,0.0,0.0,0.0,0.004096,2
1671466462043302728,55850,1671466462042792348,gps,2,1,42.3002341843,-83.698589334,271.18170166,0.0009,0.0,0.0,0.0,0.0009,0.0,0.0,0.0,0.004096,2
1671466462063227842,55851,1671466462062749320,gps,2,1,42.3002341821,-83.6985893327,271.18170166,0.0009,0.0,0.0,0.0,0.0009,0.0,0.0,0.0,0.004096,2
1671466462083199310,55852,1671466462082676284,gps,2,1,42.3002341832,-83.6985893324,271.181732178,0.0009,0.0,0.0,0.0,0.0009,0.0,0.0,0.0,0.004096,2
1671466462103214537,55853,1671466462102775467,gps,2,1,42.3002341841,-83.6985893324,271.181732178,0.0009,0.0,0.0,0.0,0.0009,0.0,0.0,0.0,0.004096,2
1671466462123189591,55854,1671466462122746962,gps,2,1,42.3002341819,-83.698589331,271.181732178,0.0009,0.0,0.0,0.0,0.0009,0.0,0.0,0.0,0.004096,2
1671466462143127863,55855,1671466462142715657,gps,2,1,42.3002341827,-83.6985893308,271.181762695,0.0009,0.0,0.0,0.0,0.0009,0.0,0.0,0.0,0.004096,2
1671466462163269337,55856,1671466462162785140,gps,2,1,42.3002341834,-83.6985893307,271.181762695,0.0009,0.0,0.0,0.0,0.0009,0.0,0.0,0.0,0.004096,2
1671466462183276513,55857,1671466462182778774,gps,2,1,42.3002341812,-83.6985893292,271.181762695,0.0009,0.0,0.0,0.0,0.0009,0.0,0.0,0.0,0.004096,2
1671466462203163704,55858,1671466462202712108,gps,2,1,42.3002341817,-83.6985893289,271.181793213,0.0009,0.0,0.0,0.0,0.0009,0.0,0.0,0.0,0.004096,2
1671466462223215719,55859,1671466462222706654,gps,2,1,42.300234183,-83.6985893286,271.18182373,0.0009,0.0,0.0,0.0,0.0009,0.0,0.0,0.0,0.004096,2
1671466462243172426,55860,1671466462242734472,gps,2,1,42.3002341808,-83.6985893271,271.18182373,0.0009,0.0,0.0,0.0,0.0009,0.0,0.0,0.0,0.004096,2
1671466462263253422,55861,1671466462262724184,gps,2,1,42.300234182,-83.6985893267,271.181884766,0.0009,0.0,0.0,0.0,0.0009,0.0,0.0,0.0,0.004096,2
1671466462283193910,55862,1671466462282715394,gps,2,1,42.3002341834,-83.6985893266,271.181854248,0.0009,0.0,0.0,0.0,0.0009,0.0,0.0,0.0,0.004096,2
1671466462303066217,55863,1671466462302659359,gps,2,1,42.3002341812,-83.6985893251,271.181884766,0.0009,0.0,0.0,0.0,0.0009,0.0,0.0,0.0,0.004096,2
1671466462323154507,55864,1671466462322703724,gps,2,1,42.3002341825,-83.6985893249,271.181854248,0.0009,0.0,0.0,0.0,0.0009,0.0,0.0,0.0,0.004096,2
1671466462343104513,55865,1671466462342650443,gps,2,1,42.3002341837,-83.6985893247,271.181854248,0.0009,0.0,0.0,0.0,0.0009,0.0,0.0,0.0,0.004096,2
1671466462363347005,55866,1671466462362683880,gps,2,1,42.3002341816,-83.6985893233,271.181854248,0.0009,0.0,0.0,0.0,0.0009,0.0,0.0,0.0,0.004096,2
1671466462383189366,55867,1671466462382641865,gps,2,1,42.3002341827,-83.6985893222,271.181854248,0.0009,0.0,0.0,0.0,0.0009,0.0,0.0,0.0,0.004096,2
1671466462403191113,55868,1671466462402662913,gps,2,1,42.3002341838,-83.698589321,271.18182373,0.0009,0.0,0.0,0.0,0.0009,0.0,0.0,0.0,0.004096,2
1671466462423321730,55869,1671466462422725996,gps,2,1,42.3002341816,-83.6985893196,271.181854248,0.0009,0.0,0.0,0.0,0.0009,0.0,0.0,0.0,0.004096,2
1671466462443214026,55870,1671466462442679148,gps,2,1,42.3002341825,-83.6985893184,271.18182373,0.0009,0.0,0.0,0.0,0.0009,0.0,0.0,0.0,0.004096,2
1671466462463135059,55871,1671466462462671645,gps,2,1,42.3002341834,-83.6985893172,271.18182373,0.0009,0.0,0.0,0.0,0.0009,0.0,0.0,0.0,0.004096,2
1671466462483194929,55872,1671466462482709884,gps,2,1,42.3002341812,-83.6985893157,271.18182373,0.0009,0.0,0.0,0.0,0.0009,0.0,0.0,0.0,0.004096,2
1671466462503226355,55873,1671466462502717848,gps,2,1,42.3002341818,-83.6985893144,271.18182373,0.0009,0.0,0.0,0.0,0.0009,0.0,0.0,0.0,0.004096,2
1671466462523219122,55874,1671466462522752352,gps,2,1,42.300234182,-83.698589315,271.18182373,0.0009,0.0,0.0,0.0,0.0009,0.0,0.0,0.0,0.004096,2
1671466462543301642,55875,1671466462542817728,gps,2,1,42.3002341798,-83.6985893134,271.18182373,0.0009,0.0,0.0,0.0,0.0009,0.0,0.0,0.0,0.004096,2
1671466462563085443,55876,1671466462562702736,gps,2,1,42.3002341807,-83.698589315,271.18182373,0.0009,0.0,0.0,0.0,0.0009,0.0,0.0,0.0,0.004096,2
1671466462583120373,55877,1671466462582740088,gps,2,1,42.3002341815,-83.6985893164,271.18182373,0.0009,0.0,0.0,0.0,0.0009,0.0,0.0,0.0,0.004096,2
1671466462603252508,55878,1671466462602830540,gps,2,1,42.3002341793,-83.6985893147,271.181854248,0.0009,0.0,0.0,0.0,0.0009,0.0,0.0,0.0,0.004096,2
1671466462623234675,55879,1671466462622720879,gps,2,1,42.3002341809,-83.6985893157,271.181854248,0.0009,0.0,0.0,0.0,0.0009,0.0,0.0,0.0,0.004096,2
1671466462643182502,55880,1671466462642717194,gps,2,1,42.3002341825,-83.6985893166,271.181854248,0.0009,0.0,0.0,0.0,0.0009,0.0,0.0,0.0,0.004096,2
1671466462663147206,55881,1671466462662695230,gps,2,1,42.3002341803,-83.6985893149,271.181854248,0.0009,0.0,0.0,0.0,0.0009,0.0,0.0,0.0,0.004096,2
1671466462683286704,55882,1671466462682726729,gps,2,1,42.3002341817,-83.6985893156,271.181854248,0.0009,0.0,0.0,0.0,0.0009,0.0,0.0,0.0,0.004096,2
1671466462703165832,55883,1671466462702661842,gps,2,1,42.3002341825,-83.6985893161,271.181884766,0.001156,0.0,0.0,0.0,0.001156,0.0,0.0,0.0,0.004356,2
1671466462723214721,55884,1671466462722679960,gps,2,1,42.3002341804,-83.6985893144,271.181884766,0.001156,0.0,0.0,0.0,0.001156,0.0,0.0,0.0,0.004356,2
1671466462743194394,55885,1671466462742729965,gps,2,1,42.3002341812,-83.6985893149,271.181884766,0.001156,0.0,0.0,0.0,0.001156,0.0,0.0,0.0,0.004356,2
1671466462763092401,55886,1671466462762643120,gps,2,1,42.3002341818,-83.6985893153,271.181884766,0.001156,0.0,0.0,0.0,0.001156,0.0,0.0,0.0,0.004356,2
1671466462783178596,55887,1671466462782755478,gps,2,1,42.3002341797,-83.6985893138,271.181884766,0.001156,0.0,0.0,0.0,0.001156,0.0,0.0,0.0,0.004356,2
1671466462803208320,55888,1671466462802700824,gps,2,1,42.300234181,-83.698589315,271.181884766,0.001156,0.0,0.0,0.0,0.001156,0.0,0.0,0.0,0.004356,2
1671466462823019015,55889,1671466462822636077,gps,2,1,42.3002341821,-83.698589316,271.181854248,0.001156,0.0,0.0,0.0,0.001156,0.0,0.0,0.0,0.004356,2
1671466462843111133,55890,1671466462842629481,gps,2,1,42.30023418,-83.6985893145,271.181884766,0.001156,0.0,0.0,0.0,0.001156,0.0,0.0,0.0,0.004356,2
1671466462863016857,55891,1671466462862629555,gps,2,1,42.3002341811,-83.6985893154,271.181884766,0.001156,0.0,0.0,0.0,0.001156,0.0,0.0,0.0,0.004356,2
1671466462883127162,55892,1671466462882650915,gps,2,1,42.3002341821,-83.6985893161,271.181884766,0.001156,0.0,0.0,0.0,0.001156,0.0,0.0,0.0,0.004356,2
1671466462903193556,55893,1671466462902720452,gps,2,1,42.3002341799,-83.6985893145,271.181884766,0.001156,0.0,0.0,0.0,0.001156,0.0,0.0,0.0,0.004356,2
1671466462923071323,55894,1671466462922663849,gps,2,1,42.3002341812,-83.6985893149,271.181915283,0.001156,0.0,0.0,0.0,0.001156,0.0,0.0,0.0,0.004356,2
1671466462943161703,55895,1671466462942679431,gps,2,1,42.3002341825,-83.6985893153,271.181945801,0.001156,0.0,0.0,0.0,0.001156,0.0,0.0,0.0,0.004356,2
1671466462963218306,55896,1671466462962744529,gps,2,1,42.3002341803,-83.6985893135,271.181945801,0.001156,0.0,0.0,0.0,0.001156,0.0,0.0,0.0,0.004356,2
1671466462983149404,55897,1671466462982666315,gps,2,1,42.3002341813,-83.6985893137,271.181945801,0.001156,0.0,0.0,0.0,0.001156,0.0,0.0,0.0,0.004356,2
1671466463003207182,55898,1671466463002693330,gps,2,1,42.3002341822,-83.6985893138,271.181976318,0.001156,0.0,0.0,0.0,0.001156,0.0,0.0,0.0,0.004356,2
1671466463023253650,55899,1671466463022825056,gps,2,1,42.30023418,-83.6985893121,271.181976318,0.001156,0.0,0.0,0.0,0.001156,0.0,0.0,0.0,0.004356,2
1671466463043157084,55900,1671466463042737100,gps,2,1,42.3002341804,-83.6985893124,271.181976318,0.001156,0.0,0.0,0.0,0.001156,0.0,0.0,0.0,0.004356,2
1671466463063158030,55901,1671466463062694850,gps,2,1,42.3002341816,-83.6985893134,271.182037354,0.001156,0.0,0.0,0.0,0.001156,0.0,0.0,0.0,0.004356,2
1671466463083313231,55902,1671466463082792791,gps,2,1,42.3002341794,-83.6985893117,271.182037354,0.001156,0.0,0.0,0.0,0.001156,0.0,0.0,0.0,0.004356,2
1671466463103361203,55903,1671466463102866505,gps,2,1,42.3002341804,-83.6985893134,271.182098389,0.001156,0.0,0.0,0.0,0.001156,0.0,0.0,0.0,0.004356,2
1671466463123143655,55904,1671466463122700271,gps,2,1,42.3002341812,-83.698589315,271.182128906,0.001156,0.0,0.0,0.0,0.001156,0.0,0.0,0.0,0.004356,2
1671466463143171280,55905,1671466463142692897,gps,2,1,42.3002341791,-83.6985893133,271.182159424,0.001156,0.0,0.0,0.0,0.001156,0.0,0.0,0.0,0.004356,2
1671466463163171771,55906,1671466463162746526,gps,2,1,42.3002341799,-83.6985893149,271.182189941,0.001156,0.0,0.0,0.0,0.001156,0.0,0.0,0.0,0.004356,2
1671466463183126216,55907,1671466463182663443,gps,2,1,42.3002341812,-83.6985893153,271.182220459,0.001156,0.0,0.0,0.0,0.001156,0.0,0.0,0.0,0.004356,2
1671466463203083453,55908,1671466463202664421,gps,2,1,42.3002341791,-83.6985893136,271.182220459,0.001156,0.0,0.0,0.0,0.001156,0.0,0.0,0.0,0.004356,2
1671466463223221824,55909,1671466463222670095,gps,2,1,42.3002341803,-83.6985893139,271.182250977,0.001156,0.0,0.0,0.0,0.001156,0.0,0.0,0.0,0.004356,2
1671466463243170540,55910,1671466463242674296,gps,2,1,42.3002341814,-83.6985893142,271.182281494,0.001156,0.0,0.0,0.0,0.001156,0.0,0.0,0.0,0.004356,2
1671466463263266091,55911,1671466463262736591,gps,2,1,42.3002341793,-83.6985893124,271.182281494,0.001156,0.0,0.0,0.0,0.001156,0.0,0.0,0.0,0.004356,2
1671466463283259549,55912,1671466463282750206,gps,2,1,42.3002341802,-83.6985893124,271.182312012,0.001156,0.0,0.0,0.0,0.001156,0.0,0.0,0.0,0.004356,2
1671466463303094348,55913,1671466463302640093,gps,2,1,42.3002341801,-83.6985893133,271.182312012,0.001156,0.0,0.0,0.0,0.001156,0.0,0.0,0.0,0.004356,2
1671466463323143436,55914,1671466463322690617,gps,2,1,42.300234178,-83.6985893115,271.182342529,0.001156,0.0,0.0,0.0,0.001156,0.0,0.0,0.0,0.004356,2
1671466463343053904,55915,1671466463342609616,gps,2,1,42.3002341777,-83.6985893121,271.182373047,0.001156,0.0,0.0,0.0,0.001156,0.0,0.0,0.0,0.004356,2
1671466463363097411,55916,1671466463362631691,gps,2,1,42.3002341774,-83.6985893127,271.182403564,0.001156,0.0,0.0,0.0,0.001156,0.0,0.0,0.0,0.004356,2
1671466463383189810,55917,1671466463382709801,gps,2,1,42.3002341753,-83.6985893109,271.182434082,0.001156,0.0,0.0,0.0,0.001156,0.0,0.0,0.0,0.004356,2
1671466463403062089,55918,1671466463402604220,gps,2,1,42.3002341748,-83.6985893114,271.1824646,0.001156,0.0,0.0,0.0,0.001156,0.0,0.0,0.0,0.004356,2
1671466463423143380,55919,1671466463422675915,gps,2,1,42.3002341759,-83.6985893115,271.1824646,0.001156,0.0,0.0,0.0,0.001156,0.0,0.0,0.0,0.004356,2
1671466463443100016,55920,1671466463442701891,gps,2,1,42.3002341737,-83.6985893098,271.1824646,0.001156,0.0,0.0,0.0,0.001156,0.0,0.0,0.0,0.004356,2
1671466463463097768,55921,1671466463462635035,gps,2,1,42.3002341747,-83.6985893098,271.182495117,0.001156,0.0,0.0,0.0,0.001156,0.0,0.0,0.0,0.004356,2
1671466463483082448,55922,1671466463482658363,gps,2,1,42.3002341756,-83.6985893098,271.182495117,0.001156,0.0,0.0,0.0,0.001156,0.0,0.0,0.0,0.004356,2
1671466463503121846,55923,1671466463502690212,gps,2,1,42.3002341735,-83.6985893082,271.182495117,0.001156,0.0,0.0,0.0,0.001156,0.0,0.0,0.0,0.004356,2
1671466463523147276,55924,1671466463522734455,gps,2,1,42.3002341739,-83.6985893089,271.182556152,0.001156,0.0,0.0,0.0,0.001156,0.0,0.0,0.0,0.004356,2
1671466463543234889,55925,1671466463542671974,gps,2,1,42.300234175,-83.69858931,271.182617188,0.001156,0.0,0.0,0.0,0.001156,0.0,0.0,0.0,0.004356,2
1671466463563233514,55926,1671466463562801277,gps,2,1,42.300234173,-83.6985893083,271.182617188,0.001156,0.0,0.0,0.0,0.001156,0.0,0.0,0.0,0.004356,2
1671466463583154929,55927,1671466463582724341,gps,2,1,42.3002341743,-83.698589309,271.182678223,0.001156,0.0,0.0,0.0,0.001156,0.0,0.0,0.0,0.004356,2
1671466463603316682,55928,1671466463602800208,gps,2,1,42.3002341756,-83.6985893096,271.18270874,0.001156,0.0,0.0,0.0,0.001156,0.0,0.0,0.0,0.004356,2
1671466463623275749,55929,1671466463622785222,gps,2,1,42.3002341735,-83.6985893077,271.182739258,0.001156,0.0,0.0,0.0,0.001156,0.0,0.0,0.0,0.004356,2
1671466463643132331,55930,1671466463642728269,gps,2,1,42.3002341746,-83.6985893081,271.182769775,0.001156,0.0,0.0,0.0,0.001156,0.0,0.0,0.0,0.004356,2
1671466463663115588,55931,1671466463662627359,gps,2,1,42.3002341756,-83.6985893084,271.182830811,0.001156,0.0,0.0,0.0,0.001156,0.0,0.0,0.0,0.004356,2
1671466463683229968,55932,1671466463682748353,gps,2,1,42.3002341735,-83.6985893064,271.182830811,0.001156,0.0,0.0,0.0,0.001156,0.0,0.0,0.0,0.004356,2
1671466463703017548,55933,1671466463702626151,gps,2,1,42.3002341743,-83.6985893066,271.182891846,0.001156,0.0,0.0,0.0,0.001156,0.0,0.0,0.0,0.004356,2
1671466463723140721,55934,1671466463722668847,gps,2,1,42.3002341751,-83.698589307,271.182952881,0.001156,0.0,0.0,0.0,0.001156,0.0,0.0,0.0,0.004356,2
1671466463743139681,55935,1671466463742695940,gps,2,1,42.300234173,-83.698589305,271.182952881,0.001156,0.0,0.0,0.0,0.001156,0.0,0.0,0.0,0.004356,2
1671466463763105659,55936,1671466463762639544,gps,2,1,42.3002341736,-83.6985893055,271.183013916,0.001156,0.0,0.0,0.0,0.001156,0.0,0.0,0.0,0.004356,2
1671466463783180203,55937,1671466463782765554,gps,2,1,42.3002341742,-83.6985893058,271.183074951,0.001156,0.0,0.0,0.0,0.001156,0.0,0.0,0.0,0.004356,2
1671466463803267101,55938,1671466463802762656,gps,2,1,42.3002341721,-83.6985893039,271.183105469,0.001156,0.0,0.0,0.0,0.001156,0.0,0.0,0.0,0.004356,2
1671466463823191823,55939,1671466463822657483,gps,2,1,42.300234173,-83.6985893052,271.183135986,0.001156,0.0,0.0,0.0,0.001156,0.0,0.0,0.0,0.004356,2
1671466463843149153,55940,1671466463842681332,gps,2,1,42.3002341737,-83.6985893063,271.183197021,0.001156,0.0,0.0,0.0,0.001156,0.0,0.0,0.0,0.004356,2
1671466463863243992,55941,1671466463862693678,gps,2,1,42.3002341717,-83.6985893046,271.183197021,0.001156,0.0,0.0,0.0,0.001156,0.0,0.0,0.0,0.004356,2
1671466463883118937,55942,1671466463882686093,gps,2,1,42.3002341724,-83.6985893057,271.183227539,0.001156,0.0,0.0,0.0,0.001156,0.0,0.0,0.0,0.004356,2
1671466463903155290,55943,1671466463902663591,gps,2,1,42.300234173,-83.6985893067,271.183288574,0.001156,0.0,0.0,0.0,0.001156,0.0,0.0,0.0,0.004356,2
1671466463923330779,55944,1671466463922742506,gps,2,1,42.300234171,-83.6985893049,271.183288574,0.001156,0.0,0.0,0.0,0.001156,0.0,0.0,0.0,0.004356,2
1671466463943082630,55945,1671466463942662435,gps,2,1,42.3002341719,-83.698589305,271.183319092,0.001156,0.0,0.0,0.0,0.001156,0.0,0.0,0.0,0.004356,2
1671466463963252509,55946,1671466463962686699,gps,2,1,42.3002341727,-83.698589305,271.183349609,0.001156,0.0,0.0,0.0,0.001156,0.0,0.0,0.0,0.004356,2
1671466463983124400,55947,1671466463982721364,gps,2,1,42.3002341706,-83.6985893031,271.183380127,0.001156,0.0,0.0,0.0,0.001156,0.0,0.0,0.0,0.004356,2
1671466464003260054,55948,1671466464002727429,gps,2,1,42.3002341717,-83.6985893031,271.183380127,0.001156,0.0,0.0,0.0,0.001156,0.0,0.0,0.0,0.004356,2
1671466464023124939,55949,1671466464022671777,gps,2,1,42.3002341726,-83.698589303,271.183410645,0.001156,0.0,0.0,0.0,0.001156,0.0,0.0,0.0,0.004356,2
1671466464043289255,55950,1671466464042824226,gps,2,1,42.3002341705,-83.698589301,271.183410645,0.001156,0.0,0.0,0.0,0.001156,0.0,0.0,0.0,0.004356,2
1671466464063218139,55951,1671466464062744165,gps,2,1,42.3002341713,-83.6985893008,271.183441162,0.001156,0.0,0.0,0.0,0.001156,0.0,0.0,0.0,0.004356,2
1671466464083172230,55952,1671466464082774527,gps,2,1,42.3002341729,-83.698589301,271.183410645,0.001156,0.0,0.0,0.0,0.001156,0.0,0.0,0.0,0.004356,2
1671466464103357412,55953,1671466464102841403,gps,2,1,42.3002341708,-83.698589299,271.183441162,0.001156,0.0,0.0,0.0,0.001156,0.0,0.0,0.0,0.004356,2
1671466464123124287,55954,1671466464122727246,gps,2,1,42.3002341723,-83.6985892994,271.183410645,0.001156,0.0,0.0,0.0,0.001156,0.0,0.0,0.0,0.004356,2
1671466464143139144,55955,1671466464142690369,gps,2,1,42.3002341738,-83.6985892997,271.183410645,0.001156,0.0,0.0,0.0,0.001156,0.0,0.0,0.0,0.004356,2
1671466464163157305,55956,1671466464162741650,gps,2,1,42.3002341718,-83.6985892977,271.183441162,0.001156,0.0,0.0,0.0,0.001156,0.0,0.0,0.0,0.004356,2
1671466464183092992,55957,1671466464182698460,gps,2,1,42.3002341731,-83.6985892981,271.183441162,0.001156,0.0,0.0,0.0,0.001156,0.0,0.0,0.0,0.004356,2
1671466464203123359,55958,1671466464202686030,gps,2,1,42.3002341744,-83.6985892991,271.183441162,0.001156,0.0,0.0,0.0,0.001156,0.0,0.0,0.0,0.004356,2
1671466464223289392,55959,1671466464222745220,gps,2,1,42.3002341724,-83.6985892972,271.183441162,0.001156,0.0,0.0,0.0,0.001156,0.0,0.0,0.0,0.004356,2
1671466464243225714,55960,1671466464242695553,gps,2,1,42.3002341736,-83.6985892982,271.183441162,0.001156,0.0,0.0,0.0,0.001156,0.0,0.0,0.0,0.004356,2
1671466464263220225,55961,1671466464262692705,gps,2,1,42.3002341747,-83.6985892991,271.183441162,0.001156,0.0,0.0,0.0,0.001156,0.0,0.0,0.0,0.004356,2
1671466464283262031,55962,1671466464282840218,gps,2,1,42.3002341727,-83.6985892973,271.18347168,0.001156,0.0,0.0,0.0,0.001156,0.0,0.0,0.0,0.004356,2
1671466464303206841,55963,1671466464302674145,gps,2,1,42.3002341737,-83.6985892981,271.18347168,0.001156,0.0,0.0,0.0,0.001156,0.0,0.0,0.0,0.004356,2
1671466464323099813,55964,1671466464322664993,gps,2,1,42.3002341741,-83.6985892984,271.183441162,0.001156,0.0,0.0,0.0,0.001156,0.0,0.0,0.0,0.004356,2
1671466464343262880,55965,1671466464342765241,gps,2,1,42.3002341721,-83.6985892965,271.18347168,0.001156,0.0,0.0,0.0,0.001156,0.0,0.0,0.0,0.004356,2
1671466464363155421,55966,1671466464362698081,gps,2,1,42.3002341724,-83.6985892966,271.183441162,0.001156,0.0,0.0,0.0,0.001156,0.0,0.0,0.0,0.004356,2
1671466464383182854,55967,1671466464382670062,gps,2,1,42.3002341727,-83.6985892967,271.183410645,0.001156,0.0,0.0,0.0,0.001156,0.0,0.0,0.0,0.004356,2
1671466464403174914,55968,1671466464402688707,gps,2,1,42.3002341706,-83.6985892947,271.183441162,0.001156,0.0,0.0,0.0,0.001156,0.0,0.0,0.0,0.004356,2
1671466464423242786,55969,1671466464422773224,gps,2,1,42.3002341711,-83.6985892951,271.18347168,0.001156,0.0,0.0,0.0,0.001156,0.0,0.0,0.0,0.004356,2
1671466464443162598,55970,1671466464442684697,gps,2,1,42.3002341714,-83.6985892955,271.183502197,0.001156,0.0,0.0,0.0,0.001156,0.0,0.0,0.0,0.004356,2
1671466464463166188,55971,1671466464462740559,gps,2,1,42.3002341693,-83.6985892935,271.183502197,0.001156,0.0,0.0,0.0,0.001156,0.0,0.0,0.0,0.004356,2
1671466464483081657,55972,1671466464482673220,gps,2,1,42.3002341696,-83.6985892938,271.183532715,0.001156,0.0,0.0,0.0,0.001156,0.0,0.0,0.0,0.004356,2
1671466464503200993,55973,1671466464502695683,gps,2,1,42.3002341701,-83.6985892939,271.183532715,0.001156,0.0,0.0,0.0,0.001156,0.0,0.0,0.0,0.004356,2
1671466464523284266,55974,1671466464522804154,gps,2,1,42.3002341681,-83.6985892919,271.183532715,0.001156,0.0,0.0,0.0,0.001156,0.0,0.0,0.0,0.004356,2
1671466464543303590,55975,1671466464542797695,gps,2,1,42.3002341686,-83.698589292,271.183532715,0.001156,0.0,0.0,0.0,0.001156,0.0,0.0,0.0,0.004356,2
1671466464563199228,55976,1671466464562762937,gps,2,1,42.3002341697,-83.6985892927,271.183502197,0.001156,0.0,0.0,0.0,0.001156,0.0,0.0,0.0,0.004356,2
1671466464583263894,55977,1671466464582757714,gps,2,1,42.3002341677,-83.6985892908,271.183502197,0.001156,0.0,0.0,0.0,0.001156,0.0,0.0,0.0,0.004356,2
1671466464603345816,55978,1671466464602805929,gps,2,1,42.3002341688,-83.6985892915,271.18347168,0.001156,0.0,0.0,0.0,0.001156,0.0,0.0,0.0,0.004356,2
1671466464623162797,55979,1671466464622729515,gps,2,1,42.3002341697,-83.6985892917,271.18347168,0.001156,0.0,0.0,0.0,0.001156,0.0,0.0,0.0,0.004356,2
1671466464643211167,55980,1671466464642746796,gps,2,1,42.3002341676,-83.6985892898,271.18347168,0.001156,0.0,0.0,0.0,0.001156,0.0,0.0,0.0,0.004356,2
1671466464663120364,55981,1671466464662658968,gps,2,1,42.3002341684,-83.6985892901,271.18347168,0.001156,0.0,0.0,0.0,0.001156,0.0,0.0,0.0,0.004356,2
1671466464683292683,55982,1671466464682835403,gps,2,1,42.300234169,-83.6985892902,271.183441162,0.001156,0.0,0.0,0.0,0.001156,0.0,0.0,0.0,0.004356,2
1671466464703251770,55983,1671466464702762014,gps,2,1,42.3002341669,-83.6985892883,271.18347168,0.001156,0.0,0.0,0.0,0.001156,0.0,0.0,0.0,0.004356,2
1671466464723146922,55984,1671466464722731557,gps,2,1,42.300234168,-83.6985892891,271.183441162,0.001156,0.0,0.0,0.0,0.001156,0.0,0.0,0.0,0.004356,2
1671466464743059428,55985,1671466464742661502,gps,2,1,42.3002341689,-83.6985892898,271.183410645,0.001156,0.0,0.0,0.0,0.001156,0.0,0.0,0.0,0.004356,2
1671466464763096384,55986,1671466464762742143,gps,2,1,42.3002341668,-83.6985892879,271.183410645,0.001156,0.0,0.0,0.0,0.001156,0.0,0.0,0.0,0.004356,2
1671466464783159111,55987,1671466464782753339,gps,2,1,42.3002341676,-83.6985892885,271.183380127,0.001156,0.0,0.0,0.0,0.001156,0.0,0.0,0.0,0.004356,2
1671466464803090199,55988,1671466464802672666,gps,2,1,42.3002341686,-83.698589289,271.183349609,0.001156,0.0,0.0,0.0,0.001156,0.0,0.0,0.0,0.004356,2
1671466464823253315,55989,1671466464822740934,gps,2,1,42.3002341666,-83.698589287,271.183380127,0.001156,0.0,0.0,0.0,0.001156,0.0,0.0,0.0,0.004356,2
1671466464843109390,55990,1671466464842670996,gps,2,1,42.3002341676,-83.6985892874,271.183349609,0.001156,0.0,0.0,0.0,0.001156,0.0,0.0,0.0,0.004356,2
1671466464863138827,55991,1671466464862673480,gps,2,1,42.3002341685,-83.6985892877,271.183349609,0.001156,0.0,0.0,0.0,0.001156,0.0,0.0,0.0,0.004356,2
1671466464883225170,55992,1671466464882718991,gps,2,1,42.3002341665,-83.6985892857,271.183349609,0.001156,0.0,0.0,0.0,0.001156,0.0,0.0,0.0,0.004356,2
1671466464903293033,55993,1671466464902725374,gps,2,1,42.3002341677,-83.6985892865,271.183349609,0.001156,0.0,0.0,0.0,0.001156,0.0,0.0,0.0,0.004356,2
1671466464923261107,55994,1671466464922720655,gps,2,1,42.3002341689,-83.6985892872,271.183349609,0.001156,0.0,0.0,0.0,0.001156,0.0,0.0,0.0,0.004356,2
1671466464943236436,55995,1671466464942716290,gps,2,1,42.3002341669,-83.6985892852,271.183380127,0.001156,0.0,0.0,0.0,0.001156,0.0,0.0,0.0,0.004356,2
1671466464963279982,55996,1671466464962696689,gps,2,1,42.300234168,-83.6985892859,271.183380127,0.001156,0.0,0.0,0.0,0.001156,0.0,0.0,0.0,0.004356,2
1671466464983281097,55997,1671466464982735119,gps,2,1,42.3002341689,-83.6985892865,271.183380127,0.001156,0.0,0.0,0.0,0.001156,0.0,0.0,0.0,0.004356,2
1671466465003255097,55998,1671466465002745285,gps,2,1,42.3002341669,-83.6985892846,271.183380127,0.001156,0.0,0.0,0.0,0.001156,0.0,0.0,0.0,0.004356,2
1671466465023218282,55999,1671466465022789552,gps,2,1,42.3002341684,-83.6985892859,271.183380127,0.001156,0.0,0.0,0.0,0.001156,0.0,0.0,0.0,0.004356,2
1671466465043319791,56000,1671466465042885157,gps,2,1,42.3002341698,-83.6985892872,271.183410645,0.001156,0.0,0.0,0.0,0.001156,0.0,0.0,0.0,0.004356,2
1671466465063271294,56001,1671466465062836060,gps,2,1,42.3002341678,-83.6985892853,271.183410645,0.001156,0.0,0.0,0.0,0.001156,0.0,0.0,0.0,0.004356,2
1671466465083142687,56002,1671466465082685075,gps,2,1,42.3002341699,-83.6985892873,271.183441162,0.001156,0.0,0.0,0.0,0.001156,0.0,0.0,0.0,0.004356,2
1671466465103318406,56003,1671466465102895442,gps,2,1,42.3002341711,-83.698589289,271.183441162,0.001156,0.0,0.0,0.0,0.001156,0.0,0.0,0.0,0.004356,2
1671466465123210651,56004,1671466465122748642,gps,2,1,42.3002341692,-83.6985892872,271.18347168,0.001156,0.0,0.0,0.0,0.001156,0.0,0.0,0.0,0.004356,2
1671466465143245675,56005,1671466465142783140,gps,2,1,42.3002341704,-83.6985892887,271.183502197,0.001156,0.0,0.0,0.0,0.001156,0.0,0.0,0.0,0.004356,2
1671466465163154369,56006,1671466465162726191,gps,2,1,42.3002341715,-83.6985892901,271.183532715,0.001156,0.0,0.0,0.0,0.001156,0.0,0.0,0.0,0.004356,2
1671466465183166331,56007,1671466465182729278,gps,2,1,42.3002341696,-83.6985892882,271.183532715,0.001156,0.0,0.0,0.0,0.001156,0.0,0.0,0.0,0.004356,2
1671466465203190529,56008,1671466465202727820,gps,2,1,42.3002341709,-83.6985892897,271.183532715,0.001156,0.0,0.0,0.0,0.001156,0.0,0.0,0.0,0.004356,2
1671466465223081126,56009,1671466465222682897,gps,2,1,42.3002341721,-83.6985892912,271.183563232,0.001156,0.0,0.0,0.0,0.001156,0.0,0.0,0.0,0.004356,2
1671466465243125820,56010,1671466465242682749,gps,2,1,42.3002341703,-83.6985892892,271.183563232,0.001156,0.0,0.0,0.0,0.001156,0.0,0.0,0.0,0.004356,2
1671466465263245579,56011,1671466465262746823,gps,2,1,42.3002341713,-83.6985892905,271.183563232,0.001156,0.0,0.0,0.0,0.001156,0.0,0.0,0.0,0.004356,2
1671466465283410998,56012,1671466465282895235,gps,2,1,42.3002341724,-83.6985892917,271.183563232,0.001156,0.0,0.0,0.0,0.001156,0.0,0.0,0.0,0.004356,2
1671466465303199795,56013,1671466465302737264,gps,2,1,42.3002341705,-83.6985892897,271.18359375,0.001156,0.0,0.0,0.0,0.001156,0.0,0.0,0.0,0.004356,2
1671466465323548357,56014,1671466465322850018,gps,2,1,42.3002341715,-83.6985892903,271.183624268,0.001156,0.0,0.0,0.0,0.001156,0.0,0.0,0.0,0.004356,2
1671466465343223947,56015,1671466465342724863,gps,2,1,42.3002341724,-83.6985892908,271.183654785,0.001156,0.0,0.0,0.0,0.001156,0.0,0.0,0.0,0.004356,2
1671466465363201489,56016,1671466465362727820,gps,2,1,42.3002341704,-83.6985892889,271.183654785,0.001156,0.0,0.0,0.0,0.001156,0.0,0.0,0.0,0.004356,2
1671466465383169519,56017,1671466465382726285,gps,2,1,42.3002341713,-83.6985892897,271.183654785,0.001156,0.0,0.0,0.0,0.001156,0.0,0.0,0.0,0.004356,2
1671466465403135304,56018,1671466465402696112,gps,2,1,42.300234172,-83.6985892904,271.183654785,0.001156,0.0,0.0,0.0,0.001156,0.0,0.0,0.0,0.004356,2
1671466465423237948,56019,1671466465422776920,gps,2,1,42.3002341701,-83.6985892885,271.183685303,0.001156,0.0,0.0,0.0,0.001156,0.0,0.0,0.0,0.004356,2
1671466465443171952,56020,1671466465442774053,gps,2,1,42.3002341708,-83.6985892892,271.183685303,0.001156,0.0,0.0,0.0,0.001156,0.0,0.0,0.0,0.004356,2
1671466465463147754,56021,1671466465462704971,gps,2,1,42.3002341714,-83.6985892898,271.183685303,0.001156,0.0,0.0,0.0,0.001156,0.0,0.0,0.0,0.004356,2
1671466465483266313,56022,1671466465482773205,gps,2,1,42.3002341694,-83.698589288,271.183685303,0.001156,0.0,0.0,0.0,0.001156,0.0,0.0,0.0,0.004356,2
1671466465503177805,56023,1671466465502720438,gps,2,1,42.3002341703,-83.6985892883,271.183685303,0.001156,0.0,0.0,0.0,0.001156,0.0,0.0,0.0,0.004356,2
1671466465523335532,56024,1671466465522842613,gps,2,1,42.3002341711,-83.6985892886,271.183654785,0.001156,0.0,0.0,0.0,0.001156,0.0,0.0,0.0,0.004356,2
1671466465543374365,56025,1671466465542874924,gps,2,1,42.3002341692,-83.6985892867,271.183685303,0.001156,0.0,0.0,0.0,0.001156,0.0,0.0,0.0,0.004356,2
1671466465563265760,56026,1671466465562805704,gps,2,1,42.3002341706,-83.6985892875,271.183654785,0.001156,0.0,0.0,0.0,0.001156,0.0,0.0,0.0,0.004356,2
1671466465583545614,56027,1671466465582891988,gps,2,1,42.3002341718,-83.6985892882,271.18359375,0.001156,0.0,0.0,0.0,0.001156,0.0,0.0,0.0,0.004356,2
1671466465603457559,56028,1671466465602908106,gps,2,1,42.30023417,-83.6985892863,271.183624268,0.001156,0.0,0.0,0.0,0.001156,0.0,0.0,0.0,0.004356,2
1671466465623178063,56029,1671466465622722849,gps,2,1,42.3002341714,-83.6985892873,271.18359375,0.001156,0.0,0.0,0.0,0.001156,0.0,0.0,0.0,0.004356,2
1671466465643296467,56030,1671466465642818017,gps,2,1,42.3002341727,-83.6985892882,271.183563232,0.001156,0.0,0.0,0.0,0.001156,0.0,0.0,0.0,0.004356,2
1671466465663230613,56031,1671466465662780426,gps,2,1,42.3002341709,-83.6985892862,271.183563232,0.001156,0.0,0.0,0.0,0.001156,0.0,0.0,0.0,0.004356,2
1671466465683317958,56032,1671466465682789032,gps,2,1,42.300234172,-83.698589287,271.183532715,0.001156,0.0,0.0,0.0,0.001156,0.0,0.0,0.0,0.004356,2
1671466465703161251,56033,1671466465702704109,gps,2,1,42.300234173,-83.6985892877,271.183502197,0.001156,0.0,0.0,0.0,0.001156,0.0,0.0,0.0,0.004356,2
1671466465723217124,56034,1671466465722760696,gps,2,1,42.3002341712,-83.6985892858,271.183532715,0.001156,0.0,0.0,0.0,0.001156,0.0,0.0,0.0,0.004356,2
1671466465743234289,56035,1671466465742774052,gps,2,1,42.300234172,-83.6985892864,271.183502197,0.001156,0.0,0.0,0.0,0.001156,0.0,0.0,0.0,0.004356,2
1671466465763197211,56036,1671466465762719941,gps,2,1,42.3002341727,-83.6985892869,271.18347168,0.001156,0.0,0.0,0.0,0.001156,0.0,0.0,0.0,0.004356,2
1671466465783314185,56037,1671466465782867736,gps,2,1,42.3002341708,-83.698589285,271.18347168,0.001156,0.0,0.0,0.0,0.001156,0.0,0.0,0.0,0.004356,2
1671466465803180767,56038,1671466465802775223,gps,2,1,42.3002341719,-83.6985892854,271.18347168,0.001156,0.0,0.0,0.0,0.001156,0.0,0.0,0.0,0.004356,2
1671466465823144003,56039,1671466465822715583,gps,2,1,42.300234173,-83.6985892858,271.18347168,0.001156,0.0,0.0,0.0,0.001156,0.0,0.0,0.0,0.004356,2
1671466465843173699,56040,1671466465842756832,gps,2,1,42.3002341711,-83.6985892839,271.183502197,0.001156,0.0,0.0,0.0,0.001156,0.0,0.0,0.0,0.004356,2
1671466465863208854,56041,1671466465862731958,gps,2,1,42.3002341721,-83.6985892842,271.18347168,0.001156,0.0,0.0,0.0,0.001156,0.0,0.0,0.0,0.004356,2
1671466465883225782,56042,1671466465882750760,gps,2,1,42.300234173,-83.6985892844,271.18347168,0.001156,0.0,0.0,0.0,0.001156,0.0,0.0,0.0,0.004356,2
1671466465903204547,56043,1671466465902773529,gps,2,1,42.3002341712,-83.6985892826,271.18347168,0.001156,0.0,0.0,0.0,0.001156,0.0,0.0,0.0,0.004356,2
1671466465923205457,56044,1671466465922719208,gps,2,1,42.3002341726,-83.6985892839,271.183502197,0.001156,0.0,0.0,0.0,0.001156,0.0,0.0,0.0,0.004356,2
1671466465943117612,56045,1671466465942711197,gps,2,1,42.3002341738,-83.6985892851,271.183502197,0.001156,0.0,0.0,0.0,0.001156,0.0,0.0,0.0,0.004356,2
1671466465963215477,56046,1671466465962805891,gps,2,1,42.300234172,-83.6985892832,271.183532715,0.001156,0.0,0.0,0.0,0.001156,0.0,0.0,0.0,0.004356,2
1671466465983230197,56047,1671466465982722289,gps,2,1,42.3002341731,-83.6985892844,271.183532715,0.001156,0.0,0.0,0.0,0.001156,0.0,0.0,0.0,0.004356,2
1671466466003300957,56048,1671466466002749463,gps,2,1,42.3002341742,-83.6985892853,271.183563232,0.001156,0.0,0.0,0.0,0.001156,0.0,0.0,0.0,0.004356,2
1671466466023213199,56049,1671466466022772587,gps,2,1,42.3002341724,-83.6985892834,271.183563232,0.001156,0.0,0.0,0.0,0.001156,0.0,0.0,0.0,0.004356,2
1671466466043384929,56050,1671466466042863486,gps,2,1,42.3002341729,-83.6985892842,271.183563232,0.001156,0.0,0.0,0.0,0.001156,0.0,0.0,0.0,0.004356,2
1671466466063333317,56051,1671466466062825436,gps,2,1,42.3002341742,-83.6985892856,271.183563232,0.001156,0.0,0.0,0.0,0.001156,0.0,0.0,0.0,0.004356,2
1671466466083228588,56052,1671466466082774759,gps,2,1,42.3002341723,-83.6985892837,271.18359375,0.001156,0.0,0.0,0.0,0.001156,0.0,0.0,0.0,0.004356,2
1671466466103535343,56053,1671466466102983505,gps,2,1,42.3002341741,-83.6985892844,271.183563232,0.001156,0.0,0.0,0.0,0.001156,0.0,0.0,0.0,0.004356,2
1671466466123126342,56054,1671466466122714163,gps,2,1,42.3002341758,-83.6985892851,271.183563232,0.001156,0.0,0.0,0.0,0.001156,0.0,0.0,0.0,0.004356,2
1671466466143188274,56055,1671466466142730406,gps,2,1,42.3002341738,-83.6985892832,271.183563232,0.001156,0.0,0.0,0.0,0.001156,0.0,0.0,0.0,0.004356,2
1671466466163312202,56056,1671466466162834619,gps,2,1,42.3002341753,-83.6985892838,271.183563232,0.001156,0.0,0.0,0.0,0.001156,0.0,0.0,0.0,0.004356,2
1671466466183284792,56057,1671466466182727323,gps,2,1,42.3002341764,-83.698589285,271.183563232,0.001156,0.0,0.0,0.0,0.001156,0.0,0.0,0.0,0.004356,2
1671466466203149652,56058,1671466466202699766,gps,2,1,42.3002341744,-83.6985892831,271.183563232,0.001156,0.0,0.0,0.0,0.001156,0.0,0.0,0.0,0.004356,2
1671466466223273643,56059,1671466466222851299,gps,2,1,42.3002341755,-83.6985892843,271.183563232,0.001156,0.0,0.0,0.0,0.001156,0.0,0.0,0.0,0.004356,2
1671466466243341822,56060,1671466466242727551,gps,2,1,42.3002341764,-83.6985892854,271.183563232,0.001156,0.0,0.0,0.0,0.001156,0.0,0.0,0.0,0.004356,2
1671466466263240438,56061,1671466466262769383,gps,2,1,42.3002341746,-83.6985892836,271.183563232,0.001156,0.0,0.0,0.0,0.001156,0.0,0.0,0.0,0.004356,2
1671466466283494268,56062,1671466466282820740,gps,2,1,42.300234176,-83.6985892842,271.183563232,0.001156,0.0,0.0,0.0,0.001156,0.0,0.0,0.0,0.004356,2
1671466466303240047,56063,1671466466302734408,gps,2,1,42.3002341773,-83.6985892847,271.183563232,0.001156,0.0,0.0,0.0,0.001156,0.0,0.0,0.0,0.004356,2
1671466466323489142,56064,1671466466322796094,gps,2,1,42.3002341756,-83.6985892829,271.18359375,0.001156,0.0,0.0,0.0,0.001156,0.0,0.0,0.0,0.004356,2
1671466466343293714,56065,1671466466342744117,gps,2,1,42.3002341768,-83.6985892833,271.18359375,0.001156,0.0,0.0,0.0,0.001156,0.0,0.0,0.0,0.004356,2
1671466466363211831,56066,1671466466362692344,gps,2,1,42.300234178,-83.6985892837,271.18359375,0.001156,0.0,0.0,0.0,0.001156,0.0,0.0,0.0,0.004356,2
1671466466383281397,56067,1671466466382805574,gps,2,1,42.3002341762,-83.6985892818,271.18359375,0.001156,0.0,0.0,0.0,0.001156,0.0,0.0,0.0,0.004356,2
1671466466403223908,56068,1671466466402714290,gps,2,1,42.3002341773,-83.698589282,271.18359375,0.001156,0.0,0.0,0.0,0.001156,0.0,0.0,0.0,0.004356,2
1671466466423205450,56069,1671466466422745473,gps,2,1,42.3002341784,-83.6985892826,271.183563232,0.001156,0.0,0.0,0.0,0.001156,0.0,0.0,0.0,0.004356,2
1671466466443250215,56070,1671466466442796237,gps,2,1,42.3002341766,-83.6985892807,271.18359375,0.001156,0.0,0.0,0.0,0.001156,0.0,0.0,0.0,0.004356,2
1671466466463209116,56071,1671466466462697518,gps,2,1,42.3002341776,-83.6985892811,271.183563232,0.001156,0.0,0.0,0.0,0.001156,0.0,0.0,0.0,0.004356,2
1671466466483335447,56072,1671466466482723909,gps,2,1,42.3002341784,-83.6985892815,271.183563232,0.001156,0.0,0.0,0.0,0.001156,0.0,0.0,0.0,0.004356,2
1671466466503179142,56073,1671466466502732897,gps,2,1,42.3002341766,-83.6985892796,271.183563232,0.001156,0.0,0.0,0.0,0.001156,0.0,0.0,0.0,0.004356,2
1671466466523174066,56074,1671466466522790362,gps,2,1,42.3002341781,-83.6985892794,271.183563232,0.001156,0.0,0.0,0.0,0.001156,0.0,0.0,0.0,0.004356,2
1671466466543451751,56075,1671466466542926935,gps,2,1,42.3002341805,-83.6985892798,271.183563232,0.001156,0.0,0.0,0.0,0.001156,0.0,0.0,0.0,0.004356,2
1671466466563333205,56076,1671466466562877664,gps,2,1,42.3002341787,-83.6985892779,271.183563232,0.001156,0.0,0.0,0.0,0.001156,0.0,0.0,0.0,0.004356,2
1671466466583272064,56077,1671466466582824396,gps,2,1,42.3002341807,-83.6985892793,271.183563232,0.001156,0.0,0.0,0.0,0.001156,0.0,0.0,0.0,0.004356,2
1671466466603460717,56078,1671466466602845287,gps,2,1,42.3002341825,-83.6985892805,271.183563232,0.001156,0.0,0.0,0.0,0.001156,0.0,0.0,0.0,0.004356,2
1671466466623164912,56079,1671466466622756146,gps,2,1,42.3002341808,-83.6985892787,271.183563232,0.001156,0.0,0.0,0.0,0.001156,0.0,0.0,0.0,0.004356,2
1671466466643224816,56080,1671466466642787698,gps,2,1,42.3002341826,-83.6985892799,271.183563232,0.001156,0.0,0.0,0.0,0.001156,0.0,0.0,0.0,0.004356,2
1671466466663380174,56081,1671466466662901409,gps,2,1,42.3002341842,-83.698589281,271.183563232,0.001156,0.0,0.0,0.0,0.001156,0.0,0.0,0.0,0.004356,2
1671466466683238415,56082,1671466466682792627,gps,2,1,42.3002341826,-83.6985892792,271.183563232,0.001156,0.0,0.0,0.0,0.001156,0.0,0.0,0.0,0.004356,2
1671466466703182521,56083,1671466466702734024,gps,2,1,42.3002341841,-83.6985892802,271.183563232,0.0009,0.0,0.0,0.0,0.0009,0.0,0.0,0.0,0.004096,2
1671466466723264355,56084,1671466466722761268,gps,2,1,42.3002341857,-83.6985892814,271.183532715,0.0009,0.0,0.0,0.0,0.0009,0.0,0.0,0.0,0.004096,2
1671466466743306579,56085,1671466466742766511,gps,2,1,42.300234184,-83.6985892796,271.183563232,0.0009,0.0,0.0,0.0,0.0009,0.0,0.0,0.0,0.004096,2
1671466466763146888,56086,1671466466762696479,gps,2,1,42.3002341855,-83.6985892807,271.183532715,0.0009,0.0,0.0,0.0,0.0009,0.0,0.0,0.0,0.004096,2
1671466466783219921,56087,1671466466782819358,gps,2,1,42.3002341868,-83.6985892816,271.183502197,0.0009,0.0,0.0,0.0,0.0009,0.0,0.0,0.0,0.004096,2
1671466466803225481,56088,1671466466802786775,gps,2,1,42.3002341851,-83.6985892798,271.183532715,0.0009,0.0,0.0,0.0,0.0009,0.0,0.0,0.0,0.004096,2
1671466466823229032,56089,1671466466822741643,gps,2,1,42.3002341866,-83.6985892813,271.183502197,0.0009,0.0,0.0,0.0,0.0009,0.0,0.0,0.0,0.004096,2
1671466466843251756,56090,1671466466842750874,gps,2,1,42.300234188,-83.6985892826,271.183502197,0.0009,0.0,0.0,0.0,0.0009,0.0,0.0,0.0,0.004096,2
1671466466863409176,56091,1671466466862768739,gps,2,1,42.3002341863,-83.6985892808,271.183532715,0.0009,0.0,0.0,0.0,0.0009,0.0,0.0,0.0,0.004096,2
1671466466883230085,56092,1671466466882818657,gps,2,1,42.3002341876,-83.698589282,271.183532715,0.0009,0.0,0.0,0.0,0.0009,0.0,0.0,0.0,0.004096,2
1671466466903269267,56093,1671466466902759922,gps,2,1,42.300234189,-83.698589283,271.183502197,0.0009,0.0,0.0,0.0,0.0009,0.0,0.0,0.0,0.004096,2
1671466466923225408,56094,1671466466922753876,gps,2,1,42.3002341873,-83.6985892812,271.183502197,0.0009,0.0,0.0,0.0,0.0009,0.0,0.0,0.0,0.004096,2
1671466466943276995,56095,1671466466942771897,gps,2,1,42.3002341887,-83.6985892821,271.183502197,0.0009,0.0,0.0,0.0,0.0009,0.0,0.0,0.0,0.004096,2
1671466466963254861,56096,1671466466962756824,gps,2,1,42.3002341899,-83.698589283,271.18347168,0.0009,0.0,0.0,0.0,0.0009,0.0,0.0,0.0,0.004096,2
1671466466983292364,56097,1671466466982794739,gps,2,1,42.3002341883,-83.6985892811,271.18347168,0.0009,0.0,0.0,0.0,0.0009,0.0,0.0,0.0,0.004096,2
1671466467003206464,56098,1671466467002788960,gps,2,1,42.3002341898,-83.6985892824,271.18347168,0.0009,0.0,0.0,0.0,0.0009,0.0,0.0,0.0,0.004096,2
1671466467023262293,56099,1671466467022756846,gps,2,1,42.3002341911,-83.6985892836,271.18347168,0.0009,0.0,0.0,0.0,0.0009,0.0,0.0,0.0,0.004096,2
1671466467043307510,56100,1671466467042892683,gps,2,1,42.3002341896,-83.6985892818,271.183502197,0.0009,0.0,0.0,0.0,0.0009,0.0,0.0,0.0,0.004096,2
1671466467063350597,56101,1671466467062902509,gps,2,1,42.3002341909,-83.6985892829,271.183502197,0.0009,0.0,0.0,0.0,0.0009,0.0,0.0,0.0,0.004096,2
1671466467083225073,56102,1671466467082748216,gps,2,1,42.3002341933,-83.6985892848,271.18347168,0.0009,0.0,0.0,0.0,0.0009,0.0,0.0,0.0,0.004096,2
1671466467103440385,56103,1671466467102948032,gps,2,1,42.3002341918,-83.698589283,271.18347168,0.0009,0.0,0.0,0.0,0.0009,0.0,0.0,0.0,0.004096,2
1671466467123233396,56104,1671466467122750821,gps,2,1,42.3002341941,-83.6985892847,271.183441162,0.0009,0.0,0.0,0.0,0.0009,0.0,0.0,0.0,0.004096,2
1671466467143326593,56105,1671466467142861402,gps,2,1,42.3002341962,-83.6985892863,271.183441162,0.0009,0.0,0.0,0.0,0.0009,0.0,0.0,0.0,0.004096,2
1671466467163366342,56106,1671466467162886562,gps,2,1,42.3002341947,-83.6985892845,271.183441162,0.0009,0.0,0.0,0.0,0.0009,0.0,0.0,0.0,0.004096,2
1671466467183183280,56107,1671466467182706302,gps,2,1,42.3002341967,-83.6985892859,271.183410645,0.0009,0.0,0.0,0.0,0.0009,0.0,0.0,0.0,0.004096,2
1671466467203410768,56108,1671466467202811266,gps,2,1,42.3002341988,-83.6985892876,271.183380127,0.0009,0.0,0.0,0.0,0.0009,0.0,0.0,0.0,0.004096,2
1671466467223314897,56109,1671466467222879848,gps,2,1,42.3002341973,-83.6985892858,271.183410645,0.0009,0.0,0.0,0.0,0.0009,0.0,0.0,0.0,0.004096,2
1671466467243210852,56110,1671466467242780732,gps,2,1,42.3002341993,-83.6985892873,271.183380127,0.0009,0.0,0.0,0.0,0.0009,0.0,0.0,0.0,0.004096,2
1671466467263248478,56111,1671466467262767937,gps,2,1,42.3002342012,-83.6985892888,271.183349609,0.0009,0.0,0.0,0.0,0.0009,0.0,0.0,0.0,0.004096,2
1671466467283355810,56112,1671466467282889594,gps,2,1,42.3002341997,-83.698589287,271.183349609,0.0009,0.0,0.0,0.0,0.0009,0.0,0.0,0.0,0.004096,2
1671466467303242891,56113,1671466467302780775,gps,2,1,42.3002342018,-83.6985892875,271.183319092,0.0009,0.0,0.0,0.0,0.0009,0.0,0.0,0.0,0.004096,2
1671466467323219025,56114,1671466467322748532,gps,2,1,42.3002342037,-83.698589288,271.183258057,0.0009,0.0,0.0,0.0,0.0009,0.0,0.0,0.0,0.004096,2
1671466467343157225,56115,1671466467342756090,gps,2,1,42.3002342023,-83.6985892863,271.183288574,0.0009,0.0,0.0,0.0,0.0009,0.0,0.0,0.0,0.004096,2
1671466467363275719,56116,1671466467362828653,gps,2,1,42.3002342041,-83.6985892867,271.183227539,0.0009,0.0,0.0,0.0,0.0009,0.0,0.0,0.0,0.004096,2
1671466467383236274,56117,1671466467382753668,gps,2,1,42.3002342056,-83.6985892876,271.183258057,0.0009,0.0,0.0,0.0,0.0009,0.0,0.0,0.0,0.004096,2
1671466467403203341,56118,1671466467402736659,gps,2,1,42.3002342042,-83.6985892859,271.183258057,0.0009,0.0,0.0,0.0,0.0009,0.0,0.0,0.0,0.004096,2
1671466467423572617,56119,1671466467422853301,gps,2,1,42.3002342056,-83.6985892867,271.183258057,0.0009,0.0,0.0,0.0,0.0009,0.0,0.0,0.0,0.004096,2
1671466467443211891,56120,1671466467442753402,gps,2,1,42.3002342069,-83.6985892875,271.183258057,0.0009,0.0,0.0,0.0,0.0009,0.0,0.0,0.0,0.004096,2
1671466467463244637,56121,1671466467462774775,gps,2,1,42.3002342056,-83.6985892858,271.183288574,0.0009,0.0,0.0,0.0,0.0009,0.0,0.0,0.0,0.004096,2
1671466467483290776,56122,1671466467482830572,gps,2,1,42.300234208,-83.6985892865,271.183258057,0.0009,0.0,0.0,0.0,0.0009,0.0,0.0,0.0,0.004096,2
1671466467503196170,56123,1671466467502753790,gps,2,1,42.3002342103,-83.6985892872,271.183258057,0.0009,0.0,0.0,0.0,0.0009,0.0,0.0,0.0,0.004096,2
1671466467523464111,56124,1671466467522973381,gps,2,1,42.3002342089,-83.6985892854,271.183258057,0.0009,0.0,0.0,0.0,0.0009,0.0,0.0,0.0,0.004096,2
1671466467543368550,56125,1671466467542903342,gps,2,1,42.3002342121,-83.6985892867,271.183197021,0.0009,0.0,0.0,0.0,0.0009,0.0,0.0,0.0,0.004096,2
1671466467563295803,56126,1671466467562793570,gps,2,1,42.3002342151,-83.6985892879,271.183135986,0.0009,0.0,0.0,0.0,0.0009,0.0,0.0,0.0,0.004096,2
1671466467583307394,56127,1671466467582866988,gps,2,1,42.3002342138,-83.6985892861,271.183135986,0.0009,0.0,0.0,0.0,0.0009,0.0,0.0,0.0,0.004096,2
1671466467603376046,56128,1671466467602907215,gps,2,1,42.3002342164,-83.6985892877,271.183105469,0.0009,0.0,0.0,0.0,0.0009,0.0,0.0,0.0,0.004096,2
1671466467623178667,56129,1671466467622756056,gps,2,1,42.3002342189,-83.6985892893,271.183074951,0.0009,0.0,0.0,0.0,0.0009,0.0,0.0,0.0,0.004096,2
1671466467643293670,56130,1671466467642790211,gps,2,1,42.3002342177,-83.6985892874,271.183105469,0.0009,0.0,0.0,0.0,0.0009,0.0,0.0,0.0,0.004096,2
1671466467663339510,56131,1671466467662867438,gps,2,1,42.3002342202,-83.6985892888,271.183074951,0.0009,0.0,0.0,0.0,0.0009,0.0,0.0,0.0,0.004096,2
1671466467683382428,56132,1671466467682769948,gps,2,1,42.3002342224,-83.6985892894,271.183013916,0.0009,0.0,0.0,0.0,0.0009,0.0,0.0,0.0,0.004096,2
1671466467703311207,56133,1671466467702804524,gps,2,1,42.3002342212,-83.6985892877,271.183013916,0.0009,0.0,0.0,0.0,0.0009,0.0,0.0,0.0,0.004096,2
1671466467723325661,56134,1671466467722839157,gps,2,1,42.3002342233,-83.6985892882,271.182983398,0.0009,0.0,0.0,0.0,0.0009,0.0,0.0,0.0,0.004096,2
1671466467743209941,56135,1671466467742743190,gps,2,1,42.3002342253,-83.6985892886,271.182922363,0.0009,0.0,0.0,0.0,0.0009,0.0,0.0,0.0,0.004096,2
1671466467763191450,56136,1671466467762756830,gps,2,1,42.3002342242,-83.6985892868,271.182952881,0.0009,0.0,0.0,0.0,0.0009,0.0,0.0,0.0,0.004096,2
1671466467783313172,56137,1671466467782853020,gps,2,1,42.3002342263,-83.6985892875,271.182891846,0.0009,0.0,0.0,0.0,0.0009,0.0,0.0,0.0,0.004096,2
1671466467803138328,56138,1671466467802757888,gps,2,1,42.3002342283,-83.698589288,271.182830811,0.0009,0.0,0.0,0.0,0.0009,0.0,0.0,0.0,0.004096,2
1671466467823297607,56139,1671466467822846222,gps,2,1,42.3002342272,-83.6985892862,271.182830811,0.0009,0.0,0.0,0.0,0.0009,0.0,0.0,0.0,0.004096,2
1671466467843145606,56140,1671466467842760185,gps,2,1,42.3002342291,-83.6985892866,271.182800293,0.0009,0.0,0.0,0.0,0.0009,0.0,0.0,0.0,0.004096,2
1671466467863264106,56141,1671466467862764425,gps,2,1,42.3002342309,-83.698589287,271.182739258,0.0009,0.0,0.0,0.0,0.0009,0.0,0.0,0.0,0.004096,2
1671466467883195519,56142,1671466467882796772,gps,2,1,42.3002342298,-83.6985892852,271.182769775,0.0009,0.0,0.0,0.0,0.0009,0.0,0.0,0.0,0.004096,2
1671466467903237518,56143,1671466467902706294,gps,2,1,42.3002342315,-83.6985892855,271.18270874,0.0009,0.0,0.0,0.0,0.0009,0.0,0.0,0.0,0.004096,2
1671466467923137312,56144,1671466467922725259,gps,2,1,42.3002342339,-83.6985892863,271.182678223,0.0009,0.0,0.0,0.0,0.0009,0.0,0.0,0.0,0.004096,2
1671466467943174518,56145,1671466467942774977,gps,2,1,42.3002342328,-83.6985892845,271.182678223,0.0009,0.0,0.0,0.0,0.0009,0.0,0.0,0.0,0.004096,2
1671466467963265727,56146,1671466467962809213,gps,2,1,42.3002342351,-83.6985892852,271.182678223,0.0009,0.0,0.0,0.0,0.0009,0.0,0.0,0.0,0.004096,2
1671466467983348116,56147,1671466467982733843,gps,2,1,42.3002342361,-83.6985892869,271.182647705,0.0009,0.0,0.0,0.0,0.0009,0.0,0.0,0.0,0.004096,2
1671466468003285201,56148,1671466468002803695,gps,2,1,42.3002342351,-83.698589285,271.182678223,0.0009,0.0,0.0,0.0,0.0009,0.0,0.0,0.0,0.004096,2
1671466468023536073,56149,1671466468022916264,gps,2,1,42.300234236,-83.6985892866,271.182647705,0.0009,0.0,0.0,0.0,0.0009,0.0,0.0,0.0,0.004096,2
1671466468043322053,56150,1671466468042864052,gps,2,1,42.3002342376,-83.6985892888,271.182647705,0.0009,0.0,0.0,0.0,0.0009,0.0,0.0,0.0,0.004096,2
1671466468063477035,56151,1671466468062845600,gps,2,1,42.3002342366,-83.698589287,271.182647705,0.0009,0.0,0.0,0.0,0.0009,0.0,0.0,0.0,0.004096,2
1671466468083235652,56152,1671466468082830800,gps,2,1,42.3002342381,-83.6985892891,271.182647705,0.0009,0.0,0.0,0.0,0.0009,0.0,0.0,0.0,0.004096,2
1671466468103540072,56153,1671466468103053881,gps,2,1,42.3002342399,-83.6985892904,271.182647705,0.0009,0.0,0.0,0.0,0.0009,0.0,0.0,0.0,0.004096,2
1671466468123259410,56154,1671466468122782130,gps,2,1,42.300234239,-83.6985892886,271.182647705,0.0009,0.0,0.0,0.0,0.0009,0.0,0.0,0.0,0.004096,2
1671466468143287048,56155,1671466468142869770,gps,2,1,42.3002342407,-83.6985892898,271.182647705,0.0009,0.0,0.0,0.0,0.0009,0.0,0.0,0.0,0.004096,2
1671466468163210386,56156,1671466468162760530,gps,2,1,42.3002342424,-83.698589291,271.182678223,0.0009,0.0,0.0,0.0,0.0009,0.0,0.0,0.0,0.004096,2
1671466468183285523,56157,1671466468182839568,gps,2,1,42.3002342414,-83.6985892892,271.182678223,0.0009,0.0,0.0,0.0,0.0009,0.0,0.0,0.0,0.004096,2
1671466468203200924,56158,1671466468202707975,gps,2,1,42.300234243,-83.6985892902,271.182678223,0.0009,0.0,0.0,0.0,0.0009,0.0,0.0,0.0,0.004096,2
1671466468223240354,56159,1671466468222798003,gps,2,1,42.3002342447,-83.6985892917,271.182647705,0.0009,0.0,0.0,0.0,0.0009,0.0,0.0,0.0,0.004096,2
1671466468243278972,56160,1671466468242855390,gps,2,1,42.3002342438,-83.6985892899,271.182647705,0.0009,0.0,0.0,0.0,0.0009,0.0,0.0,0.0,0.004096,2
1671466468263227355,56161,1671466468262795198,gps,2,1,42.3002342454,-83.6985892913,271.18258667,0.0009,0.0,0.0,0.0,0.0009,0.0,0.0,0.0,0.004096,2
1671466468283439957,56162,1671466468282863498,gps,2,1,42.300234247,-83.6985892926,271.182556152,0.0009,0.0,0.0,0.0,0.0009,0.0,0.0,0.0,0.004096,2
1671466468303299568,56163,1671466468302806472,gps,2,1,42.3002342461,-83.6985892908,271.182556152,0.0009,0.0,0.0,0.0,0.0009,0.0,0.0,0.0,0.004096,2
1671466468323283114,56164,1671466468322841586,gps,2,1,42.3002342469,-83.6985892913,271.182556152,0.0009,0.0,0.0,0.0,0.0009,0.0,0.0,0.0,0.004096,2
1671466468343269842,56165,1671466468342762256,gps,2,1,42.3002342477,-83.6985892917,271.182556152,0.0009,0.0,0.0,0.0,0.0009,0.0,0.0,0.0,0.004096,2
1671466468363352994,56166,1671466468362836685,gps,2,1,42.3002342468,-83.6985892899,271.182556152,0.0009,0.0,0.0,0.0,0.0009,0.0,0.0,0.0,0.004096,2
1671466468383286260,56167,1671466468382853677,gps,2,1,42.3002342482,-83.698589291,271.182525635,0.0009,0.0,0.0,0.0,0.0009,0.0,0.0,0.0,0.004096,2
1671466468403229979,56168,1671466468402785017,gps,2,1,42.3002342495,-83.6985892919,271.182525635,0.0009,0.0,0.0,0.0,0.0009,0.0,0.0,0.0,0.004096,2
1671466468423305423,56169,1671466468422815007,gps,2,1,42.3002342486,-83.6985892901,271.182525635,0.0009,0.0,0.0,0.0,0.0009,0.0,0.0,0.0,0.004096,2
1671466468443327946,56170,1671466468442837820,gps,2,1,42.3002342499,-83.698589291,271.182495117,0.0009,0.0,0.0,0.0,0.0009,0.0,0.0,0.0,0.004096,2
1671466468463258798,56171,1671466468462791095,gps,2,1,42.3002342512,-83.6985892918,271.182495117,0.0009,0.0,0.0,0.0,0.0009,0.0,0.0,0.0,0.004096,2
1671466468483304845,56172,1671466468482815866,gps,2,1,42.3002342503,-83.69858929,271.182495117,0.0009,0.0,0.0,0.0,0.0009,0.0,0.0,0.0,0.004096,2
1671466468503276343,56173,1671466468502837666,gps,2,1,42.3002342515,-83.6985892907,271.1824646,0.0009,0.0,0.0,0.0,0.0009,0.0,0.0,0.0,0.004096,2
1671466468523395820,56174,1671466468522921399,gps,2,1,42.3002342524,-83.6985892914,271.182434082,0.0009,0.0,0.0,0.0,0.0009,0.0,0.0,0.0,0.004096,2
1671466468543450939,56175,1671466468542850988,gps,2,1,42.3002342516,-83.6985892896,271.1824646,0.0009,0.0,0.0,0.0,0.0009,0.0,0.0,0.0,0.004096,2
1671466468563248492,56176,1671466468562876064,gps,2,1,42.300234253,-83.698589291,271.182403564,0.0009,0.0,0.0,0.0,0.0009,0.0,0.0,0.0,0.004096,2
1671466468583347405,56177,1671466468582875973,gps,2,1,42.3002342544,-83.6985892922,271.182373047,0.0009,0.0,0.0,0.0,0.0009,0.0,0.0,0.0,0.004096,2
1671466468603370435,56178,1671466468602872934,gps,2,1,42.3002342536,-83.6985892905,271.182373047,0.0009,0.0,0.0,0.0,0.0009,0.0,0.0,0.0,0.004096,2
1671466468623285310,56179,1671466468622825618,gps,2,1,42.3002342551,-83.6985892918,271.182342529,0.0009,0.0,0.0,0.0,0.0009,0.0,0.0,0.0,0.004096,2
1671466468643230865,56180,1671466468642790307,gps,2,1,42.3002342564,-83.6985892931,271.182281494,0.0009,0.0,0.0,0.0,0.0009,0.0,0.0,0.0,0.004096,2
1671466468663404682,56181,1671466468662750883,gps,2,1,42.3002342557,-83.6985892913,271.182312012,0.0009,0.0,0.0,0.0,0.0009,0.0,0.0,0.0,0.004096,2
1671466468683352881,56182,1671466468682794130,gps,2,1,42.300234257,-83.6985892924,271.182250977,0.0009,0.0,0.0,0.0,0.0009,0.0,0.0,0.0,0.004096,2
1671466468703233008,56183,1671466468702827625,gps,2,1,42.3002342582,-83.6985892934,271.182220459,0.001156,0.0,0.0,0.0,0.001156,0.0,0.0,0.0,0.004356,2
1671466468723448968,56184,1671466468722878934,gps,2,1,42.3002342574,-83.6985892917,271.182250977,0.001156,0.0,0.0,0.0,0.001156,0.0,0.0,0.0,0.004356,2
1671466468743343369,56185,1671466468742797068,gps,2,1,42.30023426,-83.6985892929,271.182189941,0.001156,0.0,0.0,0.0,0.001156,0.0,0.0,0.0,0.004356,2
1671466468763353938,56186,1671466468762795529,gps,2,1,42.3002342625,-83.698589294,271.182159424,0.001156,0.0,0.0,0.0,0.001156,0.0,0.0,0.0,0.004356,2
1671466468783514589,56187,1671466468782919605,gps,2,1,42.3002342618,-83.6985892922,271.182189941,0.001156,0.0,0.0,0.0,0.001156,0.0,0.0,0.0,0.004356,2
1671466468803426200,56188,1671466468802877945,gps,2,1,42.3002342638,-83.6985892936,271.182159424,0.001156,0.0,0.0,0.0,0.001156,0.0,0.0,0.0,0.004356,2
1671466468823243994,56189,1671466468822776823,gps,2,1,42.3002342657,-83.6985892948,271.182128906,0.001156,0.0,0.0,0.0,0.001156,0.0,0.0,0.0,0.004356,2
1671466468843273653,56190,1671466468842794638,gps,2,1,42.300234265,-83.6985892931,271.182128906,0.001156,0.0,0.0,0.0,0.001156,0.0,0.0,0.0,0.004356,2
1671466468863343275,56191,1671466468862843885,gps,2,1,42.3002342669,-83.6985892942,271.182098389,0.001156,0.0,0.0,0.0,0.001156,0.0,0.0,0.0,0.004356,2
1671466468883291734,56192,1671466468882805165,gps,2,1,42.3002342685,-83.6985892956,271.182098389,0.001156,0.0,0.0,0.0,0.001156,0.0,0.0,0.0,0.004356,2
1671466468903268043,56193,1671466468902756297,gps,2,1,42.3002342679,-83.6985892938,271.182098389,0.001156,0.0,0.0,0.0,0.001156,0.0,0.0,0.0,0.004356,2
1671466468923363050,56194,1671466468922832899,gps,2,1,42.3002342695,-83.6985892951,271.182067871,0.001156,0.0,0.0,0.0,0.001156,0.0,0.0,0.0,0.004356,2
1671466468943246247,56195,1671466468942813416,gps,2,1,42.3002342711,-83.6985892962,271.182067871,0.001156,0.0,0.0,0.0,0.001156,0.0,0.0,0.0,0.004356,2
1671466468963221918,56196,1671466468962820789,gps,2,1,42.3002342705,-83.6985892945,271.182067871,0.001156,0.0,0.0,0.0,0.001156,0.0,0.0,0.0,0.004356,2
1671466468983189548,56197,1671466468982774026,gps,2,1,42.300234272,-83.6985892956,271.182037354,0.001156,0.0,0.0,0.0,0.001156,0.0,0.0,0.0,0.004356,2
1671466469003202142,56198,1671466469002777135,gps,2,1,42.3002342742,-83.698589297,271.182006836,0.001156,0.0,0.0,0.0,0.001156,0.0,0.0,0.0,0.004356,2
1671466469023442033,56199,1671466469022948562,gps,2,1,42.3002342737,-83.6985892953,271.182006836,0.001156,0.0,0.0,0.0,0.001156,0.0,0.0,0.0,0.004356,2
1671466469043303449,56200,1671466469042859266,gps,2,1,42.3002342758,-83.6985892966,271.181945801,0.001156,0.0,0.0,0.0,0.001156,0.0,0.0,0.0,0.004356,2
1671466469063291601,56201,1671466469062859026,gps,2,1,42.3002342787,-83.6985892989,271.181854248,0.001156,0.0,0.0,0.0,0.001156,0.0,0.0,0.0,0.004356,2
1671466469083438320,56202,1671466469082942787,gps,2,1,42.3002342783,-83.6985892972,271.181854248,0.001156,0.0,0.0,0.0,0.001156,0.0,0.0,0.0,0.004356,2
1671466469103263897,56203,1671466469102860564,gps,2,1,42.3002342812,-83.6985892992,271.181762695,0.001156,0.0,0.0,0.0,0.001156,0.0,0.0,0.0,0.004356,2
1671466469123229478,56204,1671466469122830325,gps,2,1,42.3002342839,-83.6985893014,271.181671143,0.001156,0.0,0.0,0.0,0.001156,0.0,0.0,0.0,0.004356,2
1671466469143417697,56205,1671466469142920568,gps,2,1,42.3002342834,-83.6985892997,271.181671143,0.001156,0.0,0.0,0.0,0.001156,0.0,0.0,0.0,0.004356,2
1671466469163320109,56206,1671466469162849424,gps,2,1,42.3002342861,-83.6985893017,271.18157959,0.001156,0.0,0.0,0.0,0.001156,0.0,0.0,0.0,0.004356,2
1671466469183193971,56207,1671466469182809379,gps,2,1,42.3002342881,-83.698589304,271.181518555,0.001156,0.0,0.0,0.0,0.001156,0.0,0.0,0.0,0.004356,2
1671466469203258861,56208,1671466469202782679,gps,2,1,42.3002342877,-83.6985893023,271.181518555,0.001156,0.0,0.0,0.0,0.001156,0.0,0.0,0.0,0.004356,2
1671466469223337511,56209,1671466469222881292,gps,2,1,42.3002342896,-83.6985893045,271.18145752,0.001156,0.0,0.0,0.0,0.001156,0.0,0.0,0.0,0.004356,2
1671466469243251289,56210,1671466469242799609,gps,2,1,42.3002342915,-83.6985893066,271.181396484,0.001156,0.0,0.0,0.0,0.001156,0.0,0.0,0.0,0.004356,2
1671466469263293584,56211,1671466469262833154,gps,2,1,42.3002342911,-83.6985893049,271.181396484,0.001156,0.0,0.0,0.0,0.001156,0.0,0.0,0.0,0.004356,2
1671466469283420797,56212,1671466469282953826,gps,2,1,42.3002342935,-83.6985893061,271.181304932,0.001156,0.0,0.0,0.0,0.001156,0.0,0.0,0.0,0.004356,2
1671466469303214616,56213,1671466469302737550,gps,2,1,42.3002342957,-83.6985893073,271.181213379,0.001156,0.0,0.0,0.0,0.001156,0.0,0.0,0.0,0.004356,2
1671466469323403631,56214,1671466469322916499,gps,2,1,42.3002342954,-83.6985893056,271.181213379,0.001156,0.0,0.0,0.0,0.001156,0.0,0.0,0.0,0.004356,2
1671466469343262941,56215,1671466469342774615,gps,2,1,42.3002342976,-83.6985893067,271.181121826,0.001156,0.0,0.0,0.0,0.001156,0.0,0.0,0.0,0.004356,2
1671466469363244284,56216,1671466469362826775,gps,2,1,42.3002342997,-83.6985893077,271.181060791,0.001156,0.0,0.0,0.0,0.001156,0.0,0.0,0.0,0.004356,2
1671466469383318764,56217,1671466469382875636,gps,2,1,42.3002342994,-83.698589306,271.181060791,0.001156,0.0,0.0,0.0,0.001156,0.0,0.0,0.0,0.004356,2
1671466469403305765,56218,1671466469402810453,gps,2,1,42.3002343015,-83.6985893069,271.180969238,0.001156,0.0,0.0,0.0,0.001156,0.0,0.0,0.0,0.004356,2
1671466469423305647,56219,1671466469422806460,gps,2,1,42.3002343033,-83.6985893086,271.180938721,0.001156,0.0,0.0,0.0,0.001156,0.0,0.0,0.0,0.004356,2
1671466469443287106,56220,1671466469442836309,gps,2,1,42.300234303,-83.6985893069,271.180938721,0.001156,0.0,0.0,0.0,0.001156,0.0,0.0,0.0,0.004356,2
1671466469463308515,56221,1671466469462866545,gps,2,1,42.3002343047,-83.6985893084,271.180877686,0.001156,0.0,0.0,0.0,0.001156,0.0,0.0,0.0,0.004356,2
1671466469483277353,56222,1671466469482888891,gps,2,1,42.3002343068,-83.6985893101,271.180847168,0.001156,0.0,0.0,0.0,0.001156,0.0,0.0,0.0,0.004356,2
1671466469503214559,56223,1671466469502769496,gps,2,1,42.3002343066,-83.6985893085,271.180847168,0.001156,0.0,0.0,0.0,0.001156,0.0,0.0,0.0,0.004356,2
1671466469523371967,56224,1671466469522891170,gps,2,1,42.3002343086,-83.6985893101,271.18081665,0.001156,0.0,0.0,0.0,0.001156,0.0,0.0,0.0,0.004356,2
1671466469543363462,56225,1671466469542907004,gps,2,1,42.3002343112,-83.6985893125,271.180755615,0.001156,0.0,0.0,0.0,0.001156,0.0,0.0,0.0,0.004356,2
1671466469563559337,56226,1671466469562908734,gps,2,1,42.300234311,-83.6985893108,271.180755615,0.001156,0.0,0.0,0.0,0.001156,0.0,0.0,0.0,0.004356,2
1671466469583258541,56227,1671466469582843739,gps,2,1,42.3002343136,-83.6985893131,271.180725098,0.001156,0.0,0.0,0.0,0.001156,0.0,0.0,0.0,0.004356,2
1671466469603335077,56228,1671466469602812070,gps,2,1,42.3002343156,-83.6985893149,271.180664062,0.001156,0.0,0.0,0.0,0.001156,0.0,0.0,0.0,0.004356,2
1671466469623407231,56229,1671466469622956256,gps,2,1,42.3002343155,-83.6985893133,271.180664062,0.001156,0.0,0.0,0.0,0.001156,0.0,0.0,0.0,0.004356,2
1671466469643374549,56230,1671466469642887419,gps,2,1,42.3002343174,-83.698589315,271.180633545,0.001156,0.0,0.0,0.0,0.001156,0.0,0.0,0.0,0.004356,2
1671466469663250678,56231,1671466469662798715,gps,2,1,42.3002343193,-83.6985893167,271.180603027,0.001156,0.0,0.0,0.0,0.001156,0.0,0.0,0.0,0.004356,2
1671466469683313666,56232,1671466469682861196,gps,2,1,42.3002343193,-83.6985893151,271.18057251,0.001156,0.0,0.0,0.0,0.001156,0.0,0.0,0.0,0.004356,2
1671466469703313640,56233,1671466469702872174,gps,2,1,42.3002343208,-83.6985893166,271.180541992,0.001156,0.0,0.0,0.0,0.001156,0.0,0.0,0.0,0.004356,2
1671466469723211178,56234,1671466469722778156,gps,2,1,42.3002343223,-83.6985893181,271.180541992,0.001156,0.0,0.0,0.0,0.001156,0.0,0.0,0.0,0.004356,2
1671466469743163943,56235,1671466469742769372,gps,2,1,42.3002343223,-83.6985893165,271.180511475,0.001156,0.0,0.0,0.0,0.001156,0.0,0.0,0.0,0.004356,2
1671466469763324597,56236,1671466469762869873,gps,2,1,42.3002343238,-83.6985893179,271.180480957,0.001156,0.0,0.0,0.0,0.001156,0.0,0.0,0.0,0.004356,2
1671466469783327892,56237,1671466469782853179,gps,2,1,42.3002343252,-83.6985893195,271.180450439,0.001156,0.0,0.0,0.0,0.001156,0.0,0.0,0.0,0.004356,2
1671466469803247094,56238,1671466469802801267,gps,2,1,42.3002343252,-83.6985893179,271.180450439,0.001156,0.0,0.0,0.0,0.001156,0.0,0.0,0.0,0.004356,2
1671466469823257813,56239,1671466469822796456,gps,2,1,42.3002343266,-83.6985893194,271.180419922,0.001156,0.0,0.0,0.0,0.001156,0.0,0.0,0.0,0.004356,2
1671466469843291266,56240,1671466469842813736,gps,2,1,42.300234328,-83.6985893208,271.180389404,0.001156,0.0,0.0,0.0,0.001156,0.0,0.0,0.0,0.004356,2
1671466469863335900,56241,1671466469862850381,gps,2,1,42.300234328,-83.6985893192,271.180389404,0.001156,0.0,0.0,0.0,0.001156,0.0,0.0,0.0,0.004356,2
1671466469883257634,56242,1671466469882776672,gps,2,1,42.3002343294,-83.6985893204,271.180358887,0.001156,0.0,0.0,0.0,0.001156,0.0,0.0,0.0,0.004356,2
1671466469903233961,56243,1671466469902768445,gps,2,1,42.3002343309,-83.6985893212,271.180328369,0.001156,0.0,0.0,0.0,0.001156,0.0,0.0,0.0,0.004356,2
1671466469923267789,56244,1671466469922871719,gps,2,1,42.300234331,-83.6985893196,271.180328369,0.001156,0.0,0.0,0.0,0.001156,0.0,0.0,0.0,0.004356,2
1671466469943272164,56245,1671466469942823293,gps,2,1,42.3002343325,-83.6985893203,271.180297852,0.001156,0.0,0.0,0.0,0.001156,0.0,0.0,0.0,0.004356,2
1671466469963298981,56246,1671466469962825040,gps,2,1,42.300234334,-83.698589321,271.180267334,0.001156,0.0,0.0,0.0,0.001156,0.0,0.0,0.0,0.004356,2
