%time,field.header.seq,field.header.stamp,field.header.frame_id,field.twist.twist.linear.x,field.twist.twist.linear.y,field.twist.twist.linear.z,field.twist.twist.angular.x,field.twist.twist.angular.y,field.twist.twist.angular.z,field.twist.covariance0,field.twist.covariance1,field.twist.covariance2,field.twist.covariance3,field.twist.covariance4,field.twist.covariance5,field.twist.covariance6,field.twist.covariance7,field.twist.covariance8,field.twist.covariance9,field.twist.covariance10,field.twist.covariance11,field.twist.covariance12,field.twist.covariance13,field.twist.covariance14,field.twist.covariance15,field.twist.covariance16,field.twist.covariance17,field.twist.covariance18,field.twist.covariance19,field.twist.covariance20,field.twist.covariance21,field.twist.covariance22,field.twist.covariance23,field.twist.covariance24,field.twist.covariance25,field.twist.covariance26,field.twist.covariance27,field.twist.covariance28,field.twist.covariance29,field.twist.covariance30,field.twist.covariance31,field.twist.covariance32,field.twist.covariance33,field.twist.covariance34,field.twist.covariance35
1671462093743232347,354273,1671462093778147660,enu,-0.0024,0.0051,0.0004,0.0,0.0,0.0,6.4e-05,0.0,0.0,0.0,0.0,0.0,0.0,8.1e-05,0.0,0.0,0.0,0.0,0.0,0.0,6.4e-05,0.0,0.0,0.0,0.0,0.0,0.0,0.0,0.0,0.0,0.0,0.0,0.0,0.0,0.0,0.0,0.0,0.0,0.0,0.0,0.0,0.0
1671462093753619426,354274,1671462093788108111,enu,-0.0023,0.005,0.0002,0.0,0.0,0.0,6.4e-05,0.0,0.0,0.0,0.0,0.0,0.0,8.1e-05,0.0,0.0,0.0,0.0,0.0,0.0,6.4e-05,0.0,0.0,0.0,0.0,0.0,0.0,0.0,0.0,0.0,0.0,0.0,0.0,0.0,0.0,0.0,0.0,0.0,0.0,0.0,0.0,0.0
1671462093763658685,354275,1671462093798137891,enu,-0.0023,0.0052,0.0001,0.0,0.0,0.0,6.4e-05,0.0,0.0,0.0,0.0,0.0,0.0,8.1e-05,0.0,0.0,0.0,0.0,0.0,0.0,6.4e-05,0.0,0.0,0.0,0.0,0.0,0.0,0.0,0.0,0.0,0.0,0.0,0.0,0.0,0.0,0.0,0.0,0.0,0.0,0.0,0.0,0.0
1671462093773341994,354276,1671462093808152525,enu,-0.0022,0.0052,0.0001,0.0,0.0,0.0,6.4e-05,0.0,0.0,0.0,0.0,0.0,0.0,8.1e-05,0.0,0.0,0.0,0.0,0.0,0.0,6.4e-05,0.0,0.0,0.0,0.0,0.0,0.0,0.0,0.0,0.0,0.0,0.0,0.0,0.0,0.0,0.0,0.0,0.0,0.0,0.0,0.0,0.0
1671462093783609413,354277,1671462093818102088,enu,-0.0022,0.0054,-0.0,0.0,0.0,0.0,6.4e-05,0.0,0.0,0.0,0.0,0.0,0.0,8.1e-05,0.0,0.0,0.0,0.0,0.0,0.0,6.4e-05,0.0,0.0,0.0,0.0,0.0,0.0,0.0,0.0,0.0,0.0,0.0,0.0,0.0,0.0,0.0,0.0,0.0,0.0,0.0,0.0,0.0
1671462093793604988,354278,1671462093828103035,enu,-0.0022,0.0055,-0.0,0.0,0.0,0.0,6.4e-05,0.0,0.0,0.0,0.0,0.0,0.0,8.1e-05,0.0,0.0,0.0,0.0,0.0,0.0,6.4e-05,0.0,0.0,0.0,0.0,0.0,0.0,0.0,0.0,0.0,0.0,0.0,0.0,0.0,0.0,0.0,0.0,0.0,0.0,0.0,0.0,0.0
1671462093803537310,354279,1671462093838186087,enu,-0.0022,0.0057,-0.0,0.0,0.0,0.0,6.4e-05,0.0,0.0,0.0,0.0,0.0,0.0,8.1e-05,0.0,0.0,0.0,0.0,0.0,0.0,6.4e-05,0.0,0.0,0.0,0.0,0.0,0.0,0.0,0.0,0.0,0.0,0.0,0.0,0.0,0.0,0.0,0.0,0.0,0.0,0.0,0.0,0.0
1671462093813259676,354280,1671462093848104078,enu,-0.0022,0.0055,-0.0,0.0,0.0,0.0,6.4e-05,0.0,0.0,0.0,0.0,0.0,0.0,8.1e-05,0.0,0.0,0.0,0.0,0.0,0.0,6.4e-05,0.0,0.0,0.0,0.0,0.0,0.0,0.0,0.0,0.0,0.0,0.0,0.0,0.0,0.0,0.0,0.0,0.0,0.0,0.0,0.0,0.0
1671462093823424566,354281,1671462093858104126,enu,-0.0023,0.0058,0.0001,0.0,0.0,0.0,6.4e-05,0.0,0.0,0.0,0.0,0.0,0.0,8.1e-05,0.0,0.0,0.0,0.0,0.0,0.0,6.4e-05,0.0,0.0,0.0,0.0,0.0,0.0,0.0,0.0,0.0,0.0,0.0,0.0,0.0,0.0,0.0,0.0,0.0,0.0,0.0,0.0,0.0
1671462093833553991,354282,1671462093868229942,enu,-0.0024,0.0057,-0.0,0.0,0.0,0.0,6.4e-05,0.0,0.0,0.0,0.0,0.0,0.0,8.1e-05,0.0,0.0,0.0,0.0,0.0,0.0,6.4e-05,0.0,0.0,0.0,0.0,0.0,0.0,0.0,0.0,0.0,0.0,0.0,0.0,0.0,0.0,0.0,0.0,0.0,0.0,0.0,0.0,0.0
1671462093843396260,354283,1671462093878110050,enu,-0.0025,0.0057,0.0002,0.0,0.0,0.0,6.4e-05,0.0,0.0,0.0,0.0,0.0,0.0,8.1e-05,0.0,0.0,0.0,0.0,0.0,0.0,6.4e-05,0.0,0.0,0.0,0.0,0.0,0.0,0.0,0.0,0.0,0.0,0.0,0.0,0.0,0.0,0.0,0.0,0.0,0.0,0.0,0.0,0.0
1671462093853421955,354284,1671462093888093124,enu,-0.0026,0.0056,0.0002,0.0,0.0,0.0,6.4e-05,0.0,0.0,0.0,0.0,0.0,0.0,8.1e-05,0.0,0.0,0.0,0.0,0.0,0.0,6.4e-05,0.0,0.0,0.0,0.0,0.0,0.0,0.0,0.0,0.0,0.0,0.0,0.0,0.0,0.0,0.0,0.0,0.0,0.0,0.0,0.0,0.0
1671462093863374362,354285,1671462093898151478,enu,-0.0027,0.0057,0.0003,0.0,0.0,0.0,6.4e-05,0.0,0.0,0.0,0.0,0.0,0.0,8.1e-05,0.0,0.0,0.0,0.0,0.0,0.0,6.4e-05,0.0,0.0,0.0,0.0,0.0,0.0,0.0,0.0,0.0,0.0,0.0,0.0,0.0,0.0,0.0,0.0,0.0,0.0,0.0,0.0,0.0
1671462093873291121,354286,1671462093908083503,enu,-0.0027,0.0055,0.0003,0.0,0.0,0.0,6.4e-05,0.0,0.0,0.0,0.0,0.0,0.0,8.1e-05,0.0,0.0,0.0,0.0,0.0,0.0,6.4e-05,0.0,0.0,0.0,0.0,0.0,0.0,0.0,0.0,0.0,0.0,0.0,0.0,0.0,0.0,0.0,0.0,0.0,0.0,0.0,0.0,0.0
1671462093883252749,354287,1671462093918092087,enu,-0.0029,0.0056,0.0004,0.0,0.0,0.0,6.4e-05,0.0,0.0,0.0,0.0,0.0,0.0,8.1e-05,0.0,0.0,0.0,0.0,0.0,0.0,6.4e-05,0.0,0.0,0.0,0.0,0.0,0.0,0.0,0.0,0.0,0.0,0.0,0.0,0.0,0.0,0.0,0.0,0.0,0.0,0.0,0.0,0.0
1671462093893622112,354288,1671462093928177045,enu,-0.003,0.0055,0.0004,0.0,0.0,0.0,6.4e-05,0.0,0.0,0.0,0.0,0.0,0.0,8.1e-05,0.0,0.0,0.0,0.0,0.0,0.0,6.4e-05,0.0,0.0,0.0,0.0,0.0,0.0,0.0,0.0,0.0,0.0,0.0,0.0,0.0,0.0,0.0,0.0,0.0,0.0,0.0,0.0,0.0
1671462093903667607,354289,1671462093938232023,enu,-0.0031,0.0053,0.0005,0.0,0.0,0.0,6.4e-05,0.0,0.0,0.0,0.0,0.0,0.0,8.1e-05,0.0,0.0,0.0,0.0,0.0,0.0,6.4e-05,0.0,0.0,0.0,0.0,0.0,0.0,0.0,0.0,0.0,0.0,0.0,0.0,0.0,0.0,0.0,0.0,0.0,0.0,0.0,0.0,0.0
1671462093913495597,354290,1671462093948110765,enu,-0.0032,0.0054,0.0004,0.0,0.0,0.0,6.4e-05,0.0,0.0,0.0,0.0,0.0,0.0,8.1e-05,0.0,0.0,0.0,0.0,0.0,0.0,6.4e-05,0.0,0.0,0.0,0.0,0.0,0.0,0.0,0.0,0.0,0.0,0.0,0.0,0.0,0.0,0.0,0.0,0.0,0.0,0.0,0.0,0.0
1671462093923357509,354291,1671462093958149734,enu,-0.0033,0.0053,0.0004,0.0,0.0,0.0,6.4e-05,0.0,0.0,0.0,0.0,0.0,0.0,8.1e-05,0.0,0.0,0.0,0.0,0.0,0.0,6.4e-05,0.0,0.0,0.0,0.0,0.0,0.0,0.0,0.0,0.0,0.0,0.0,0.0,0.0,0.0,0.0,0.0,0.0,0.0,0.0,0.0,0.0
1671462093933724158,354292,1671462093968102971,enu,-0.0033,0.0053,0.0005,0.0,0.0,0.0,6.4e-05,0.0,0.0,0.0,0.0,0.0,0.0,8.1e-05,0.0,0.0,0.0,0.0,0.0,0.0,6.4e-05,0.0,0.0,0.0,0.0,0.0,0.0,0.0,0.0,0.0,0.0,0.0,0.0,0.0,0.0,0.0,0.0,0.0,0.0,0.0,0.0,0.0
1671462093943429164,354293,1671462093978116918,enu,-0.0035,0.0052,0.0004,0.0,0.0,0.0,6.4e-05,0.0,0.0,0.0,0.0,0.0,0.0,8.1e-05,0.0,0.0,0.0,0.0,0.0,0.0,6.4e-05,0.0,0.0,0.0,0.0,0.0,0.0,0.0,0.0,0.0,0.0,0.0,0.0,0.0,0.0,0.0,0.0,0.0,0.0,0.0,0.0,0.0
1671462093953403188,354294,1671462093988153800,enu,-0.0035,0.0051,0.0004,0.0,0.0,0.0,6.4e-05,0.0,0.0,0.0,0.0,0.0,0.0,8.1e-05,0.0,0.0,0.0,0.0,0.0,0.0,6.4e-05,0.0,0.0,0.0,0.0,0.0,0.0,0.0,0.0,0.0,0.0,0.0,0.0,0.0,0.0,0.0,0.0,0.0,0.0,0.0,0.0,0.0
1671462093963420908,354295,1671462093998096125,enu,-0.0035,0.0051,0.0004,0.0,0.0,0.0,6.4e-05,0.0,0.0,0.0,0.0,0.0,0.0,8.1e-05,0.0,0.0,0.0,0.0,0.0,0.0,6.4e-05,0.0,0.0,0.0,0.0,0.0,0.0,0.0,0.0,0.0,0.0,0.0,0.0,0.0,0.0,0.0,0.0,0.0,0.0,0.0,0.0,0.0
1671462093973427894,354296,1671462094008114418,enu,-0.0035,0.005,0.0004,0.0,0.0,0.0,6.4e-05,0.0,0.0,0.0,0.0,0.0,0.0,8.1e-05,0.0,0.0,0.0,0.0,0.0,0.0,6.4e-05,0.0,0.0,0.0,0.0,0.0,0.0,0.0,0.0,0.0,0.0,0.0,0.0,0.0,0.0,0.0,0.0,0.0,0.0,0.0,0.0,0.0
1671462093983367595,354297,1671462094018148493,enu,-0.0035,0.005,0.0004,0.0,0.0,0.0,6.4e-05,0.0,0.0,0.0,0.0,0.0,0.0,8.1e-05,0.0,0.0,0.0,0.0,0.0,0.0,6.4e-05,0.0,0.0,0.0,0.0,0.0,0.0,0.0,0.0,0.0,0.0,0.0,0.0,0.0,0.0,0.0,0.0,0.0,0.0,0.0,0.0,0.0
1671462093993440717,354298,1671462094028088889,enu,-0.0035,0.0051,0.0005,0.0,0.0,0.0,6.4e-05,0.0,0.0,0.0,0.0,0.0,0.0,8.1e-05,0.0,0.0,0.0,0.0,0.0,0.0,6.4e-05,0.0,0.0,0.0,0.0,0.0,0.0,0.0,0.0,0.0,0.0,0.0,0.0,0.0,0.0,0.0,0.0,0.0,0.0,0.0,0.0,0.0
1671462094003382186,354299,1671462094038228586,enu,-0.0034,0.0049,0.0004,0.0,0.0,0.0,6.4e-05,0.0,0.0,0.0,0.0,0.0,0.0,8.1e-05,0.0,0.0,0.0,0.0,0.0,0.0,6.4e-05,0.0,0.0,0.0,0.0,0.0,0.0,0.0,0.0,0.0,0.0,0.0,0.0,0.0,0.0,0.0,0.0,0.0,0.0,0.0,0.0,0.0
1671462094013247108,354300,1671462094048240952,enu,-0.0034,0.0051,0.0005,0.0,0.0,0.0,6.4e-05,0.0,0.0,0.0,0.0,0.0,0.0,8.1e-05,0.0,0.0,0.0,0.0,0.0,0.0,6.4e-05,0.0,0.0,0.0,0.0,0.0,0.0,0.0,0.0,0.0,0.0,0.0,0.0,0.0,0.0,0.0,0.0,0.0,0.0,0.0,0.0,0.0
1671462094023824620,354301,1671462094058220051,enu,-0.0033,0.005,0.0004,0.0,0.0,0.0,6.4e-05,0.0,0.0,0.0,0.0,0.0,0.0,8.1e-05,0.0,0.0,0.0,0.0,0.0,0.0,6.4e-05,0.0,0.0,0.0,0.0,0.0,0.0,0.0,0.0,0.0,0.0,0.0,0.0,0.0,0.0,0.0,0.0,0.0,0.0,0.0,0.0,0.0
1671462094033588222,354302,1671462094068179269,enu,-0.0033,0.005,0.0004,0.0,0.0,0.0,6.4e-05,0.0,0.0,0.0,0.0,0.0,0.0,8.1e-05,0.0,0.0,0.0,0.0,0.0,0.0,6.4e-05,0.0,0.0,0.0,0.0,0.0,0.0,0.0,0.0,0.0,0.0,0.0,0.0,0.0,0.0,0.0,0.0,0.0,0.0,0.0,0.0,0.0
1671462094043738638,354303,1671462094078165924,enu,-0.0032,0.0051,0.0004,0.0,0.0,0.0,6.4e-05,0.0,0.0,0.0,0.0,0.0,0.0,8.1e-05,0.0,0.0,0.0,0.0,0.0,0.0,6.4e-05,0.0,0.0,0.0,0.0,0.0,0.0,0.0,0.0,0.0,0.0,0.0,0.0,0.0,0.0,0.0,0.0,0.0,0.0,0.0,0.0,0.0
1671462094053557275,354304,1671462094088167875,enu,-0.0031,0.0049,0.0004,0.0,0.0,0.0,6.4e-05,0.0,0.0,0.0,0.0,0.0,0.0,8.1e-05,0.0,0.0,0.0,0.0,0.0,0.0,6.4e-05,0.0,0.0,0.0,0.0,0.0,0.0,0.0,0.0,0.0,0.0,0.0,0.0,0.0,0.0,0.0,0.0,0.0,0.0,0.0,0.0,0.0
1671462094063496770,354305,1671462094098112261,enu,-0.003,0.0051,0.0004,0.0,0.0,0.0,6.4e-05,0.0,0.0,0.0,0.0,0.0,0.0,8.1e-05,0.0,0.0,0.0,0.0,0.0,0.0,6.4e-05,0.0,0.0,0.0,0.0,0.0,0.0,0.0,0.0,0.0,0.0,0.0,0.0,0.0,0.0,0.0,0.0,0.0,0.0,0.0,0.0,0.0
1671462094073712489,354306,1671462094108243457,enu,-0.003,0.0051,0.0003,0.0,0.0,0.0,6.4e-05,0.0,0.0,0.0,0.0,0.0,0.0,8.1e-05,0.0,0.0,0.0,0.0,0.0,0.0,6.4e-05,0.0,0.0,0.0,0.0,0.0,0.0,0.0,0.0,0.0,0.0,0.0,0.0,0.0,0.0,0.0,0.0,0.0,0.0,0.0,0.0,0.0
1671462094083491440,354307,1671462094118268124,enu,-0.0028,0.0051,0.0003,0.0,0.0,0.0,6.4e-05,0.0,0.0,0.0,0.0,0.0,0.0,8.1e-05,0.0,0.0,0.0,0.0,0.0,0.0,6.4e-05,0.0,0.0,0.0,0.0,0.0,0.0,0.0,0.0,0.0,0.0,0.0,0.0,0.0,0.0,0.0,0.0,0.0,0.0,0.0,0.0,0.0
1671462094093425002,354308,1671462094128195910,enu,-0.0028,0.0051,0.0003,0.0,0.0,0.0,6.4e-05,0.0,0.0,0.0,0.0,0.0,0.0,8.1e-05,0.0,0.0,0.0,0.0,0.0,0.0,6.4e-05,0.0,0.0,0.0,0.0,0.0,0.0,0.0,0.0,0.0,0.0,0.0,0.0,0.0,0.0,0.0,0.0,0.0,0.0,0.0,0.0,0.0
1671462094103437324,354309,1671462094138125501,enu,-0.0028,0.0052,0.0003,0.0,0.0,0.0,6.4e-05,0.0,0.0,0.0,0.0,0.0,0.0,8.1e-05,0.0,0.0,0.0,0.0,0.0,0.0,6.4e-05,0.0,0.0,0.0,0.0,0.0,0.0,0.0,0.0,0.0,0.0,0.0,0.0,0.0,0.0,0.0,0.0,0.0,0.0,0.0,0.0,0.0
1671462094113615191,354310,1671462094148115903,enu,-0.0027,0.0052,0.0003,0.0,0.0,0.0,6.4e-05,0.0,0.0,0.0,0.0,0.0,0.0,8.1e-05,0.0,0.0,0.0,0.0,0.0,0.0,6.4e-05,0.0,0.0,0.0,0.0,0.0,0.0,0.0,0.0,0.0,0.0,0.0,0.0,0.0,0.0,0.0,0.0,0.0,0.0,0.0,0.0,0.0
1671462094123457104,354311,1671462094158183263,enu,-0.0027,0.0052,0.0002,0.0,0.0,0.0,6.4e-05,0.0,0.0,0.0,0.0,0.0,0.0,8.1e-05,0.0,0.0,0.0,0.0,0.0,0.0,6.4e-05,0.0,0.0,0.0,0.0,0.0,0.0,0.0,0.0,0.0,0.0,0.0,0.0,0.0,0.0,0.0,0.0,0.0,0.0,0.0,0.0,0.0
1671462094133318277,354312,1671462094168102692,enu,-0.0027,0.0053,0.0004,0.0,0.0,0.0,6.4e-05,0.0,0.0,0.0,0.0,0.0,0.0,8.1e-05,0.0,0.0,0.0,0.0,0.0,0.0,6.4e-05,0.0,0.0,0.0,0.0,0.0,0.0,0.0,0.0,0.0,0.0,0.0,0.0,0.0,0.0,0.0,0.0,0.0,0.0,0.0,0.0,0.0
1671462094143297031,354313,1671462094178107623,enu,-0.0027,0.0052,0.0004,0.0,0.0,0.0,6.4e-05,0.0,0.0,0.0,0.0,0.0,0.0,8.1e-05,0.0,0.0,0.0,0.0,0.0,0.0,6.4e-05,0.0,0.0,0.0,0.0,0.0,0.0,0.0,0.0,0.0,0.0,0.0,0.0,0.0,0.0,0.0,0.0,0.0,0.0,0.0,0.0,0.0
1671462094153314167,354314,1671462094188199278,enu,-0.0027,0.0053,0.0005,0.0,0.0,0.0,6.4e-05,0.0,0.0,0.0,0.0,0.0,0.0,8.1e-05,0.0,0.0,0.0,0.0,0.0,0.0,6.4e-05,0.0,0.0,0.0,0.0,0.0,0.0,0.0,0.0,0.0,0.0,0.0,0.0,0.0,0.0,0.0,0.0,0.0,0.0,0.0,0.0,0.0
1671462094163662547,354315,1671462094198173969,enu,-0.0028,0.0055,0.0006,0.0,0.0,0.0,6.4e-05,0.0,0.0,0.0,0.0,0.0,0.0,8.1e-05,0.0,0.0,0.0,0.0,0.0,0.0,6.4e-05,0.0,0.0,0.0,0.0,0.0,0.0,0.0,0.0,0.0,0.0,0.0,0.0,0.0,0.0,0.0,0.0,0.0,0.0,0.0,0.0,0.0
1671462094173381985,354316,1671462094208101680,enu,-0.0029,0.0052,0.0006,0.0,0.0,0.0,6.4e-05,0.0,0.0,0.0,0.0,0.0,0.0,8.1e-05,0.0,0.0,0.0,0.0,0.0,0.0,6.4e-05,0.0,0.0,0.0,0.0,0.0,0.0,0.0,0.0,0.0,0.0,0.0,0.0,0.0,0.0,0.0,0.0,0.0,0.0,0.0,0.0,0.0
1671462094183675223,354317,1671462094218109631,enu,-0.0029,0.0053,0.0007,0.0,0.0,0.0,6.4e-05,0.0,0.0,0.0,0.0,0.0,0.0,8.1e-05,0.0,0.0,0.0,0.0,0.0,0.0,6.4e-05,0.0,0.0,0.0,0.0,0.0,0.0,0.0,0.0,0.0,0.0,0.0,0.0,0.0,0.0,0.0,0.0,0.0,0.0,0.0,0.0,0.0
1671462094193608764,354318,1671462094228170717,enu,-0.0029,0.0053,0.0008,0.0,0.0,0.0,6.4e-05,0.0,0.0,0.0,0.0,0.0,0.0,8.1e-05,0.0,0.0,0.0,0.0,0.0,0.0,6.4e-05,0.0,0.0,0.0,0.0,0.0,0.0,0.0,0.0,0.0,0.0,0.0,0.0,0.0,0.0,0.0,0.0,0.0,0.0,0.0,0.0,0.0
1671462094203192222,354319,1671462094238111943,enu,-0.0031,0.0052,0.0007,0.0,0.0,0.0,6.4e-05,0.0,0.0,0.0,0.0,0.0,0.0,8.1e-05,0.0,0.0,0.0,0.0,0.0,0.0,6.4e-05,0.0,0.0,0.0,0.0,0.0,0.0,0.0,0.0,0.0,0.0,0.0,0.0,0.0,0.0,0.0,0.0,0.0,0.0,0.0,0.0,0.0
1671462094213597181,354320,1671462094248112249,enu,-0.0031,0.0053,0.0008,0.0,0.0,0.0,6.4e-05,0.0,0.0,0.0,0.0,0.0,0.0,8.1e-05,0.0,0.0,0.0,0.0,0.0,0.0,6.4e-05,0.0,0.0,0.0,0.0,0.0,0.0,0.0,0.0,0.0,0.0,0.0,0.0,0.0,0.0,0.0,0.0,0.0,0.0,0.0,0.0,0.0
1671462094223281712,354321,1671462094258171098,enu,-0.0032,0.0053,0.0007,0.0,0.0,0.0,6.4e-05,0.0,0.0,0.0,0.0,0.0,0.0,8.1e-05,0.0,0.0,0.0,0.0,0.0,0.0,6.4e-05,0.0,0.0,0.0,0.0,0.0,0.0,0.0,0.0,0.0,0.0,0.0,0.0,0.0,0.0,0.0,0.0,0.0,0.0,0.0,0.0,0.0
1671462094233410648,354322,1671462094268093562,enu,-0.0033,0.0052,0.0007,0.0,0.0,0.0,6.4e-05,0.0,0.0,0.0,0.0,0.0,0.0,8.1e-05,0.0,0.0,0.0,0.0,0.0,0.0,6.4e-05,0.0,0.0,0.0,0.0,0.0,0.0,0.0,0.0,0.0,0.0,0.0,0.0,0.0,0.0,0.0,0.0,0.0,0.0,0.0,0.0,0.0
1671462094243335391,354323,1671462094278177142,enu,-0.0034,0.0053,0.0006,0.0,0.0,0.0,6.4e-05,0.0,0.0,0.0,0.0,0.0,0.0,8.1e-05,0.0,0.0,0.0,0.0,0.0,0.0,6.4e-05,0.0,0.0,0.0,0.0,0.0,0.0,0.0,0.0,0.0,0.0,0.0,0.0,0.0,0.0,0.0,0.0,0.0,0.0,0.0,0.0,0.0
1671462094253284032,354324,1671462094288101228,enu,-0.0035,0.0052,0.0005,0.0,0.0,0.0,6.4e-05,0.0,0.0,0.0,0.0,0.0,0.0,8.1e-05,0.0,0.0,0.0,0.0,0.0,0.0,6.4e-05,0.0,0.0,0.0,0.0,0.0,0.0,0.0,0.0,0.0,0.0,0.0,0.0,0.0,0.0,0.0,0.0,0.0,0.0,0.0,0.0,0.0
1671462094263324790,354325,1671462094298131136,enu,-0.0036,0.0051,0.0005,0.0,0.0,0.0,6.4e-05,0.0,0.0,0.0,0.0,0.0,0.0,8.1e-05,0.0,0.0,0.0,0.0,0.0,0.0,6.4e-05,0.0,0.0,0.0,0.0,0.0,0.0,0.0,0.0,0.0,0.0,0.0,0.0,0.0,0.0,0.0,0.0,0.0,0.0,0.0,0.0,0.0
1671462094273207335,354326,1671462094308111533,enu,-0.0037,0.005,0.0004,0.0,0.0,0.0,6.4e-05,0.0,0.0,0.0,0.0,0.0,0.0,8.1e-05,0.0,0.0,0.0,0.0,0.0,0.0,6.4e-05,0.0,0.0,0.0,0.0,0.0,0.0,0.0,0.0,0.0,0.0,0.0,0.0,0.0,0.0,0.0,0.0,0.0,0.0,0.0,0.0,0.0
1671462094283184906,354327,1671462094318160974,enu,-0.0037,0.005,0.0004,0.0,0.0,0.0,6.4e-05,0.0,0.0,0.0,0.0,0.0,0.0,8.1e-05,0.0,0.0,0.0,0.0,0.0,0.0,6.4e-05,0.0,0.0,0.0,0.0,0.0,0.0,0.0,0.0,0.0,0.0,0.0,0.0,0.0,0.0,0.0,0.0,0.0,0.0,0.0,0.0,0.0
1671462094293194964,354328,1671462094328093498,enu,-0.0037,0.005,0.0003,0.0,0.0,0.0,6.4e-05,0.0,0.0,0.0,0.0,0.0,0.0,8.1e-05,0.0,0.0,0.0,0.0,0.0,0.0,6.4e-05,0.0,0.0,0.0,0.0,0.0,0.0,0.0,0.0,0.0,0.0,0.0,0.0,0.0,0.0,0.0,0.0,0.0,0.0,0.0,0.0,0.0
1671462094303202100,354329,1671462094338107671,enu,-0.0038,0.0049,0.0003,0.0,0.0,0.0,6.4e-05,0.0,0.0,0.0,0.0,0.0,0.0,8.1e-05,0.0,0.0,0.0,0.0,0.0,0.0,6.4e-05,0.0,0.0,0.0,0.0,0.0,0.0,0.0,0.0,0.0,0.0,0.0,0.0,0.0,0.0,0.0,0.0,0.0,0.0,0.0,0.0,0.0
1671462094313519925,354330,1671462094348165199,enu,-0.0038,0.0049,0.0003,0.0,0.0,0.0,6.4e-05,0.0,0.0,0.0,0.0,0.0,0.0,8.1e-05,0.0,0.0,0.0,0.0,0.0,0.0,6.4e-05,0.0,0.0,0.0,0.0,0.0,0.0,0.0,0.0,0.0,0.0,0.0,0.0,0.0,0.0,0.0,0.0,0.0,0.0,0.0,0.0,0.0
1671462094323028937,354331,1671462094358102344,enu,-0.0037,0.0048,0.0002,0.0,0.0,0.0,6.4e-05,0.0,0.0,0.0,0.0,0.0,0.0,8.1e-05,0.0,0.0,0.0,0.0,0.0,0.0,6.4e-05,0.0,0.0,0.0,0.0,0.0,0.0,0.0,0.0,0.0,0.0,0.0,0.0,0.0,0.0,0.0,0.0,0.0,0.0,0.0,0.0,0.0
1671462094333493343,354332,1671462094368196909,enu,-0.0037,0.0048,0.0003,0.0,0.0,0.0,6.4e-05,0.0,0.0,0.0,0.0,0.0,0.0,8.1e-05,0.0,0.0,0.0,0.0,0.0,0.0,6.4e-05,0.0,0.0,0.0,0.0,0.0,0.0,0.0,0.0,0.0,0.0,0.0,0.0,0.0,0.0,0.0,0.0,0.0,0.0,0.0,0.0,0.0
1671462094343519070,354333,1671462094378185213,enu,-0.0036,0.0049,0.0004,0.0,0.0,0.0,6.4e-05,0.0,0.0,0.0,0.0,0.0,0.0,8.1e-05,0.0,0.0,0.0,0.0,0.0,0.0,6.4e-05,0.0,0.0,0.0,0.0,0.0,0.0,0.0,0.0,0.0,0.0,0.0,0.0,0.0,0.0,0.0,0.0,0.0,0.0,0.0,0.0,0.0
1671462094353478575,354334,1671462094388102495,enu,-0.0035,0.0048,0.0004,0.0,0.0,0.0,6.4e-05,0.0,0.0,0.0,0.0,0.0,0.0,8.1e-05,0.0,0.0,0.0,0.0,0.0,0.0,6.4e-05,0.0,0.0,0.0,0.0,0.0,0.0,0.0,0.0,0.0,0.0,0.0,0.0,0.0,0.0,0.0,0.0,0.0,0.0,0.0,0.0,0.0
1671462094363367608,354335,1671462094398195830,enu,-0.0035,0.0047,0.0004,0.0,0.0,0.0,6.4e-05,0.0,0.0,0.0,0.0,0.0,0.0,8.1e-05,0.0,0.0,0.0,0.0,0.0,0.0,6.4e-05,0.0,0.0,0.0,0.0,0.0,0.0,0.0,0.0,0.0,0.0,0.0,0.0,0.0,0.0,0.0,0.0,0.0,0.0,0.0,0.0,0.0
1671462094373476265,354336,1671462094408124699,enu,-0.0034,0.0048,0.0006,0.0,0.0,0.0,6.4e-05,0.0,0.0,0.0,0.0,0.0,0.0,8.1e-05,0.0,0.0,0.0,0.0,0.0,0.0,6.4e-05,0.0,0.0,0.0,0.0,0.0,0.0,0.0,0.0,0.0,0.0,0.0,0.0,0.0,0.0,0.0,0.0,0.0,0.0,0.0,0.0,0.0
1671462094383333508,354337,1671462094418119797,enu,-0.0033,0.0048,0.0007,0.0,0.0,0.0,6.4e-05,0.0,0.0,0.0,0.0,0.0,0.0,8.1e-05,0.0,0.0,0.0,0.0,0.0,0.0,6.4e-05,0.0,0.0,0.0,0.0,0.0,0.0,0.0,0.0,0.0,0.0,0.0,0.0,0.0,0.0,0.0,0.0,0.0,0.0,0.0,0.0,0.0
1671462094393558208,354338,1671462094428177909,enu,-0.0032,0.0048,0.0007,0.0,0.0,0.0,6.4e-05,0.0,0.0,0.0,0.0,0.0,0.0,8.1e-05,0.0,0.0,0.0,0.0,0.0,0.0,6.4e-05,0.0,0.0,0.0,0.0,0.0,0.0,0.0,0.0,0.0,0.0,0.0,0.0,0.0,0.0,0.0,0.0,0.0,0.0,0.0,0.0,0.0
1671462094403468535,354339,1671462094438258047,enu,-0.0032,0.0049,0.0008,0.0,0.0,0.0,6.4e-05,0.0,0.0,0.0,0.0,0.0,0.0,8.1e-05,0.0,0.0,0.0,0.0,0.0,0.0,6.4e-05,0.0,0.0,0.0,0.0,0.0,0.0,0.0,0.0,0.0,0.0,0.0,0.0,0.0,0.0,0.0,0.0,0.0,0.0,0.0,0.0,0.0
1671462094413390519,354340,1671462094448114365,enu,-0.0031,0.005,0.0009,0.0,0.0,0.0,6.4e-05,0.0,0.0,0.0,0.0,0.0,0.0,8.1e-05,0.0,0.0,0.0,0.0,0.0,0.0,6.4e-05,0.0,0.0,0.0,0.0,0.0,0.0,0.0,0.0,0.0,0.0,0.0,0.0,0.0,0.0,0.0,0.0,0.0,0.0,0.0,0.0,0.0
1671462094423419208,354341,1671462094458154182,enu,-0.0031,0.0049,0.0008,0.0,0.0,0.0,6.4e-05,0.0,0.0,0.0,0.0,0.0,0.0,8.1e-05,0.0,0.0,0.0,0.0,0.0,0.0,6.4e-05,0.0,0.0,0.0,0.0,0.0,0.0,0.0,0.0,0.0,0.0,0.0,0.0,0.0,0.0,0.0,0.0,0.0,0.0,0.0,0.0,0.0
1671462094433351367,354342,1671462094468103160,enu,-0.0031,0.005,0.0009,0.0,0.0,0.0,6.4e-05,0.0,0.0,0.0,0.0,0.0,0.0,8.1e-05,0.0,0.0,0.0,0.0,0.0,0.0,6.4e-05,0.0,0.0,0.0,0.0,0.0,0.0,0.0,0.0,0.0,0.0,0.0,0.0,0.0,0.0,0.0,0.0,0.0,0.0,0.0,0.0,0.0
1671462094443633043,354343,1671462094478090802,enu,-0.0031,0.005,0.0009,0.0,0.0,0.0,6.4e-05,0.0,0.0,0.0,0.0,0.0,0.0,8.1e-05,0.0,0.0,0.0,0.0,0.0,0.0,6.4e-05,0.0,0.0,0.0,0.0,0.0,0.0,0.0,0.0,0.0,0.0,0.0,0.0,0.0,0.0,0.0,0.0,0.0,0.0,0.0,0.0,0.0
1671462094453571461,354344,1671462094488170480,enu,-0.0032,0.0049,0.0008,0.0,0.0,0.0,6.4e-05,0.0,0.0,0.0,0.0,0.0,0.0,8.1e-05,0.0,0.0,0.0,0.0,0.0,0.0,6.4e-05,0.0,0.0,0.0,0.0,0.0,0.0,0.0,0.0,0.0,0.0,0.0,0.0,0.0,0.0,0.0,0.0,0.0,0.0,0.0,0.0,0.0
1671462094463657456,354345,1671462094498112145,enu,-0.0032,0.005,0.0009,0.0,0.0,0.0,6.4e-05,0.0,0.0,0.0,0.0,0.0,0.0,8.1e-05,0.0,0.0,0.0,0.0,0.0,0.0,6.4e-05,0.0,0.0,0.0,0.0,0.0,0.0,0.0,0.0,0.0,0.0,0.0,0.0,0.0,0.0,0.0,0.0,0.0,0.0,0.0,0.0,0.0
1671462094473264898,354346,1671462094508105162,enu,-0.0032,0.0049,0.0008,0.0,0.0,0.0,6.4e-05,0.0,0.0,0.0,0.0,0.0,0.0,8.1e-05,0.0,0.0,0.0,0.0,0.0,0.0,6.4e-05,0.0,0.0,0.0,0.0,0.0,0.0,0.0,0.0,0.0,0.0,0.0,0.0,0.0,0.0,0.0,0.0,0.0,0.0,0.0,0.0,0.0
1671462094483754679,354347,1671462094518177318,enu,-0.0033,0.005,0.0007,0.0,0.0,0.0,6.4e-05,0.0,0.0,0.0,0.0,0.0,0.0,8.1e-05,0.0,0.0,0.0,0.0,0.0,0.0,6.4e-05,0.0,0.0,0.0,0.0,0.0,0.0,0.0,0.0,0.0,0.0,0.0,0.0,0.0,0.0,0.0,0.0,0.0,0.0,0.0,0.0,0.0
1671462094493664732,354348,1671462094528114449,enu,-0.0034,0.005,0.0007,0.0,0.0,0.0,6.4e-05,0.0,0.0,0.0,0.0,0.0,0.0,8.1e-05,0.0,0.0,0.0,0.0,0.0,0.0,6.4e-05,0.0,0.0,0.0,0.0,0.0,0.0,0.0,0.0,0.0,0.0,0.0,0.0,0.0,0.0,0.0,0.0,0.0,0.0,0.0,0.0,0.0
1671462094503438134,354349,1671462094538162208,enu,-0.0035,0.0049,0.0007,0.0,0.0,0.0,6.4e-05,0.0,0.0,0.0,0.0,0.0,0.0,8.1e-05,0.0,0.0,0.0,0.0,0.0,0.0,6.4e-05,0.0,0.0,0.0,0.0,0.0,0.0,0.0,0.0,0.0,0.0,0.0,0.0,0.0,0.0,0.0,0.0,0.0,0.0,0.0,0.0,0.0
1671462094513511491,354350,1671462094548256389,enu,-0.0035,0.0051,0.0008,0.0,0.0,0.0,6.4e-05,0.0,0.0,0.0,0.0,0.0,0.0,8.1e-05,0.0,0.0,0.0,0.0,0.0,0.0,6.4e-05,0.0,0.0,0.0,0.0,0.0,0.0,0.0,0.0,0.0,0.0,0.0,0.0,0.0,0.0,0.0,0.0,0.0,0.0,0.0,0.0,0.0
1671462094523336455,354351,1671462094558143611,enu,-0.0036,0.005,0.0007,0.0,0.0,0.0,6.4e-05,0.0,0.0,0.0,0.0,0.0,0.0,8.1e-05,0.0,0.0,0.0,0.0,0.0,0.0,6.4e-05,0.0,0.0,0.0,0.0,0.0,0.0,0.0,0.0,0.0,0.0,0.0,0.0,0.0,0.0,0.0,0.0,0.0,0.0,0.0,0.0,0.0
1671462094533526161,354352,1671462094568166054,enu,-0.0037,0.005,0.0007,0.0,0.0,0.0,6.4e-05,0.0,0.0,0.0,0.0,0.0,0.0,8.1e-05,0.0,0.0,0.0,0.0,0.0,0.0,6.4e-05,0.0,0.0,0.0,0.0,0.0,0.0,0.0,0.0,0.0,0.0,0.0,0.0,0.0,0.0,0.0,0.0,0.0,0.0,0.0,0.0,0.0
1671462094543474825,354353,1671462094578271537,enu,-0.0038,0.0049,0.0007,0.0,0.0,0.0,6.4e-05,0.0,0.0,0.0,0.0,0.0,0.0,8.1e-05,0.0,0.0,0.0,0.0,0.0,0.0,6.4e-05,0.0,0.0,0.0,0.0,0.0,0.0,0.0,0.0,0.0,0.0,0.0,0.0,0.0,0.0,0.0,0.0,0.0,0.0,0.0,0.0,0.0
1671462094553478307,354354,1671462094588180923,enu,-0.0038,0.005,0.0007,0.0,0.0,0.0,6.4e-05,0.0,0.0,0.0,0.0,0.0,0.0,8.1e-05,0.0,0.0,0.0,0.0,0.0,0.0,6.4e-05,0.0,0.0,0.0,0.0,0.0,0.0,0.0,0.0,0.0,0.0,0.0,0.0,0.0,0.0,0.0,0.0,0.0,0.0,0.0,0.0,0.0
1671462094563389331,354355,1671462094598168203,enu,-0.0039,0.0049,0.0007,0.0,0.0,0.0,6.4e-05,0.0,0.0,0.0,0.0,0.0,0.0,8.1e-05,0.0,0.0,0.0,0.0,0.0,0.0,6.4e-05,0.0,0.0,0.0,0.0,0.0,0.0,0.0,0.0,0.0,0.0,0.0,0.0,0.0,0.0,0.0,0.0,0.0,0.0,0.0,0.0,0.0
1671462094573453555,354356,1671462094608249080,enu,-0.0038,0.005,0.0008,0.0,0.0,0.0,6.4e-05,0.0,0.0,0.0,0.0,0.0,0.0,8.1e-05,0.0,0.0,0.0,0.0,0.0,0.0,6.4e-05,0.0,0.0,0.0,0.0,0.0,0.0,0.0,0.0,0.0,0.0,0.0,0.0,0.0,0.0,0.0,0.0,0.0,0.0,0.0,0.0,0.0
1671462094583453800,354357,1671462094618227501,enu,-0.0039,0.0049,0.0006,0.0,0.0,0.0,6.4e-05,0.0,0.0,0.0,0.0,0.0,0.0,8.1e-05,0.0,0.0,0.0,0.0,0.0,0.0,6.4e-05,0.0,0.0,0.0,0.0,0.0,0.0,0.0,0.0,0.0,0.0,0.0,0.0,0.0,0.0,0.0,0.0,0.0,0.0,0.0,0.0,0.0
1671462094593535634,354358,1671462094628100874,enu,-0.0038,0.0049,0.0008,0.0,0.0,0.0,6.4e-05,0.0,0.0,0.0,0.0,0.0,0.0,8.1e-05,0.0,0.0,0.0,0.0,0.0,0.0,6.4e-05,0.0,0.0,0.0,0.0,0.0,0.0,0.0,0.0,0.0,0.0,0.0,0.0,0.0,0.0,0.0,0.0,0.0,0.0,0.0,0.0,0.0
1671462094603576493,354359,1671462094638165693,enu,-0.0038,0.0049,0.0007,0.0,0.0,0.0,6.4e-05,0.0,0.0,0.0,0.0,0.0,0.0,8.1e-05,0.0,0.0,0.0,0.0,0.0,0.0,6.4e-05,0.0,0.0,0.0,0.0,0.0,0.0,0.0,0.0,0.0,0.0,0.0,0.0,0.0,0.0,0.0,0.0,0.0,0.0,0.0,0.0,0.0
1671462094613440685,354360,1671462094648185149,enu,-0.0038,0.0049,0.0007,0.0,0.0,0.0,6.4e-05,0.0,0.0,0.0,0.0,0.0,0.0,8.1e-05,0.0,0.0,0.0,0.0,0.0,0.0,6.4e-05,0.0,0.0,0.0,0.0,0.0,0.0,0.0,0.0,0.0,0.0,0.0,0.0,0.0,0.0,0.0,0.0,0.0,0.0,0.0,0.0,0.0
1671462094623555011,354361,1671462094658098776,enu,-0.0037,0.0048,0.0007,0.0,0.0,0.0,6.4e-05,0.0,0.0,0.0,0.0,0.0,0.0,8.1e-05,0.0,0.0,0.0,0.0,0.0,0.0,6.4e-05,0.0,0.0,0.0,0.0,0.0,0.0,0.0,0.0,0.0,0.0,0.0,0.0,0.0,0.0,0.0,0.0,0.0,0.0,0.0,0.0,0.0
1671462094633509251,354362,1671462094668192905,enu,-0.0037,0.0049,0.0007,0.0,0.0,0.0,6.4e-05,0.0,0.0,0.0,0.0,0.0,0.0,8.1e-05,0.0,0.0,0.0,0.0,0.0,0.0,6.4e-05,0.0,0.0,0.0,0.0,0.0,0.0,0.0,0.0,0.0,0.0,0.0,0.0,0.0,0.0,0.0,0.0,0.0,0.0,0.0,0.0,0.0
1671462094643665367,354363,1671462094678111516,enu,-0.0036,0.0048,0.0007,0.0,0.0,0.0,6.4e-05,0.0,0.0,0.0,0.0,0.0,0.0,8.1e-05,0.0,0.0,0.0,0.0,0.0,0.0,6.4e-05,0.0,0.0,0.0,0.0,0.0,0.0,0.0,0.0,0.0,0.0,0.0,0.0,0.0,0.0,0.0,0.0,0.0,0.0,0.0,0.0,0.0
1671462094653499123,354364,1671462094688236181,enu,-0.0035,0.0047,0.0008,0.0,0.0,0.0,6.4e-05,0.0,0.0,0.0,0.0,0.0,0.0,8.1e-05,0.0,0.0,0.0,0.0,0.0,0.0,6.4e-05,0.0,0.0,0.0,0.0,0.0,0.0,0.0,0.0,0.0,0.0,0.0,0.0,0.0,0.0,0.0,0.0,0.0,0.0,0.0,0.0,0.0
1671462094663457955,354365,1671462094698177693,enu,-0.0034,0.0048,0.0008,0.0,0.0,0.0,6.4e-05,0.0,0.0,0.0,0.0,0.0,0.0,8.1e-05,0.0,0.0,0.0,0.0,0.0,0.0,6.4e-05,0.0,0.0,0.0,0.0,0.0,0.0,0.0,0.0,0.0,0.0,0.0,0.0,0.0,0.0,0.0,0.0,0.0,0.0,0.0,0.0,0.0
1671462094673440062,354366,1671462094708110322,enu,-0.0034,0.0048,0.0009,0.0,0.0,0.0,6.4e-05,0.0,0.0,0.0,0.0,0.0,0.0,8.1e-05,0.0,0.0,0.0,0.0,0.0,0.0,6.4e-05,0.0,0.0,0.0,0.0,0.0,0.0,0.0,0.0,0.0,0.0,0.0,0.0,0.0,0.0,0.0,0.0,0.0,0.0,0.0,0.0,0.0
1671462094683418827,354367,1671462094718105971,enu,-0.0034,0.0047,0.001,0.0,0.0,0.0,6.4e-05,0.0,0.0,0.0,0.0,0.0,0.0,8.1e-05,0.0,0.0,0.0,0.0,0.0,0.0,6.4e-05,0.0,0.0,0.0,0.0,0.0,0.0,0.0,0.0,0.0,0.0,0.0,0.0,0.0,0.0,0.0,0.0,0.0,0.0,0.0,0.0,0.0
1671462094693543400,354368,1671462094728169731,enu,-0.0033,0.0047,0.001,0.0,0.0,0.0,6.4e-05,0.0,0.0,0.0,0.0,0.0,0.0,8.1e-05,0.0,0.0,0.0,0.0,0.0,0.0,6.4e-05,0.0,0.0,0.0,0.0,0.0,0.0,0.0,0.0,0.0,0.0,0.0,0.0,0.0,0.0,0.0,0.0,0.0,0.0,0.0,0.0,0.0
1671462094703350660,354369,1671462094738113583,enu,-0.0033,0.0047,0.0011,0.0,0.0,0.0,6.4e-05,0.0,0.0,0.0,0.0,0.0,0.0,8.1e-05,0.0,0.0,0.0,0.0,0.0,0.0,6.4e-05,0.0,0.0,0.0,0.0,0.0,0.0,0.0,0.0,0.0,0.0,0.0,0.0,0.0,0.0,0.0,0.0,0.0,0.0,0.0,0.0,0.0
1671462094713532333,354370,1671462094748099512,enu,-0.0032,0.0046,0.0012,0.0,0.0,0.0,6.4e-05,0.0,0.0,0.0,0.0,0.0,0.0,8.1e-05,0.0,0.0,0.0,0.0,0.0,0.0,6.4e-05,0.0,0.0,0.0,0.0,0.0,0.0,0.0,0.0,0.0,0.0,0.0,0.0,0.0,0.0,0.0,0.0,0.0,0.0,0.0,0.0,0.0
1671462094723315838,354371,1671462094758101083,enu,-0.0033,0.0047,0.0012,0.0,0.0,0.0,6.4e-05,0.0,0.0,0.0,0.0,0.0,0.0,8.1e-05,0.0,0.0,0.0,0.0,0.0,0.0,6.4e-05,0.0,0.0,0.0,0.0,0.0,0.0,0.0,0.0,0.0,0.0,0.0,0.0,0.0,0.0,0.0,0.0,0.0,0.0,0.0,0.0,0.0
1671462094733700490,354372,1671462094768228893,enu,-0.0032,0.0047,0.0013,0.0,0.0,0.0,6.4e-05,0.0,0.0,0.0,0.0,0.0,0.0,8.1e-05,0.0,0.0,0.0,0.0,0.0,0.0,6.4e-05,0.0,0.0,0.0,0.0,0.0,0.0,0.0,0.0,0.0,0.0,0.0,0.0,0.0,0.0,0.0,0.0,0.0,0.0,0.0,0.0,0.0
1671462094743173859,354373,1671462094778123037,enu,-0.0033,0.0045,0.0012,0.0,0.0,0.0,6.4e-05,0.0,0.0,0.0,0.0,0.0,0.0,8.1e-05,0.0,0.0,0.0,0.0,0.0,0.0,6.4e-05,0.0,0.0,0.0,0.0,0.0,0.0,0.0,0.0,0.0,0.0,0.0,0.0,0.0,0.0,0.0,0.0,0.0,0.0,0.0,0.0,0.0
1671462094753714028,354374,1671462094788118455,enu,-0.0033,0.0045,0.0012,0.0,0.0,0.0,6.4e-05,0.0,0.0,0.0,0.0,0.0,0.0,8.1e-05,0.0,0.0,0.0,0.0,0.0,0.0,6.4e-05,0.0,0.0,0.0,0.0,0.0,0.0,0.0,0.0,0.0,0.0,0.0,0.0,0.0,0.0,0.0,0.0,0.0,0.0,0.0,0.0,0.0
1671462094763898620,354375,1671462094798193666,enu,-0.0033,0.0046,0.0012,0.0,0.0,0.0,6.4e-05,0.0,0.0,0.0,0.0,0.0,0.0,8.1e-05,0.0,0.0,0.0,0.0,0.0,0.0,6.4e-05,0.0,0.0,0.0,0.0,0.0,0.0,0.0,0.0,0.0,0.0,0.0,0.0,0.0,0.0,0.0,0.0,0.0,0.0,0.0,0.0,0.0
1671462094773465005,354376,1671462094808115619,enu,-0.0035,0.0046,0.0011,0.0,0.0,0.0,6.4e-05,0.0,0.0,0.0,0.0,0.0,0.0,8.1e-05,0.0,0.0,0.0,0.0,0.0,0.0,6.4e-05,0.0,0.0,0.0,0.0,0.0,0.0,0.0,0.0,0.0,0.0,0.0,0.0,0.0,0.0,0.0,0.0,0.0,0.0,0.0,0.0,0.0
1671462094783411691,354377,1671462094818119003,enu,-0.0036,0.0046,0.001,0.0,0.0,0.0,6.4e-05,0.0,0.0,0.0,0.0,0.0,0.0,8.1e-05,0.0,0.0,0.0,0.0,0.0,0.0,6.4e-05,0.0,0.0,0.0,0.0,0.0,0.0,0.0,0.0,0.0,0.0,0.0,0.0,0.0,0.0,0.0,0.0,0.0,0.0,0.0,0.0,0.0
1671462094793751786,354378,1671462094828181813,enu,-0.0036,0.0046,0.0009,0.0,0.0,0.0,6.4e-05,0.0,0.0,0.0,0.0,0.0,0.0,8.1e-05,0.0,0.0,0.0,0.0,0.0,0.0,6.4e-05,0.0,0.0,0.0,0.0,0.0,0.0,0.0,0.0,0.0,0.0,0.0,0.0,0.0,0.0,0.0,0.0,0.0,0.0,0.0,0.0,0.0
1671462094803452652,354379,1671462094838127741,enu,-0.0038,0.0047,0.0009,0.0,0.0,0.0,6.4e-05,0.0,0.0,0.0,0.0,0.0,0.0,8.1e-05,0.0,0.0,0.0,0.0,0.0,0.0,6.4e-05,0.0,0.0,0.0,0.0,0.0,0.0,0.0,0.0,0.0,0.0,0.0,0.0,0.0,0.0,0.0,0.0,0.0,0.0,0.0,0.0,0.0
1671462094813608122,354380,1671462094848189044,enu,-0.0039,0.0047,0.0009,0.0,0.0,0.0,6.4e-05,0.0,0.0,0.0,0.0,0.0,0.0,8.1e-05,0.0,0.0,0.0,0.0,0.0,0.0,6.4e-05,0.0,0.0,0.0,0.0,0.0,0.0,0.0,0.0,0.0,0.0,0.0,0.0,0.0,0.0,0.0,0.0,0.0,0.0,0.0,0.0,0.0
1671462094823427028,354381,1671462094858118868,enu,-0.004,0.0048,0.0008,0.0,0.0,0.0,6.4e-05,0.0,0.0,0.0,0.0,0.0,0.0,8.1e-05,0.0,0.0,0.0,0.0,0.0,0.0,6.4e-05,0.0,0.0,0.0,0.0,0.0,0.0,0.0,0.0,0.0,0.0,0.0,0.0,0.0,0.0,0.0,0.0,0.0,0.0,0.0,0.0,0.0
1671462094833489292,354382,1671462094868209212,enu,-0.004,0.0047,0.0008,0.0,0.0,0.0,6.4e-05,0.0,0.0,0.0,0.0,0.0,0.0,8.1e-05,0.0,0.0,0.0,0.0,0.0,0.0,6.4e-05,0.0,0.0,0.0,0.0,0.0,0.0,0.0,0.0,0.0,0.0,0.0,0.0,0.0,0.0,0.0,0.0,0.0,0.0,0.0,0.0,0.0
1671462094843490623,354383,1671462094878115149,enu,-0.0041,0.0049,0.0009,0.0,0.0,0.0,6.4e-05,0.0,0.0,0.0,0.0,0.0,0.0,8.1e-05,0.0,0.0,0.0,0.0,0.0,0.0,6.4e-05,0.0,0.0,0.0,0.0,0.0,0.0,0.0,0.0,0.0,0.0,0.0,0.0,0.0,0.0,0.0,0.0,0.0,0.0,0.0,0.0,0.0
1671462094853386693,354384,1671462094888165478,enu,-0.0041,0.0048,0.0008,0.0,0.0,0.0,6.4e-05,0.0,0.0,0.0,0.0,0.0,0.0,8.1e-05,0.0,0.0,0.0,0.0,0.0,0.0,6.4e-05,0.0,0.0,0.0,0.0,0.0,0.0,0.0,0.0,0.0,0.0,0.0,0.0,0.0,0.0,0.0,0.0,0.0,0.0,0.0,0.0,0.0
1671462094863314944,354385,1671462094898105778,enu,-0.004,0.0048,0.0009,0.0,0.0,0.0,6.4e-05,0.0,0.0,0.0,0.0,0.0,0.0,8.1e-05,0.0,0.0,0.0,0.0,0.0,0.0,6.4e-05,0.0,0.0,0.0,0.0,0.0,0.0,0.0,0.0,0.0,0.0,0.0,0.0,0.0,0.0,0.0,0.0,0.0,0.0,0.0,0.0,0.0
1671462094873387050,354386,1671462094908115476,enu,-0.004,0.0048,0.0009,0.0,0.0,0.0,6.4e-05,0.0,0.0,0.0,0.0,0.0,0.0,8.1e-05,0.0,0.0,0.0,0.0,0.0,0.0,6.4e-05,0.0,0.0,0.0,0.0,0.0,0.0,0.0,0.0,0.0,0.0,0.0,0.0,0.0,0.0,0.0,0.0,0.0,0.0,0.0,0.0,0.0
1671462094883824758,354387,1671462094918192355,enu,-0.004,0.0048,0.001,0.0,0.0,0.0,6.4e-05,0.0,0.0,0.0,0.0,0.0,0.0,8.1e-05,0.0,0.0,0.0,0.0,0.0,0.0,6.4e-05,0.0,0.0,0.0,0.0,0.0,0.0,0.0,0.0,0.0,0.0,0.0,0.0,0.0,0.0,0.0,0.0,0.0,0.0,0.0,0.0,0.0
1671462094893785632,354388,1671462094928119821,enu,-0.0039,0.0046,0.0011,0.0,0.0,0.0,6.4e-05,0.0,0.0,0.0,0.0,0.0,0.0,8.1e-05,0.0,0.0,0.0,0.0,0.0,0.0,6.4e-05,0.0,0.0,0.0,0.0,0.0,0.0,0.0,0.0,0.0,0.0,0.0,0.0,0.0,0.0,0.0,0.0,0.0,0.0,0.0,0.0,0.0
1671462094903795884,354389,1671462094938222857,enu,-0.0039,0.0049,0.0012,0.0,0.0,0.0,6.4e-05,0.0,0.0,0.0,0.0,0.0,0.0,8.1e-05,0.0,0.0,0.0,0.0,0.0,0.0,6.4e-05,0.0,0.0,0.0,0.0,0.0,0.0,0.0,0.0,0.0,0.0,0.0,0.0,0.0,0.0,0.0,0.0,0.0,0.0,0.0,0.0,0.0
1671462094913256807,354390,1671462094948182504,enu,-0.0038,0.0046,0.0012,0.0,0.0,0.0,6.4e-05,0.0,0.0,0.0,0.0,0.0,0.0,8.1e-05,0.0,0.0,0.0,0.0,0.0,0.0,6.4e-05,0.0,0.0,0.0,0.0,0.0,0.0,0.0,0.0,0.0,0.0,0.0,0.0,0.0,0.0,0.0,0.0,0.0,0.0,0.0,0.0,0.0
1671462094923557495,354391,1671462094958117272,enu,-0.0038,0.0046,0.0013,0.0,0.0,0.0,6.4e-05,0.0,0.0,0.0,0.0,0.0,0.0,8.1e-05,0.0,0.0,0.0,0.0,0.0,0.0,6.4e-05,0.0,0.0,0.0,0.0,0.0,0.0,0.0,0.0,0.0,0.0,0.0,0.0,0.0,0.0,0.0,0.0,0.0,0.0,0.0,0.0,0.0
1671462094933350579,354392,1671462094968122301,enu,-0.0038,0.0046,0.0013,0.0,0.0,0.0,6.4e-05,0.0,0.0,0.0,0.0,0.0,0.0,8.1e-05,0.0,0.0,0.0,0.0,0.0,0.0,6.4e-05,0.0,0.0,0.0,0.0,0.0,0.0,0.0,0.0,0.0,0.0,0.0,0.0,0.0,0.0,0.0,0.0,0.0,0.0,0.0,0.0,0.0
1671462094943551216,354393,1671462094978186293,enu,-0.0038,0.0045,0.0013,0.0,0.0,0.0,6.4e-05,0.0,0.0,0.0,0.0,0.0,0.0,8.1e-05,0.0,0.0,0.0,0.0,0.0,0.0,6.4e-05,0.0,0.0,0.0,0.0,0.0,0.0,0.0,0.0,0.0,0.0,0.0,0.0,0.0,0.0,0.0,0.0,0.0,0.0,0.0,0.0,0.0
1671462094953421568,354394,1671462094988122582,enu,-0.0038,0.0047,0.0014,0.0,0.0,0.0,6.4e-05,0.0,0.0,0.0,0.0,0.0,0.0,8.1e-05,0.0,0.0,0.0,0.0,0.0,0.0,6.4e-05,0.0,0.0,0.0,0.0,0.0,0.0,0.0,0.0,0.0,0.0,0.0,0.0,0.0,0.0,0.0,0.0,0.0,0.0,0.0,0.0,0.0
1671462094963356224,354395,1671462094998123607,enu,-0.0038,0.0044,0.0013,0.0,0.0,0.0,6.4e-05,0.0,0.0,0.0,0.0,0.0,0.0,8.1e-05,0.0,0.0,0.0,0.0,0.0,0.0,6.4e-05,0.0,0.0,0.0,0.0,0.0,0.0,0.0,0.0,0.0,0.0,0.0,0.0,0.0,0.0,0.0,0.0,0.0,0.0,0.0,0.0,0.0
1671462094973273012,354396,1671462095008149439,enu,-0.0038,0.0045,0.0013,0.0,0.0,0.0,6.4e-05,0.0,0.0,0.0,0.0,0.0,0.0,8.1e-05,0.0,0.0,0.0,0.0,0.0,0.0,6.4e-05,0.0,0.0,0.0,0.0,0.0,0.0,0.0,0.0,0.0,0.0,0.0,0.0,0.0,0.0,0.0,0.0,0.0,0.0,0.0,0.0,0.0
1671462094983382630,354397,1671462095018110696,enu,-0.0038,0.0045,0.0013,0.0,0.0,0.0,6.4e-05,0.0,0.0,0.0,0.0,0.0,0.0,8.1e-05,0.0,0.0,0.0,0.0,0.0,0.0,6.4e-05,0.0,0.0,0.0,0.0,0.0,0.0,0.0,0.0,0.0,0.0,0.0,0.0,0.0,0.0,0.0,0.0,0.0,0.0,0.0,0.0,0.0
1671462094993600050,354398,1671462095028120830,enu,-0.0038,0.0045,0.0012,0.0,0.0,0.0,6.4e-05,0.0,0.0,0.0,0.0,0.0,0.0,8.1e-05,0.0,0.0,0.0,0.0,0.0,0.0,6.4e-05,0.0,0.0,0.0,0.0,0.0,0.0,0.0,0.0,0.0,0.0,0.0,0.0,0.0,0.0,0.0,0.0,0.0,0.0,0.0,0.0,0.0
1671462095003377241,354399,1671462095038347289,enu,-0.0038,0.0045,0.0012,0.0,0.0,0.0,6.4e-05,0.0,0.0,0.0,0.0,0.0,0.0,8.1e-05,0.0,0.0,0.0,0.0,0.0,0.0,6.4e-05,0.0,0.0,0.0,0.0,0.0,0.0,0.0,0.0,0.0,0.0,0.0,0.0,0.0,0.0,0.0,0.0,0.0,0.0,0.0,0.0,0.0
1671462095013316040,354400,1671462095048146861,enu,-0.0038,0.0044,0.0011,0.0,0.0,0.0,6.4e-05,0.0,0.0,0.0,0.0,0.0,0.0,8.1e-05,0.0,0.0,0.0,0.0,0.0,0.0,6.4e-05,0.0,0.0,0.0,0.0,0.0,0.0,0.0,0.0,0.0,0.0,0.0,0.0,0.0,0.0,0.0,0.0,0.0,0.0,0.0,0.0,0.0
1671462095023788756,354401,1671462095058205128,enu,-0.0038,0.0046,0.0012,0.0,0.0,0.0,6.4e-05,0.0,0.0,0.0,0.0,0.0,0.0,8.1e-05,0.0,0.0,0.0,0.0,0.0,0.0,6.4e-05,0.0,0.0,0.0,0.0,0.0,0.0,0.0,0.0,0.0,0.0,0.0,0.0,0.0,0.0,0.0,0.0,0.0,0.0,0.0,0.0,0.0
1671462095033964767,354402,1671462095068250234,enu,-0.0038,0.0045,0.0011,0.0,0.0,0.0,6.4e-05,0.0,0.0,0.0,0.0,0.0,0.0,8.1e-05,0.0,0.0,0.0,0.0,0.0,0.0,6.4e-05,0.0,0.0,0.0,0.0,0.0,0.0,0.0,0.0,0.0,0.0,0.0,0.0,0.0,0.0,0.0,0.0,0.0,0.0,0.0,0.0,0.0
1671462095043819076,354403,1671462095078196153,enu,-0.0038,0.0045,0.0011,0.0,0.0,0.0,6.4e-05,0.0,0.0,0.0,0.0,0.0,0.0,8.1e-05,0.0,0.0,0.0,0.0,0.0,0.0,6.4e-05,0.0,0.0,0.0,0.0,0.0,0.0,0.0,0.0,0.0,0.0,0.0,0.0,0.0,0.0,0.0,0.0,0.0,0.0,0.0,0.0,0.0
1671462095053618726,354404,1671462095088135612,enu,-0.0037,0.0046,0.0012,0.0,0.0,0.0,6.4e-05,0.0,0.0,0.0,0.0,0.0,0.0,8.1e-05,0.0,0.0,0.0,0.0,0.0,0.0,6.4e-05,0.0,0.0,0.0,0.0,0.0,0.0,0.0,0.0,0.0,0.0,0.0,0.0,0.0,0.0,0.0,0.0,0.0,0.0,0.0,0.0,0.0
1671462095063705880,354405,1671462095098236532,enu,-0.0038,0.0045,0.0011,0.0,0.0,0.0,6.4e-05,0.0,0.0,0.0,0.0,0.0,0.0,8.1e-05,0.0,0.0,0.0,0.0,0.0,0.0,6.4e-05,0.0,0.0,0.0,0.0,0.0,0.0,0.0,0.0,0.0,0.0,0.0,0.0,0.0,0.0,0.0,0.0,0.0,0.0,0.0,0.0,0.0
1671462095073529713,354406,1671462095108232172,enu,-0.0037,0.0045,0.0012,0.0,0.0,0.0,6.4e-05,0.0,0.0,0.0,0.0,0.0,0.0,8.1e-05,0.0,0.0,0.0,0.0,0.0,0.0,6.4e-05,0.0,0.0,0.0,0.0,0.0,0.0,0.0,0.0,0.0,0.0,0.0,0.0,0.0,0.0,0.0,0.0,0.0,0.0,0.0,0.0,0.0
1671462095083532407,354407,1671462095118290307,enu,-0.0038,0.0045,0.0012,0.0,0.0,0.0,6.4e-05,0.0,0.0,0.0,0.0,0.0,0.0,8.1e-05,0.0,0.0,0.0,0.0,0.0,0.0,6.4e-05,0.0,0.0,0.0,0.0,0.0,0.0,0.0,0.0,0.0,0.0,0.0,0.0,0.0,0.0,0.0,0.0,0.0,0.0,0.0,0.0,0.0
1671462095093694198,354408,1671462095128201081,enu,-0.0037,0.0045,0.0012,0.0,0.0,0.0,6.4e-05,0.0,0.0,0.0,0.0,0.0,0.0,8.1e-05,0.0,0.0,0.0,0.0,0.0,0.0,6.4e-05,0.0,0.0,0.0,0.0,0.0,0.0,0.0,0.0,0.0,0.0,0.0,0.0,0.0,0.0,0.0,0.0,0.0,0.0,0.0,0.0,0.0
1671462095103396165,354409,1671462095138121122,enu,-0.0037,0.0045,0.0013,0.0,0.0,0.0,6.4e-05,0.0,0.0,0.0,0.0,0.0,0.0,8.1e-05,0.0,0.0,0.0,0.0,0.0,0.0,6.4e-05,0.0,0.0,0.0,0.0,0.0,0.0,0.0,0.0,0.0,0.0,0.0,0.0,0.0,0.0,0.0,0.0,0.0,0.0,0.0,0.0,0.0
1671462095113663560,354410,1671462095148124739,enu,-0.0038,0.0046,0.0013,0.0,0.0,0.0,6.4e-05,0.0,0.0,0.0,0.0,0.0,0.0,8.1e-05,0.0,0.0,0.0,0.0,0.0,0.0,6.4e-05,0.0,0.0,0.0,0.0,0.0,0.0,0.0,0.0,0.0,0.0,0.0,0.0,0.0,0.0,0.0,0.0,0.0,0.0,0.0,0.0,0.0
1671462095123430383,354411,1671462095158202258,enu,-0.0039,0.0044,0.0013,0.0,0.0,0.0,6.4e-05,0.0,0.0,0.0,0.0,0.0,0.0,8.1e-05,0.0,0.0,0.0,0.0,0.0,0.0,6.4e-05,0.0,0.0,0.0,0.0,0.0,0.0,0.0,0.0,0.0,0.0,0.0,0.0,0.0,0.0,0.0,0.0,0.0,0.0,0.0,0.0,0.0
1671462095133458599,354412,1671462095168110254,enu,-0.0039,0.0045,0.0013,0.0,0.0,0.0,6.4e-05,0.0,0.0,0.0,0.0,0.0,0.0,8.1e-05,0.0,0.0,0.0,0.0,0.0,0.0,6.4e-05,0.0,0.0,0.0,0.0,0.0,0.0,0.0,0.0,0.0,0.0,0.0,0.0,0.0,0.0,0.0,0.0,0.0,0.0,0.0,0.0,0.0
1671462095143314987,354413,1671462095178113085,enu,-0.004,0.0043,0.0013,0.0,0.0,0.0,6.4e-05,0.0,0.0,0.0,0.0,0.0,0.0,8.1e-05,0.0,0.0,0.0,0.0,0.0,0.0,6.4e-05,0.0,0.0,0.0,0.0,0.0,0.0,0.0,0.0,0.0,0.0,0.0,0.0,0.0,0.0,0.0,0.0,0.0,0.0,0.0,0.0,0.0
1671462095153721673,354414,1671462095188263794,enu,-0.0041,0.0045,0.0014,0.0,0.0,0.0,6.4e-05,0.0,0.0,0.0,0.0,0.0,0.0,8.1e-05,0.0,0.0,0.0,0.0,0.0,0.0,6.4e-05,0.0,0.0,0.0,0.0,0.0,0.0,0.0,0.0,0.0,0.0,0.0,0.0,0.0,0.0,0.0,0.0,0.0,0.0,0.0,0.0,0.0
1671462095163528916,354415,1671462095198123522,enu,-0.0041,0.0043,0.0013,0.0,0.0,0.0,6.4e-05,0.0,0.0,0.0,0.0,0.0,0.0,8.1e-05,0.0,0.0,0.0,0.0,0.0,0.0,6.4e-05,0.0,0.0,0.0,0.0,0.0,0.0,0.0,0.0,0.0,0.0,0.0,0.0,0.0,0.0,0.0,0.0,0.0,0.0,0.0,0.0,0.0
1671462095173174745,354416,1671462095208122790,enu,-0.0043,0.0044,0.0013,0.0,0.0,0.0,6.4e-05,0.0,0.0,0.0,0.0,0.0,0.0,8.1e-05,0.0,0.0,0.0,0.0,0.0,0.0,6.4e-05,0.0,0.0,0.0,0.0,0.0,0.0,0.0,0.0,0.0,0.0,0.0,0.0,0.0,0.0,0.0,0.0,0.0,0.0,0.0,0.0,0.0
1671462095183893540,354417,1671462095218186367,enu,-0.0043,0.0044,0.0014,0.0,0.0,0.0,6.4e-05,0.0,0.0,0.0,0.0,0.0,0.0,8.1e-05,0.0,0.0,0.0,0.0,0.0,0.0,6.4e-05,0.0,0.0,0.0,0.0,0.0,0.0,0.0,0.0,0.0,0.0,0.0,0.0,0.0,0.0,0.0,0.0,0.0,0.0,0.0,0.0,0.0
1671462095193705097,354418,1671462095228112720,enu,-0.0043,0.0044,0.0014,0.0,0.0,0.0,6.4e-05,0.0,0.0,0.0,0.0,0.0,0.0,8.1e-05,0.0,0.0,0.0,0.0,0.0,0.0,6.4e-05,0.0,0.0,0.0,0.0,0.0,0.0,0.0,0.0,0.0,0.0,0.0,0.0,0.0,0.0,0.0,0.0,0.0,0.0,0.0,0.0,0.0
1671462095203592242,354419,1671462095238116242,enu,-0.0043,0.0044,0.0014,0.0,0.0,0.0,6.4e-05,0.0,0.0,0.0,0.0,0.0,0.0,8.1e-05,0.0,0.0,0.0,0.0,0.0,0.0,6.4e-05,0.0,0.0,0.0,0.0,0.0,0.0,0.0,0.0,0.0,0.0,0.0,0.0,0.0,0.0,0.0,0.0,0.0,0.0,0.0,0.0,0.0
1671462095213452418,354420,1671462095248191989,enu,-0.0044,0.0044,0.0014,0.0,0.0,0.0,6.4e-05,0.0,0.0,0.0,0.0,0.0,0.0,8.1e-05,0.0,0.0,0.0,0.0,0.0,0.0,6.4e-05,0.0,0.0,0.0,0.0,0.0,0.0,0.0,0.0,0.0,0.0,0.0,0.0,0.0,0.0,0.0,0.0,0.0,0.0,0.0,0.0,0.0
1671462095223757497,354421,1671462095258125434,enu,-0.0044,0.0043,0.0014,0.0,0.0,0.0,6.4e-05,0.0,0.0,0.0,0.0,0.0,0.0,8.1e-05,0.0,0.0,0.0,0.0,0.0,0.0,6.4e-05,0.0,0.0,0.0,0.0,0.0,0.0,0.0,0.0,0.0,0.0,0.0,0.0,0.0,0.0,0.0,0.0,0.0,0.0,0.0,0.0,0.0
1671462095233639277,354422,1671462095268125446,enu,-0.0043,0.0044,0.0014,0.0,0.0,0.0,6.4e-05,0.0,0.0,0.0,0.0,0.0,0.0,8.1e-05,0.0,0.0,0.0,0.0,0.0,0.0,6.4e-05,0.0,0.0,0.0,0.0,0.0,0.0,0.0,0.0,0.0,0.0,0.0,0.0,0.0,0.0,0.0,0.0,0.0,0.0,0.0,0.0,0.0
1671462095243619535,354423,1671462095278194695,enu,-0.0043,0.0044,0.0014,0.0,0.0,0.0,6.4e-05,0.0,0.0,0.0,0.0,0.0,0.0,8.1e-05,0.0,0.0,0.0,0.0,0.0,0.0,6.4e-05,0.0,0.0,0.0,0.0,0.0,0.0,0.0,0.0,0.0,0.0,0.0,0.0,0.0,0.0,0.0,0.0,0.0,0.0,0.0,0.0,0.0
1671462095253416081,354424,1671462095288124862,enu,-0.0043,0.0044,0.0014,0.0,0.0,0.0,6.4e-05,0.0,0.0,0.0,0.0,0.0,0.0,8.1e-05,0.0,0.0,0.0,0.0,0.0,0.0,6.4e-05,0.0,0.0,0.0,0.0,0.0,0.0,0.0,0.0,0.0,0.0,0.0,0.0,0.0,0.0,0.0,0.0,0.0,0.0,0.0,0.0,0.0
1671462095263386662,354425,1671462095298144471,enu,-0.0042,0.0045,0.0014,0.0,0.0,0.0,4.9e-05,0.0,0.0,0.0,0.0,0.0,0.0,6.4e-05,0.0,0.0,0.0,0.0,0.0,0.0,4.9e-05,0.0,0.0,0.0,0.0,0.0,0.0,0.0,0.0,0.0,0.0,0.0,0.0,0.0,0.0,0.0,0.0,0.0,0.0,0.0,0.0,0.0
1671462095273430117,354426,1671462095308167661,enu,-0.0041,0.0045,0.0013,0.0,0.0,0.0,4.9e-05,0.0,0.0,0.0,0.0,0.0,0.0,6.4e-05,0.0,0.0,0.0,0.0,0.0,0.0,4.9e-05,0.0,0.0,0.0,0.0,0.0,0.0,0.0,0.0,0.0,0.0,0.0,0.0,0.0,0.0,0.0,0.0,0.0,0.0,0.0,0.0,0.0
1671462095283248628,354427,1671462095318117133,enu,-0.0041,0.0045,0.0013,0.0,0.0,0.0,4.9e-05,0.0,0.0,0.0,0.0,0.0,0.0,6.4e-05,0.0,0.0,0.0,0.0,0.0,0.0,4.9e-05,0.0,0.0,0.0,0.0,0.0,0.0,0.0,0.0,0.0,0.0,0.0,0.0,0.0,0.0,0.0,0.0,0.0,0.0,0.0,0.0,0.0
1671462095293536550,354428,1671462095328111119,enu,-0.004,0.0046,0.0013,0.0,0.0,0.0,4.9e-05,0.0,0.0,0.0,0.0,0.0,0.0,6.4e-05,0.0,0.0,0.0,0.0,0.0,0.0,4.9e-05,0.0,0.0,0.0,0.0,0.0,0.0,0.0,0.0,0.0,0.0,0.0,0.0,0.0,0.0,0.0,0.0,0.0,0.0,0.0,0.0,0.0
1671462095303399155,354429,1671462095338197040,enu,-0.004,0.0046,0.0014,0.0,0.0,0.0,4.9e-05,0.0,0.0,0.0,0.0,0.0,0.0,6.4e-05,0.0,0.0,0.0,0.0,0.0,0.0,4.9e-05,0.0,0.0,0.0,0.0,0.0,0.0,0.0,0.0,0.0,0.0,0.0,0.0,0.0,0.0,0.0,0.0,0.0,0.0,0.0,0.0,0.0
1671462095313443731,354430,1671462095348123897,enu,-0.004,0.0048,0.0015,0.0,0.0,0.0,4.9e-05,0.0,0.0,0.0,0.0,0.0,0.0,6.4e-05,0.0,0.0,0.0,0.0,0.0,0.0,4.9e-05,0.0,0.0,0.0,0.0,0.0,0.0,0.0,0.0,0.0,0.0,0.0,0.0,0.0,0.0,0.0,0.0,0.0,0.0,0.0,0.0,0.0
1671462095323488255,354431,1671462095358140746,enu,-0.004,0.0047,0.0013,0.0,0.0,0.0,4.9e-05,0.0,0.0,0.0,0.0,0.0,0.0,6.4e-05,0.0,0.0,0.0,0.0,0.0,0.0,4.9e-05,0.0,0.0,0.0,0.0,0.0,0.0,0.0,0.0,0.0,0.0,0.0,0.0,0.0,0.0,0.0,0.0,0.0,0.0,0.0,0.0,0.0
1671462095333697593,354432,1671462095368268159,enu,-0.0039,0.0048,0.0015,0.0,0.0,0.0,4.9e-05,0.0,0.0,0.0,0.0,0.0,0.0,6.4e-05,0.0,0.0,0.0,0.0,0.0,0.0,4.9e-05,0.0,0.0,0.0,0.0,0.0,0.0,0.0,0.0,0.0,0.0,0.0,0.0,0.0,0.0,0.0,0.0,0.0,0.0,0.0,0.0,0.0
1671462095343148587,354433,1671462095378134899,enu,-0.004,0.0048,0.0014,0.0,0.0,0.0,4.9e-05,0.0,0.0,0.0,0.0,0.0,0.0,6.4e-05,0.0,0.0,0.0,0.0,0.0,0.0,4.9e-05,0.0,0.0,0.0,0.0,0.0,0.0,0.0,0.0,0.0,0.0,0.0,0.0,0.0,0.0,0.0,0.0,0.0,0.0,0.0,0.0,0.0
1671462095353457777,354434,1671462095388134172,enu,-0.0041,0.005,0.0014,0.0,0.0,0.0,4.9e-05,0.0,0.0,0.0,0.0,0.0,0.0,6.4e-05,0.0,0.0,0.0,0.0,0.0,0.0,4.9e-05,0.0,0.0,0.0,0.0,0.0,0.0,0.0,0.0,0.0,0.0,0.0,0.0,0.0,0.0,0.0,0.0,0.0,0.0,0.0,0.0,0.0
1671462095363713013,354435,1671462095398191556,enu,-0.0042,0.005,0.0013,0.0,0.0,0.0,4.9e-05,0.0,0.0,0.0,0.0,0.0,0.0,6.4e-05,0.0,0.0,0.0,0.0,0.0,0.0,4.9e-05,0.0,0.0,0.0,0.0,0.0,0.0,0.0,0.0,0.0,0.0,0.0,0.0,0.0,0.0,0.0,0.0,0.0,0.0,0.0,0.0,0.0
1671462095373708974,354436,1671462095408127868,enu,-0.0044,0.0053,0.0013,0.0,0.0,0.0,4.9e-05,0.0,0.0,0.0,0.0,0.0,0.0,6.4e-05,0.0,0.0,0.0,0.0,0.0,0.0,4.9e-05,0.0,0.0,0.0,0.0,0.0,0.0,0.0,0.0,0.0,0.0,0.0,0.0,0.0,0.0,0.0,0.0,0.0,0.0,0.0,0.0,0.0
1671462095383680014,354437,1671462095418132134,enu,-0.0045,0.0053,0.0016,0.0,0.0,0.0,4.9e-05,0.0,0.0,0.0,0.0,0.0,0.0,6.4e-05,0.0,0.0,0.0,0.0,0.0,0.0,4.9e-05,0.0,0.0,0.0,0.0,0.0,0.0,0.0,0.0,0.0,0.0,0.0,0.0,0.0,0.0,0.0,0.0,0.0,0.0,0.0,0.0,0.0
1671462095393764527,354438,1671462095428250970,enu,-0.0047,0.0051,0.0013,0.0,0.0,0.0,4.9e-05,0.0,0.0,0.0,0.0,0.0,0.0,6.4e-05,0.0,0.0,0.0,0.0,0.0,0.0,4.9e-05,0.0,0.0,0.0,0.0,0.0,0.0,0.0,0.0,0.0,0.0,0.0,0.0,0.0,0.0,0.0,0.0,0.0,0.0,0.0,0.0,0.0
1671462095403420336,354439,1671462095438257133,enu,-0.0048,0.0052,0.0015,0.0,0.0,0.0,4.9e-05,0.0,0.0,0.0,0.0,0.0,0.0,6.4e-05,0.0,0.0,0.0,0.0,0.0,0.0,4.9e-05,0.0,0.0,0.0,0.0,0.0,0.0,0.0,0.0,0.0,0.0,0.0,0.0,0.0,0.0,0.0,0.0,0.0,0.0,0.0,0.0,0.0
1671462095413593748,354440,1671462095448125346,enu,-0.0051,0.0048,0.0015,0.0,0.0,0.0,4.9e-05,0.0,0.0,0.0,0.0,0.0,0.0,6.4e-05,0.0,0.0,0.0,0.0,0.0,0.0,4.9e-05,0.0,0.0,0.0,0.0,0.0,0.0,0.0,0.0,0.0,0.0,0.0,0.0,0.0,0.0,0.0,0.0,0.0,0.0,0.0,0.0,0.0
1671462095423452971,354441,1671462095458181487,enu,-0.0051,0.0047,0.0013,0.0,0.0,0.0,4.9e-05,0.0,0.0,0.0,0.0,0.0,0.0,6.4e-05,0.0,0.0,0.0,0.0,0.0,0.0,4.9e-05,0.0,0.0,0.0,0.0,0.0,0.0,0.0,0.0,0.0,0.0,0.0,0.0,0.0,0.0,0.0,0.0,0.0,0.0,0.0,0.0,0.0
1671462095433507575,354442,1671462095468114908,enu,-0.0053,0.0042,0.0015,0.0,0.0,0.0,4.9e-05,0.0,0.0,0.0,0.0,0.0,0.0,6.4e-05,0.0,0.0,0.0,0.0,0.0,0.0,4.9e-05,0.0,0.0,0.0,0.0,0.0,0.0,0.0,0.0,0.0,0.0,0.0,0.0,0.0,0.0,0.0,0.0,0.0,0.0,0.0,0.0,0.0
1671462095443455128,354443,1671462095478127474,enu,-0.0053,0.0038,0.0013,0.0,0.0,0.0,4.9e-05,0.0,0.0,0.0,0.0,0.0,0.0,6.4e-05,0.0,0.0,0.0,0.0,0.0,0.0,4.9e-05,0.0,0.0,0.0,0.0,0.0,0.0,0.0,0.0,0.0,0.0,0.0,0.0,0.0,0.0,0.0,0.0,0.0,0.0,0.0,0.0,0.0
1671462095453571021,354444,1671462095488179282,enu,-0.0053,0.0034,0.0013,0.0,0.0,0.0,4.9e-05,0.0,0.0,0.0,0.0,0.0,0.0,6.4e-05,0.0,0.0,0.0,0.0,0.0,0.0,4.9e-05,0.0,0.0,0.0,0.0,0.0,0.0,0.0,0.0,0.0,0.0,0.0,0.0,0.0,0.0,0.0,0.0,0.0,0.0,0.0,0.0,0.0
1671462095463599189,354445,1671462095498134827,enu,-0.0053,0.0028,0.0013,0.0,0.0,0.0,4.9e-05,0.0,0.0,0.0,0.0,0.0,0.0,6.4e-05,0.0,0.0,0.0,0.0,0.0,0.0,4.9e-05,0.0,0.0,0.0,0.0,0.0,0.0,0.0,0.0,0.0,0.0,0.0,0.0,0.0,0.0,0.0,0.0,0.0,0.0,0.0,0.0,0.0
1671462095473593565,354446,1671462095508126061,enu,-0.0053,0.002,0.0012,0.0,0.0,0.0,4.9e-05,0.0,0.0,0.0,0.0,0.0,0.0,6.4e-05,0.0,0.0,0.0,0.0,0.0,0.0,4.9e-05,0.0,0.0,0.0,0.0,0.0,0.0,0.0,0.0,0.0,0.0,0.0,0.0,0.0,0.0,0.0,0.0,0.0,0.0,0.0,0.0,0.0
1671462095483364597,354447,1671462095518202196,enu,-0.0052,0.0003,0.0011,0.0,0.0,0.0,4.9e-05,0.0,0.0,0.0,0.0,0.0,0.0,6.4e-05,0.0,0.0,0.0,0.0,0.0,0.0,4.9e-05,0.0,0.0,0.0,0.0,0.0,0.0,0.0,0.0,0.0,0.0,0.0,0.0,0.0,0.0,0.0,0.0,0.0,0.0,0.0,0.0,0.0
1671462095493537477,354448,1671462095528174254,enu,-0.0049,-0.0019,0.0007,0.0,0.0,0.0,4.9e-05,0.0,0.0,0.0,0.0,0.0,0.0,6.4e-05,0.0,0.0,0.0,0.0,0.0,0.0,4.9e-05,0.0,0.0,0.0,0.0,0.0,0.0,0.0,0.0,0.0,0.0,0.0,0.0,0.0,0.0,0.0,0.0,0.0,0.0,0.0,0.0,0.0
1671462095503461837,354449,1671462095538232875,enu,-0.0047,-0.0035,0.0006,0.0,0.0,0.0,4.9e-05,0.0,0.0,0.0,0.0,0.0,0.0,6.4e-05,0.0,0.0,0.0,0.0,0.0,0.0,4.9e-05,0.0,0.0,0.0,0.0,0.0,0.0,0.0,0.0,0.0,0.0,0.0,0.0,0.0,0.0,0.0,0.0,0.0,0.0,0.0,0.0,0.0
1671462095513328915,354450,1671462095548224363,enu,-0.0044,-0.0052,0.0003,0.0,0.0,0.0,4.9e-05,0.0,0.0,0.0,0.0,0.0,0.0,6.4e-05,0.0,0.0,0.0,0.0,0.0,0.0,4.9e-05,0.0,0.0,0.0,0.0,0.0,0.0,0.0,0.0,0.0,0.0,0.0,0.0,0.0,0.0,0.0,0.0,0.0,0.0,0.0,0.0,0.0
1671462095523415529,354451,1671462095558203012,enu,-0.0041,-0.0076,0.0002,0.0,0.0,0.0,4.9e-05,0.0,0.0,0.0,0.0,0.0,0.0,6.4e-05,0.0,0.0,0.0,0.0,0.0,0.0,4.9e-05,0.0,0.0,0.0,0.0,0.0,0.0,0.0,0.0,0.0,0.0,0.0,0.0,0.0,0.0,0.0,0.0,0.0,0.0,0.0,0.0,0.0
1671462095533396792,354452,1671462095568212003,enu,-0.0039,-0.0101,-0.0,0.0,0.0,0.0,4.9e-05,0.0,0.0,0.0,0.0,0.0,0.0,6.4e-05,0.0,0.0,0.0,0.0,0.0,0.0,4.9e-05,0.0,0.0,0.0,0.0,0.0,0.0,0.0,0.0,0.0,0.0,0.0,0.0,0.0,0.0,0.0,0.0,0.0,0.0,0.0,0.0,0.0
1671462095543559213,354453,1671462095578181043,enu,-0.0035,-0.0126,-0.0001,0.0,0.0,0.0,4.9e-05,0.0,0.0,0.0,0.0,0.0,0.0,6.4e-05,0.0,0.0,0.0,0.0,0.0,0.0,4.9e-05,0.0,0.0,0.0,0.0,0.0,0.0,0.0,0.0,0.0,0.0,0.0,0.0,0.0,0.0,0.0,0.0,0.0,0.0,0.0,0.0,0.0
1671462095553441806,354454,1671462095588204153,enu,-0.0031,-0.015,-0.0003,0.0,0.0,0.0,4.9e-05,0.0,0.0,0.0,0.0,0.0,0.0,6.4e-05,0.0,0.0,0.0,0.0,0.0,0.0,4.9e-05,0.0,0.0,0.0,0.0,0.0,0.0,0.0,0.0,0.0,0.0,0.0,0.0,0.0,0.0,0.0,0.0,0.0,0.0,0.0,0.0,0.0
1671462095563306634,354455,1671462095598155942,enu,-0.0026,-0.0172,-0.0003,0.0,0.0,0.0,4.9e-05,0.0,0.0,0.0,0.0,0.0,0.0,6.4e-05,0.0,0.0,0.0,0.0,0.0,0.0,4.9e-05,0.0,0.0,0.0,0.0,0.0,0.0,0.0,0.0,0.0,0.0,0.0,0.0,0.0,0.0,0.0,0.0,0.0,0.0,0.0,0.0,0.0
1671462095573361755,354456,1671462095608181494,enu,-0.002,-0.0197,-0.0003,0.0,0.0,0.0,4.9e-05,0.0,0.0,0.0,0.0,0.0,0.0,6.4e-05,0.0,0.0,0.0,0.0,0.0,0.0,4.9e-05,0.0,0.0,0.0,0.0,0.0,0.0,0.0,0.0,0.0,0.0,0.0,0.0,0.0,0.0,0.0,0.0,0.0,0.0,0.0,0.0,0.0
1671462095583709996,354457,1671462095618215320,enu,-0.0016,-0.0223,-0.0002,0.0,0.0,0.0,4.9e-05,0.0,0.0,0.0,0.0,0.0,0.0,6.4e-05,0.0,0.0,0.0,0.0,0.0,0.0,4.9e-05,0.0,0.0,0.0,0.0,0.0,0.0,0.0,0.0,0.0,0.0,0.0,0.0,0.0,0.0,0.0,0.0,0.0,0.0,0.0,0.0,0.0
1671462095593669817,354458,1671462095628174062,enu,-0.0012,-0.0252,-0.0002,0.0,0.0,0.0,4.9e-05,0.0,0.0,0.0,0.0,0.0,0.0,6.4e-05,0.0,0.0,0.0,0.0,0.0,0.0,4.9e-05,0.0,0.0,0.0,0.0,0.0,0.0,0.0,0.0,0.0,0.0,0.0,0.0,0.0,0.0,0.0,0.0,0.0,0.0,0.0,0.0,0.0
1671462095603198464,354459,1671462095638125396,enu,-0.0009,-0.0278,-0.0001,0.0,0.0,0.0,4.9e-05,0.0,0.0,0.0,0.0,0.0,0.0,6.4e-05,0.0,0.0,0.0,0.0,0.0,0.0,4.9e-05,0.0,0.0,0.0,0.0,0.0,0.0,0.0,0.0,0.0,0.0,0.0,0.0,0.0,0.0,0.0,0.0,0.0,0.0,0.0,0.0,0.0
1671462095613538308,354460,1671462095648130682,enu,-0.0006,-0.0302,-0.0,0.0,0.0,0.0,4.9e-05,0.0,0.0,0.0,0.0,0.0,0.0,6.4e-05,0.0,0.0,0.0,0.0,0.0,0.0,4.9e-05,0.0,0.0,0.0,0.0,0.0,0.0,0.0,0.0,0.0,0.0,0.0,0.0,0.0,0.0,0.0,0.0,0.0,0.0,0.0,0.0,0.0
1671462095623543025,354461,1671462095658168271,enu,-0.0001,-0.0328,0.0001,0.0,0.0,0.0,4.9e-05,0.0,0.0,0.0,0.0,0.0,0.0,6.4e-05,0.0,0.0,0.0,0.0,0.0,0.0,4.9e-05,0.0,0.0,0.0,0.0,0.0,0.0,0.0,0.0,0.0,0.0,0.0,0.0,0.0,0.0,0.0,0.0,0.0,0.0,0.0,0.0,0.0
1671462095633521127,354462,1671462095668176330,enu,0.0002,-0.0356,0.0001,0.0,0.0,0.0,4.9e-05,0.0,0.0,0.0,0.0,0.0,0.0,6.4e-05,0.0,0.0,0.0,0.0,0.0,0.0,4.9e-05,0.0,0.0,0.0,0.0,0.0,0.0,0.0,0.0,0.0,0.0,0.0,0.0,0.0,0.0,0.0,0.0,0.0,0.0,0.0,0.0,0.0
1671462095643549575,354463,1671462095678149935,enu,0.0006,-0.0388,-0.0001,0.0,0.0,0.0,4.9e-05,0.0,0.0,0.0,0.0,0.0,0.0,6.4e-05,0.0,0.0,0.0,0.0,0.0,0.0,4.9e-05,0.0,0.0,0.0,0.0,0.0,0.0,0.0,0.0,0.0,0.0,0.0,0.0,0.0,0.0,0.0,0.0,0.0,0.0,0.0,0.0,0.0
1671462095653637208,354464,1671462095688227492,enu,0.001,-0.0419,-0.0001,0.0,0.0,0.0,4.9e-05,0.0,0.0,0.0,0.0,0.0,0.0,6.4e-05,0.0,0.0,0.0,0.0,0.0,0.0,4.9e-05,0.0,0.0,0.0,0.0,0.0,0.0,0.0,0.0,0.0,0.0,0.0,0.0,0.0,0.0,0.0,0.0,0.0,0.0,0.0,0.0,0.0
1671462095663375532,354465,1671462095698196942,enu,0.0013,-0.0446,-0.0,0.0,0.0,0.0,4.9e-05,0.0,0.0,0.0,0.0,0.0,0.0,6.4e-05,0.0,0.0,0.0,0.0,0.0,0.0,4.9e-05,0.0,0.0,0.0,0.0,0.0,0.0,0.0,0.0,0.0,0.0,0.0,0.0,0.0,0.0,0.0,0.0,0.0,0.0,0.0,0.0,0.0
1671462095673312517,354466,1671462095708127096,enu,0.0016,-0.0478,-0.0,0.0,0.0,0.0,4.9e-05,0.0,0.0,0.0,0.0,0.0,0.0,6.4e-05,0.0,0.0,0.0,0.0,0.0,0.0,4.9e-05,0.0,0.0,0.0,0.0,0.0,0.0,0.0,0.0,0.0,0.0,0.0,0.0,0.0,0.0,0.0,0.0,0.0,0.0,0.0,0.0,0.0
1671462095683482349,354467,1671462095718184516,enu,0.0019,-0.0511,-0.0001,0.0,0.0,0.0,4.9e-05,0.0,0.0,0.0,0.0,0.0,0.0,6.4e-05,0.0,0.0,0.0,0.0,0.0,0.0,4.9e-05,0.0,0.0,0.0,0.0,0.0,0.0,0.0,0.0,0.0,0.0,0.0,0.0,0.0,0.0,0.0,0.0,0.0,0.0,0.0,0.0,0.0
1671462095693491691,354468,1671462095728125334,enu,0.0022,-0.0545,-0.0001,0.0,0.0,0.0,4.9e-05,0.0,0.0,0.0,0.0,0.0,0.0,6.4e-05,0.0,0.0,0.0,0.0,0.0,0.0,4.9e-05,0.0,0.0,0.0,0.0,0.0,0.0,0.0,0.0,0.0,0.0,0.0,0.0,0.0,0.0,0.0,0.0,0.0,0.0,0.0,0.0,0.0
1671462095703416804,354469,1671462095738114191,enu,0.0027,-0.0581,-0.0003,0.0,0.0,0.0,4.9e-05,0.0,0.0,0.0,0.0,0.0,0.0,6.4e-05,0.0,0.0,0.0,0.0,0.0,0.0,4.9e-05,0.0,0.0,0.0,0.0,0.0,0.0,0.0,0.0,0.0,0.0,0.0,0.0,0.0,0.0,0.0,0.0,0.0,0.0,0.0,0.0,0.0
1671462095713312928,354470,1671462095748184796,enu,0.003,-0.0618,-0.0006,0.0,0.0,0.0,4.9e-05,0.0,0.0,0.0,0.0,0.0,0.0,6.4e-05,0.0,0.0,0.0,0.0,0.0,0.0,4.9e-05,0.0,0.0,0.0,0.0,0.0,0.0,0.0,0.0,0.0,0.0,0.0,0.0,0.0,0.0,0.0,0.0,0.0,0.0,0.0,0.0,0.0
1671462095723279661,354471,1671462095758122992,enu,0.0033,-0.0653,-0.0007,0.0,0.0,0.0,4.9e-05,0.0,0.0,0.0,0.0,0.0,0.0,6.4e-05,0.0,0.0,0.0,0.0,0.0,0.0,4.9e-05,0.0,0.0,0.0,0.0,0.0,0.0,0.0,0.0,0.0,0.0,0.0,0.0,0.0,0.0,0.0,0.0,0.0,0.0,0.0,0.0,0.0
1671462095733301075,354472,1671462095768134796,enu,0.0036,-0.069,-0.0009,0.0,0.0,0.0,4.9e-05,0.0,0.0,0.0,0.0,0.0,0.0,6.4e-05,0.0,0.0,0.0,0.0,0.0,0.0,4.9e-05,0.0,0.0,0.0,0.0,0.0,0.0,0.0,0.0,0.0,0.0,0.0,0.0,0.0,0.0,0.0,0.0,0.0,0.0,0.0,0.0,0.0
1671462095743758603,354473,1671462095778192638,enu,0.0039,-0.0724,-0.001,0.0,0.0,0.0,4.9e-05,0.0,0.0,0.0,0.0,0.0,0.0,6.4e-05,0.0,0.0,0.0,0.0,0.0,0.0,4.9e-05,0.0,0.0,0.0,0.0,0.0,0.0,0.0,0.0,0.0,0.0,0.0,0.0,0.0,0.0,0.0,0.0,0.0,0.0,0.0,0.0,0.0
1671462095753585837,354474,1671462095788173403,enu,0.0043,-0.076,-0.0011,0.0,0.0,0.0,4.9e-05,0.0,0.0,0.0,0.0,0.0,0.0,6.4e-05,0.0,0.0,0.0,0.0,0.0,0.0,4.9e-05,0.0,0.0,0.0,0.0,0.0,0.0,0.0,0.0,0.0,0.0,0.0,0.0,0.0,0.0,0.0,0.0,0.0,0.0,0.0,0.0,0.0
1671462095763592423,354475,1671462095798159900,enu,0.0045,-0.0798,-0.0013,0.0,0.0,0.0,4.9e-05,0.0,0.0,0.0,0.0,0.0,0.0,6.4e-05,0.0,0.0,0.0,0.0,0.0,0.0,4.9e-05,0.0,0.0,0.0,0.0,0.0,0.0,0.0,0.0,0.0,0.0,0.0,0.0,0.0,0.0,0.0,0.0,0.0,0.0,0.0,0.0,0.0
1671462095773376575,354476,1671462095808192356,enu,0.0049,-0.0836,-0.0013,0.0,0.0,0.0,4.9e-05,0.0,0.0,0.0,0.0,0.0,0.0,6.4e-05,0.0,0.0,0.0,0.0,0.0,0.0,4.9e-05,0.0,0.0,0.0,0.0,0.0,0.0,0.0,0.0,0.0,0.0,0.0,0.0,0.0,0.0,0.0,0.0,0.0,0.0,0.0,0.0,0.0
1671462095783283617,354477,1671462095818139160,enu,0.0051,-0.0875,-0.0014,0.0,0.0,0.0,4.9e-05,0.0,0.0,0.0,0.0,0.0,0.0,6.4e-05,0.0,0.0,0.0,0.0,0.0,0.0,4.9e-05,0.0,0.0,0.0,0.0,0.0,0.0,0.0,0.0,0.0,0.0,0.0,0.0,0.0,0.0,0.0,0.0,0.0,0.0,0.0,0.0,0.0
1671462095793471063,354478,1671462095828117762,enu,0.0052,-0.0915,-0.0016,0.0,0.0,0.0,4.9e-05,0.0,0.0,0.0,0.0,0.0,0.0,6.4e-05,0.0,0.0,0.0,0.0,0.0,0.0,4.9e-05,0.0,0.0,0.0,0.0,0.0,0.0,0.0,0.0,0.0,0.0,0.0,0.0,0.0,0.0,0.0,0.0,0.0,0.0,0.0,0.0,0.0
1671462095803432753,354479,1671462095838197347,enu,0.0055,-0.0952,-0.0016,0.0,0.0,0.0,4.9e-05,0.0,0.0,0.0,0.0,0.0,0.0,6.4e-05,0.0,0.0,0.0,0.0,0.0,0.0,4.9e-05,0.0,0.0,0.0,0.0,0.0,0.0,0.0,0.0,0.0,0.0,0.0,0.0,0.0,0.0,0.0,0.0,0.0,0.0,0.0,0.0,0.0
1671462095813148927,354480,1671462095848143500,enu,0.0056,-0.0988,-0.0017,0.0,0.0,0.0,4.9e-05,0.0,0.0,0.0,0.0,0.0,0.0,6.4e-05,0.0,0.0,0.0,0.0,0.0,0.0,4.9e-05,0.0,0.0,0.0,0.0,0.0,0.0,0.0,0.0,0.0,0.0,0.0,0.0,0.0,0.0,0.0,0.0,0.0,0.0,0.0,0.0,0.0
1671462095823320875,354481,1671462095858117892,enu,0.0058,-0.1029,-0.0017,0.0,0.0,0.0,4.9e-05,0.0,0.0,0.0,0.0,0.0,0.0,6.4e-05,0.0,0.0,0.0,0.0,0.0,0.0,4.9e-05,0.0,0.0,0.0,0.0,0.0,0.0,0.0,0.0,0.0,0.0,0.0,0.0,0.0,0.0,0.0,0.0,0.0,0.0,0.0,0.0,0.0
1671462095833350774,354482,1671462095868264143,enu,0.006,-0.1068,-0.0017,0.0,0.0,0.0,4.9e-05,0.0,0.0,0.0,0.0,0.0,0.0,6.4e-05,0.0,0.0,0.0,0.0,0.0,0.0,4.9e-05,0.0,0.0,0.0,0.0,0.0,0.0,0.0,0.0,0.0,0.0,0.0,0.0,0.0,0.0,0.0,0.0,0.0,0.0,0.0,0.0,0.0
1671462095843504536,354483,1671462095878122045,enu,0.0061,-0.1107,-0.0017,0.0,0.0,0.0,4.9e-05,0.0,0.0,0.0,0.0,0.0,0.0,6.4e-05,0.0,0.0,0.0,0.0,0.0,0.0,4.9e-05,0.0,0.0,0.0,0.0,0.0,0.0,0.0,0.0,0.0,0.0,0.0,0.0,0.0,0.0,0.0,0.0,0.0,0.0,0.0,0.0,0.0
1671462095853526057,354484,1671462095888111450,enu,0.0063,-0.1144,-0.0017,0.0,0.0,0.0,4.9e-05,0.0,0.0,0.0,0.0,0.0,0.0,6.4e-05,0.0,0.0,0.0,0.0,0.0,0.0,4.9e-05,0.0,0.0,0.0,0.0,0.0,0.0,0.0,0.0,0.0,0.0,0.0,0.0,0.0,0.0,0.0,0.0,0.0,0.0,0.0,0.0,0.0
1671462095863351947,354485,1671462095898209889,enu,0.0065,-0.1185,-0.0017,0.0,0.0,0.0,4.9e-05,0.0,0.0,0.0,0.0,0.0,0.0,6.4e-05,0.0,0.0,0.0,0.0,0.0,0.0,4.9e-05,0.0,0.0,0.0,0.0,0.0,0.0,0.0,0.0,0.0,0.0,0.0,0.0,0.0,0.0,0.0,0.0,0.0,0.0,0.0,0.0,0.0
1671462095873259835,354486,1671462095908140866,enu,0.0067,-0.1227,-0.0018,0.0,0.0,0.0,4.9e-05,0.0,0.0,0.0,0.0,0.0,0.0,6.4e-05,0.0,0.0,0.0,0.0,0.0,0.0,4.9e-05,0.0,0.0,0.0,0.0,0.0,0.0,0.0,0.0,0.0,0.0,0.0,0.0,0.0,0.0,0.0,0.0,0.0,0.0,0.0,0.0,0.0
1671462095883476374,354487,1671462095918132800,enu,0.0069,-0.1269,-0.0019,0.0,0.0,0.0,4.9e-05,0.0,0.0,0.0,0.0,0.0,0.0,6.4e-05,0.0,0.0,0.0,0.0,0.0,0.0,4.9e-05,0.0,0.0,0.0,0.0,0.0,0.0,0.0,0.0,0.0,0.0,0.0,0.0,0.0,0.0,0.0,0.0,0.0,0.0,0.0,0.0,0.0
1671462095893749488,354488,1671462095928190302,enu,0.0072,-0.1309,-0.0019,0.0,0.0,0.0,4.9e-05,0.0,0.0,0.0,0.0,0.0,0.0,6.4e-05,0.0,0.0,0.0,0.0,0.0,0.0,4.9e-05,0.0,0.0,0.0,0.0,0.0,0.0,0.0,0.0,0.0,0.0,0.0,0.0,0.0,0.0,0.0,0.0,0.0,0.0,0.0,0.0,0.0
1671462095903634474,354489,1671462095938228665,enu,0.0075,-0.1348,-0.0019,0.0,0.0,0.0,4.9e-05,0.0,0.0,0.0,0.0,0.0,0.0,6.4e-05,0.0,0.0,0.0,0.0,0.0,0.0,4.9e-05,0.0,0.0,0.0,0.0,0.0,0.0,0.0,0.0,0.0,0.0,0.0,0.0,0.0,0.0,0.0,0.0,0.0,0.0,0.0,0.0,0.0
1671462095913729641,354490,1671462095948143230,enu,0.0078,-0.1392,-0.002,0.0,0.0,0.0,4.9e-05,0.0,0.0,0.0,0.0,0.0,0.0,6.4e-05,0.0,0.0,0.0,0.0,0.0,0.0,4.9e-05,0.0,0.0,0.0,0.0,0.0,0.0,0.0,0.0,0.0,0.0,0.0,0.0,0.0,0.0,0.0,0.0,0.0,0.0,0.0,0.0,0.0
1671462095923353414,354491,1671462095958196242,enu,0.0081,-0.1437,-0.002,0.0,0.0,0.0,4.9e-05,0.0,0.0,0.0,0.0,0.0,0.0,6.4e-05,0.0,0.0,0.0,0.0,0.0,0.0,4.9e-05,0.0,0.0,0.0,0.0,0.0,0.0,0.0,0.0,0.0,0.0,0.0,0.0,0.0,0.0,0.0,0.0,0.0,0.0,0.0,0.0,0.0
1671462095933281345,354492,1671462095968134858,enu,0.0084,-0.1479,-0.0019,0.0,0.0,0.0,4.9e-05,0.0,0.0,0.0,0.0,0.0,0.0,6.4e-05,0.0,0.0,0.0,0.0,0.0,0.0,4.9e-05,0.0,0.0,0.0,0.0,0.0,0.0,0.0,0.0,0.0,0.0,0.0,0.0,0.0,0.0,0.0,0.0,0.0,0.0,0.0,0.0,0.0
1671462095943534754,354493,1671462095978137466,enu,0.0087,-0.152,-0.0019,0.0,0.0,0.0,4.9e-05,0.0,0.0,0.0,0.0,0.0,0.0,6.4e-05,0.0,0.0,0.0,0.0,0.0,0.0,4.9e-05,0.0,0.0,0.0,0.0,0.0,0.0,0.0,0.0,0.0,0.0,0.0,0.0,0.0,0.0,0.0,0.0,0.0,0.0,0.0,0.0,0.0
1671462095953497507,354494,1671462095988197206,enu,0.009,-0.1561,-0.0019,0.0,0.0,0.0,4.9e-05,0.0,0.0,0.0,0.0,0.0,0.0,6.4e-05,0.0,0.0,0.0,0.0,0.0,0.0,4.9e-05,0.0,0.0,0.0,0.0,0.0,0.0,0.0,0.0,0.0,0.0,0.0,0.0,0.0,0.0,0.0,0.0,0.0,0.0,0.0,0.0,0.0
1671462095963452865,354495,1671462095998127260,enu,0.0094,-0.1606,-0.002,0.0,0.0,0.0,4.9e-05,0.0,0.0,0.0,0.0,0.0,0.0,6.4e-05,0.0,0.0,0.0,0.0,0.0,0.0,4.9e-05,0.0,0.0,0.0,0.0,0.0,0.0,0.0,0.0,0.0,0.0,0.0,0.0,0.0,0.0,0.0,0.0,0.0,0.0,0.0,0.0,0.0
1671462095973320764,354496,1671462096008112339,enu,0.0097,-0.1653,-0.0021,0.0,0.0,0.0,4.9e-05,0.0,0.0,0.0,0.0,0.0,0.0,6.4e-05,0.0,0.0,0.0,0.0,0.0,0.0,4.9e-05,0.0,0.0,0.0,0.0,0.0,0.0,0.0,0.0,0.0,0.0,0.0,0.0,0.0,0.0,0.0,0.0,0.0,0.0,0.0,0.0,0.0
1671462095983314340,354497,1671462096018171988,enu,0.0101,-0.1699,-0.002,0.0,0.0,0.0,4.9e-05,0.0,0.0,0.0,0.0,0.0,0.0,6.4e-05,0.0,0.0,0.0,0.0,0.0,0.0,4.9e-05,0.0,0.0,0.0,0.0,0.0,0.0,0.0,0.0,0.0,0.0,0.0,0.0,0.0,0.0,0.0,0.0,0.0,0.0,0.0,0.0,0.0
1671462095993442356,354498,1671462096028130908,enu,0.0104,-0.1739,-0.002,0.0,0.0,0.0,4.9e-05,0.0,0.0,0.0,0.0,0.0,0.0,6.4e-05,0.0,0.0,0.0,0.0,0.0,0.0,4.9e-05,0.0,0.0,0.0,0.0,0.0,0.0,0.0,0.0,0.0,0.0,0.0,0.0,0.0,0.0,0.0,0.0,0.0,0.0,0.0,0.0,0.0
1671462096003282878,354499,1671462096038181597,enu,0.011,-0.178,-0.0017,0.0,0.0,0.0,4.9e-05,0.0,0.0,0.0,0.0,0.0,0.0,6.4e-05,0.0,0.0,0.0,0.0,0.0,0.0,4.9e-05,0.0,0.0,0.0,0.0,0.0,0.0,0.0,0.0,0.0,0.0,0.0,0.0,0.0,0.0,0.0,0.0,0.0,0.0,0.0,0.0,0.0
1671462096013751546,354500,1671462096048224235,enu,0.0114,-0.1824,-0.0017,0.0,0.0,0.0,4.9e-05,0.0,0.0,0.0,0.0,0.0,0.0,6.4e-05,0.0,0.0,0.0,0.0,0.0,0.0,4.9e-05,0.0,0.0,0.0,0.0,0.0,0.0,0.0,0.0,0.0,0.0,0.0,0.0,0.0,0.0,0.0,0.0,0.0,0.0,0.0,0.0,0.0
1671462096023593896,354501,1671462096058239800,enu,0.0118,-0.1876,-0.0017,0.0,0.0,0.0,4.9e-05,0.0,0.0,0.0,0.0,0.0,0.0,6.4e-05,0.0,0.0,0.0,0.0,0.0,0.0,4.9e-05,0.0,0.0,0.0,0.0,0.0,0.0,0.0,0.0,0.0,0.0,0.0,0.0,0.0,0.0,0.0,0.0,0.0,0.0,0.0,0.0,0.0
1671462096033634180,354502,1671462096068239076,enu,0.0125,-0.1921,-0.0016,0.0,0.0,0.0,4.9e-05,0.0,0.0,0.0,0.0,0.0,0.0,6.4e-05,0.0,0.0,0.0,0.0,0.0,0.0,4.9e-05,0.0,0.0,0.0,0.0,0.0,0.0,0.0,0.0,0.0,0.0,0.0,0.0,0.0,0.0,0.0,0.0,0.0,0.0,0.0,0.0,0.0
1671462096043734469,354503,1671462096078195331,enu,0.0128,-0.1959,-0.0015,0.0,0.0,0.0,4.9e-05,0.0,0.0,0.0,0.0,0.0,0.0,6.4e-05,0.0,0.0,0.0,0.0,0.0,0.0,4.9e-05,0.0,0.0,0.0,0.0,0.0,0.0,0.0,0.0,0.0,0.0,0.0,0.0,0.0,0.0,0.0,0.0,0.0,0.0,0.0,0.0,0.0
1671462096053647339,354504,1671462096088181992,enu,0.0134,-0.1998,-0.0015,0.0,0.0,0.0,4.9e-05,0.0,0.0,0.0,0.0,0.0,0.0,6.4e-05,0.0,0.0,0.0,0.0,0.0,0.0,4.9e-05,0.0,0.0,0.0,0.0,0.0,0.0,0.0,0.0,0.0,0.0,0.0,0.0,0.0,0.0,0.0,0.0,0.0,0.0,0.0,0.0,0.0
1671462096063531671,354505,1671462096098203156,enu,0.014,-0.2044,-0.0015,0.0,0.0,0.0,4.9e-05,0.0,0.0,0.0,0.0,0.0,0.0,6.4e-05,0.0,0.0,0.0,0.0,0.0,0.0,4.9e-05,0.0,0.0,0.0,0.0,0.0,0.0,0.0,0.0,0.0,0.0,0.0,0.0,0.0,0.0,0.0,0.0,0.0,0.0,0.0,0.0,0.0
1671462096073378812,354506,1671462096108223031,enu,0.0144,-0.2096,-0.0017,0.0,0.0,0.0,4.9e-05,0.0,0.0,0.0,0.0,0.0,0.0,6.4e-05,0.0,0.0,0.0,0.0,0.0,0.0,4.9e-05,0.0,0.0,0.0,0.0,0.0,0.0,0.0,0.0,0.0,0.0,0.0,0.0,0.0,0.0,0.0,0.0,0.0,0.0,0.0,0.0,0.0
1671462096083540473,354507,1671462096118296896,enu,0.015,-0.214,-0.0016,0.0,0.0,0.0,4.9e-05,0.0,0.0,0.0,0.0,0.0,0.0,6.4e-05,0.0,0.0,0.0,0.0,0.0,0.0,4.9e-05,0.0,0.0,0.0,0.0,0.0,0.0,0.0,0.0,0.0,0.0,0.0,0.0,0.0,0.0,0.0,0.0,0.0,0.0,0.0,0.0,0.0
1671462096093482318,354508,1671462096128154579,enu,0.0154,-0.2178,-0.0015,0.0,0.0,0.0,4.9e-05,0.0,0.0,0.0,0.0,0.0,0.0,6.4e-05,0.0,0.0,0.0,0.0,0.0,0.0,4.9e-05,0.0,0.0,0.0,0.0,0.0,0.0,0.0,0.0,0.0,0.0,0.0,0.0,0.0,0.0,0.0,0.0,0.0,0.0,0.0,0.0,0.0
1671462096103430128,354509,1671462096138193692,enu,0.016,-0.2218,-0.0017,0.0,0.0,0.0,4.9e-05,0.0,0.0,0.0,0.0,0.0,0.0,6.4e-05,0.0,0.0,0.0,0.0,0.0,0.0,4.9e-05,0.0,0.0,0.0,0.0,0.0,0.0,0.0,0.0,0.0,0.0,0.0,0.0,0.0,0.0,0.0,0.0,0.0,0.0,0.0,0.0,0.0
1671462096113472894,354510,1671462096148136275,enu,0.0164,-0.2268,-0.0019,0.0,0.0,0.0,4.9e-05,0.0,0.0,0.0,0.0,0.0,0.0,6.4e-05,0.0,0.0,0.0,0.0,0.0,0.0,4.9e-05,0.0,0.0,0.0,0.0,0.0,0.0,0.0,0.0,0.0,0.0,0.0,0.0,0.0,0.0,0.0,0.0,0.0,0.0,0.0,0.0,0.0
1671462096123321249,354511,1671462096158131259,enu,0.0169,-0.2316,-0.002,0.0,0.0,0.0,4.9e-05,0.0,0.0,0.0,0.0,0.0,0.0,6.4e-05,0.0,0.0,0.0,0.0,0.0,0.0,4.9e-05,0.0,0.0,0.0,0.0,0.0,0.0,0.0,0.0,0.0,0.0,0.0,0.0,0.0,0.0,0.0,0.0,0.0,0.0,0.0,0.0,0.0
1671462096133253310,354512,1671462096168198369,enu,0.0174,-0.2357,-0.0018,0.0,0.0,0.0,4.9e-05,0.0,0.0,0.0,0.0,0.0,0.0,6.4e-05,0.0,0.0,0.0,0.0,0.0,0.0,4.9e-05,0.0,0.0,0.0,0.0,0.0,0.0,0.0,0.0,0.0,0.0,0.0,0.0,0.0,0.0,0.0,0.0,0.0,0.0,0.0,0.0,0.0
1671462096143410572,354513,1671462096178134580,enu,0.0178,-0.24,-0.0019,0.0,0.0,0.0,4.9e-05,0.0,0.0,0.0,0.0,0.0,0.0,6.4e-05,0.0,0.0,0.0,0.0,0.0,0.0,4.9e-05,0.0,0.0,0.0,0.0,0.0,0.0,0.0,0.0,0.0,0.0,0.0,0.0,0.0,0.0,0.0,0.0,0.0,0.0,0.0,0.0,0.0
1671462096153673132,354514,1671462096188225016,enu,0.0183,-0.245,-0.0023,0.0,0.0,0.0,4.9e-05,0.0,0.0,0.0,0.0,0.0,0.0,6.4e-05,0.0,0.0,0.0,0.0,0.0,0.0,4.9e-05,0.0,0.0,0.0,0.0,0.0,0.0,0.0,0.0,0.0,0.0,0.0,0.0,0.0,0.0,0.0,0.0,0.0,0.0,0.0,0.0,0.0
1671462096163390588,354515,1671462096198192817,enu,0.0185,-0.2498,-0.0023,0.0,0.0,0.0,4.9e-05,0.0,0.0,0.0,0.0,0.0,0.0,6.4e-05,0.0,0.0,0.0,0.0,0.0,0.0,4.9e-05,0.0,0.0,0.0,0.0,0.0,0.0,0.0,0.0,0.0,0.0,0.0,0.0,0.0,0.0,0.0,0.0,0.0,0.0,0.0,0.0,0.0
1671462096173695318,354516,1671462096208130339,enu,0.0191,-0.2546,-0.0025,0.0,0.0,0.0,4.9e-05,0.0,0.0,0.0,0.0,0.0,0.0,6.4e-05,0.0,0.0,0.0,0.0,0.0,0.0,4.9e-05,0.0,0.0,0.0,0.0,0.0,0.0,0.0,0.0,0.0,0.0,0.0,0.0,0.0,0.0,0.0,0.0,0.0,0.0,0.0,0.0,0.0
