%time,field.header.seq,field.header.stamp,field.header.frame_id,field.status.status,field.status.service,field.latitude,field.longitude,field.altitude,field.position_covariance0,field.position_covariance1,field.position_covariance2,field.position_covariance3,field.position_covariance4,field.position_covariance5,field.position_covariance6,field.position_covariance7,field.position_covariance8,field.position_covariance_type
1671463128633396531,457762,1671463128678299915,gps,2,1,42.3001695585,-83.6985893125,270.79574585,0.0001,0.0,0.0,0.0,0.000121,0.0,0.0,0.0,0.001369,2
1671463128643684533,457763,1671463128688310330,gps,2,1,42.3001695584,-83.6985893126,270.79574585,0.0001,0.0,0.0,0.0,0.000121,0.0,0.0,0.0,0.001369,2
1671463128653378965,457764,1671463128698375446,gps,2,1,42.3001695583,-83.6985893127,270.795776367,0.0001,0.0,0.0,0.0,0.000121,0.0,0.0,0.0,0.001369,2
1671463128663791652,457765,1671463128708306703,gps,2,1,42.3001695587,-83.6985893118,270.795562744,0.0001,0.0,0.0,0.0,0.000121,0.0,0.0,0.0,0.001369,2
1671463128673834706,457766,1671463128718311944,gps,2,1,42.3001695587,-83.6985893119,270.795593262,0.0001,0.0,0.0,0.0,0.000121,0.0,0.0,0.0,0.001369,2
1671463128683873933,457767,1671463128728367080,gps,2,1,42.3001695586,-83.698589312,270.795593262,0.0001,0.0,0.0,0.0,0.000121,0.0,0.0,0.0,0.001369,2
1671463128693677401,457768,1671463128738310338,gps,2,1,42.300169559,-83.6985893111,270.795410156,0.0001,0.0,0.0,0.0,0.000121,0.0,0.0,0.0,0.001369,2
1671463128703796061,457769,1671463128748320444,gps,2,1,42.3001695589,-83.6985893112,270.795410156,0.0001,0.0,0.0,0.0,0.000121,0.0,0.0,0.0,0.001369,2
1671463128713718577,457770,1671463128758377862,gps,2,1,42.3001695589,-83.6985893113,270.795410156,0.0001,0.0,0.0,0.0,0.000121,0.0,0.0,0.0,0.001369,2
1671463128723645399,457771,1671463128768395389,gps,2,1,42.3001695593,-83.6985893104,270.795227051,0.0001,0.0,0.0,0.0,0.000121,0.0,0.0,0.0,0.001369,2
1671463128733683623,457772,1671463128778310296,gps,2,1,42.3001695592,-83.6985893104,270.795227051,0.0001,0.0,0.0,0.0,0.000121,0.0,0.0,0.0,0.001369,2
1671463128743402298,457773,1671463128788367739,gps,2,1,42.3001695592,-83.6985893105,270.795257568,0.0001,0.0,0.0,0.0,0.000121,0.0,0.0,0.0,0.001369,2
1671463128753588443,457774,1671463128798303154,gps,2,1,42.3001695596,-83.6985893096,270.795074463,0.0001,0.0,0.0,0.0,0.000121,0.0,0.0,0.0,0.001369,2
1671463128763411623,457775,1671463128808343977,gps,2,1,42.3001695595,-83.6985893096,270.795074463,0.0001,0.0,0.0,0.0,0.000121,0.0,0.0,0.0,0.001369,2
1671463128773385781,457776,1671463128818389754,gps,2,1,42.3001695595,-83.6985893096,270.79510498,0.0001,0.0,0.0,0.0,0.000121,0.0,0.0,0.0,0.001369,2
1671463128783393834,457777,1671463128828313156,gps,2,1,42.3001695599,-83.6985893088,270.794952393,0.0001,0.0,0.0,0.0,0.000121,0.0,0.0,0.0,0.001369,2
1671463128793880333,457778,1671463128838402264,gps,2,1,42.3001695599,-83.6985893088,270.794952393,0.0001,0.0,0.0,0.0,0.000121,0.0,0.0,0.0,0.001369,2
1671463128803744774,457779,1671463128848372126,gps,2,1,42.3001695598,-83.6985893087,270.794952393,0.0001,0.0,0.0,0.0,0.000121,0.0,0.0,0.0,0.001369,2
1671463128813838660,457780,1671463128858311081,gps,2,1,42.3001695602,-83.6985893079,270.794799805,0.0001,0.0,0.0,0.0,0.000121,0.0,0.0,0.0,0.001369,2
1671463128823471604,457781,1671463128868320008,gps,2,1,42.3001695602,-83.6985893079,270.794799805,0.0001,0.0,0.0,0.0,0.000121,0.0,0.0,0.0,0.001369,2
1671463128833591638,457782,1671463128878375658,gps,2,1,42.3001695602,-83.6985893079,270.794799805,0.0001,0.0,0.0,0.0,0.000121,0.0,0.0,0.0,0.001369,2
1671463128843782814,457783,1671463128888320650,gps,2,1,42.3001695605,-83.698589307,270.794677734,0.0001,0.0,0.0,0.0,0.000121,0.0,0.0,0.0,0.001369,2
1671463128853676511,457784,1671463128898385749,gps,2,1,42.3001695605,-83.6985893071,270.794677734,0.0001,0.0,0.0,0.0,0.000121,0.0,0.0,0.0,0.001369,2
1671463128863618202,457785,1671463128908461407,gps,2,1,42.3001695605,-83.6985893071,270.794677734,0.0001,0.0,0.0,0.0,0.000121,0.0,0.0,0.0,0.001369,2
1671463128873542879,457786,1671463128918312153,gps,2,1,42.3001695608,-83.6985893063,270.794525146,0.0001,0.0,0.0,0.0,0.000121,0.0,0.0,0.0,0.001369,2
1671463128883578678,457787,1671463128928309341,gps,2,1,42.3001695608,-83.6985893063,270.794525146,0.0001,0.0,0.0,0.0,0.000121,0.0,0.0,0.0,0.001369,2
1671463128893423470,457788,1671463128938408894,gps,2,1,42.3001695608,-83.6985893063,270.794525146,0.0001,0.0,0.0,0.0,0.000121,0.0,0.0,0.0,0.001369,2
1671463128903415018,457789,1671463128948313493,gps,2,1,42.3001695611,-83.6985893054,270.794403076,0.0001,0.0,0.0,0.0,0.000121,0.0,0.0,0.0,0.001369,2
1671463128913388278,457790,1671463128958380369,gps,2,1,42.300169561,-83.6985893054,270.794403076,0.0001,0.0,0.0,0.0,0.000121,0.0,0.0,0.0,0.001369,2
1671463128923281035,457791,1671463128968334099,gps,2,1,42.300169561,-83.6985893055,270.794403076,0.0001,0.0,0.0,0.0,0.000121,0.0,0.0,0.0,0.001369,2
1671463128933296724,457792,1671463128978307685,gps,2,1,42.3001695613,-83.6985893046,270.794281006,0.0001,0.0,0.0,0.0,0.000121,0.0,0.0,0.0,0.001369,2
1671463128943398499,457793,1671463128988312214,gps,2,1,42.3001695613,-83.6985893046,270.794281006,0.0001,0.0,0.0,0.0,0.000121,0.0,0.0,0.0,0.001369,2
1671463128953753464,457794,1671463128998371504,gps,2,1,42.3001695612,-83.6985893047,270.794281006,0.0001,0.0,0.0,0.0,0.000121,0.0,0.0,0.0,0.001369,2
1671463128963800943,457795,1671463129008340526,gps,2,1,42.3001695615,-83.6985893038,270.794158936,0.0001,0.0,0.0,0.0,0.000121,0.0,0.0,0.0,0.001369,2
1671463128973690386,457796,1671463129018319673,gps,2,1,42.3001695615,-83.6985893038,270.794158936,0.0001,0.0,0.0,0.0,0.000121,0.0,0.0,0.0,0.001369,2
1671463128983587317,457797,1671463129028377530,gps,2,1,42.3001695615,-83.6985893039,270.794158936,0.0001,0.0,0.0,0.0,0.000121,0.0,0.0,0.0,0.001369,2
1671463128993878623,457798,1671463129038311407,gps,2,1,42.3001695617,-83.698589303,270.794036865,0.0001,0.0,0.0,0.0,0.000121,0.0,0.0,0.0,0.001369,2
1671463129003622630,457799,1671463129048400345,gps,2,1,42.3001695617,-83.6985893031,270.794036865,0.0001,0.0,0.0,0.0,0.000121,0.0,0.0,0.0,0.001369,2
1671463129013588512,457800,1671463129058384843,gps,2,1,42.3001695617,-83.6985893031,270.794067383,0.0001,0.0,0.0,0.0,0.000121,0.0,0.0,0.0,0.001369,2
1671463129023479599,457801,1671463129068388181,gps,2,1,42.3001695619,-83.6985893022,270.793945312,0.0001,0.0,0.0,0.0,0.000121,0.0,0.0,0.0,0.001369,2
1671463129033588784,457802,1671463129078453430,gps,2,1,42.3001695619,-83.6985893022,270.793945312,0.0001,0.0,0.0,0.0,0.000121,0.0,0.0,0.0,0.001369,2
1671463129043589271,457803,1671463129088418176,gps,2,1,42.3001695619,-83.6985893022,270.793945312,0.0001,0.0,0.0,0.0,0.000121,0.0,0.0,0.0,0.001369,2
1671463129053425986,457804,1671463129098375688,gps,2,1,42.3001695627,-83.6985893004,270.79385376,0.0001,0.0,0.0,0.0,0.000121,0.0,0.0,0.0,0.001369,2
1671463129063327772,457805,1671463129108406332,gps,2,1,42.3001695627,-83.6985893004,270.79385376,0.0001,0.0,0.0,0.0,0.000121,0.0,0.0,0.0,0.001369,2
1671463129073392341,457806,1671463129118393476,gps,2,1,42.3001695627,-83.6985893003,270.79385376,0.0001,0.0,0.0,0.0,0.000121,0.0,0.0,0.0,0.001369,2
1671463129083992775,457807,1671463129128383947,gps,2,1,42.3001695635,-83.6985892986,270.793762207,0.0001,0.0,0.0,0.0,0.000121,0.0,0.0,0.0,0.001369,2
1671463129093976695,457808,1671463129138332122,gps,2,1,42.3001695634,-83.6985892985,270.793762207,0.0001,0.0,0.0,0.0,0.000121,0.0,0.0,0.0,0.001369,2
1671463129103848698,457809,1671463129148383180,gps,2,1,42.3001695634,-83.6985892985,270.793762207,0.0001,0.0,0.0,0.0,0.000121,0.0,0.0,0.0,0.001369,2
1671463129113810431,457810,1671463129158418512,gps,2,1,42.3001695642,-83.6985892967,270.793670654,0.0001,0.0,0.0,0.0,0.000121,0.0,0.0,0.0,0.001369,2
1671463129123799719,457811,1671463129168314708,gps,2,1,42.3001695642,-83.6985892967,270.793670654,0.0001,0.0,0.0,0.0,0.000121,0.0,0.0,0.0,0.001369,2
1671463129133755512,457812,1671463129178393244,gps,2,1,42.3001695642,-83.6985892966,270.793670654,0.0001,0.0,0.0,0.0,0.000121,0.0,0.0,0.0,0.001369,2
1671463129143635641,457813,1671463129188320352,gps,2,1,42.3001695647,-83.6985892949,270.793609619,0.0001,0.0,0.0,0.0,0.000121,0.0,0.0,0.0,0.001369,2
1671463129153527563,457814,1671463129198307477,gps,2,1,42.3001695647,-83.6985892949,270.793609619,0.0001,0.0,0.0,0.0,0.000121,0.0,0.0,0.0,0.001369,2
1671463129163578970,457815,1671463129208388050,gps,2,1,42.3001695647,-83.6985892948,270.793609619,0.0001,0.0,0.0,0.0,0.000121,0.0,0.0,0.0,0.001369,2
1671463129173710124,457816,1671463129218297181,gps,2,1,42.3001695652,-83.6985892932,270.793518066,0.0001,0.0,0.0,0.0,0.000121,0.0,0.0,0.0,0.001369,2
1671463129183443518,457817,1671463129228296896,gps,2,1,42.3001695652,-83.6985892931,270.793518066,0.0001,0.0,0.0,0.0,0.000121,0.0,0.0,0.0,0.001369,2
1671463129193556905,457818,1671463129238386533,gps,2,1,42.3001695652,-83.6985892931,270.793518066,0.0001,0.0,0.0,0.0,0.000121,0.0,0.0,0.0,0.001369,2
1671463129203323078,457819,1671463129248328234,gps,2,1,42.3001695657,-83.6985892915,270.793457031,0.0001,0.0,0.0,0.0,0.000121,0.0,0.0,0.0,0.001369,2
1671463129213250629,457820,1671463129258327635,gps,2,1,42.3001695657,-83.6985892914,270.793457031,0.0001,0.0,0.0,0.0,0.000121,0.0,0.0,0.0,0.001369,2
1671463129223773689,457821,1671463129268387107,gps,2,1,42.3001695657,-83.6985892914,270.793457031,0.0001,0.0,0.0,0.0,0.000121,0.0,0.0,0.0,0.001369,2
1671463129233455740,457822,1671463129278315426,gps,2,1,42.3001695662,-83.6985892898,270.793365479,0.0001,0.0,0.0,0.0,0.000121,0.0,0.0,0.0,0.001369,2
1671463129243923182,457823,1671463129288383670,gps,2,1,42.3001695662,-83.6985892898,270.793395996,0.0001,0.0,0.0,0.0,0.000121,0.0,0.0,0.0,0.001369,2
1671463129253688236,457824,1671463129298314535,gps,2,1,42.3001695662,-83.6985892897,270.793395996,0.0001,0.0,0.0,0.0,0.000144,0.0,0.0,0.0,0.001369,2
1671463129263599569,457825,1671463129308353778,gps,2,1,42.3001695666,-83.6985892882,270.793304443,0.0001,0.0,0.0,0.0,0.000144,0.0,0.0,0.0,0.001369,2
1671463129273311290,457826,1671463129318319623,gps,2,1,42.3001695666,-83.6985892881,270.793304443,0.0001,0.0,0.0,0.0,0.000144,0.0,0.0,0.0,0.001369,2
1671463129283615290,457827,1671463129328395207,gps,2,1,42.3001695667,-83.6985892881,270.793334961,0.0001,0.0,0.0,0.0,0.000144,0.0,0.0,0.0,0.001369,2
1671463129293521339,457828,1671463129338389639,gps,2,1,42.3001695671,-83.6985892866,270.793243408,0.0001,0.0,0.0,0.0,0.000144,0.0,0.0,0.0,0.001369,2
1671463129303536155,457829,1671463129348329647,gps,2,1,42.300169567,-83.6985892865,270.793273926,0.0001,0.0,0.0,0.0,0.000144,0.0,0.0,0.0,0.001369,2
1671463129313500521,457830,1671463129358380095,gps,2,1,42.3001695671,-83.6985892864,270.793273926,0.0001,0.0,0.0,0.0,0.000144,0.0,0.0,0.0,0.001369,2
1671463129323424903,457831,1671463129368309712,gps,2,1,42.3001695674,-83.6985892849,270.793212891,0.0001,0.0,0.0,0.0,0.000144,0.0,0.0,0.0,0.001369,2
1671463129333417564,457832,1671463129378325456,gps,2,1,42.3001695674,-83.6985892847,270.793212891,0.0001,0.0,0.0,0.0,0.000144,0.0,0.0,0.0,0.001369,2
1671463129343362237,457833,1671463129388385722,gps,2,1,42.3001695674,-83.6985892847,270.793212891,0.0001,0.0,0.0,0.0,0.000144,0.0,0.0,0.0,0.001369,2
1671463129353740973,457834,1671463129398382849,gps,2,1,42.3001695677,-83.6985892832,270.793151855,0.0001,0.0,0.0,0.0,0.000144,0.0,0.0,0.0,0.001369,2
1671463129363515692,457835,1671463129408426905,gps,2,1,42.3001695677,-83.698589283,270.793151855,0.0001,0.0,0.0,0.0,0.000144,0.0,0.0,0.0,0.001369,2
1671463129373803797,457836,1671463129418389866,gps,2,1,42.3001695676,-83.6985892828,270.793151855,0.0001,0.0,0.0,0.0,0.000144,0.0,0.0,0.0,0.001369,2
1671463129383485233,457837,1671463129428325487,gps,2,1,42.3001695682,-83.6985892814,270.793060303,0.0001,0.0,0.0,0.0,0.000144,0.0,0.0,0.0,0.001369,2
1671463129393700758,457838,1671463129438317583,gps,2,1,42.3001695681,-83.6985892812,270.79309082,0.0001,0.0,0.0,0.0,0.000144,0.0,0.0,0.0,0.001369,2
1671463129403738220,457839,1671463129448383481,gps,2,1,42.3001695681,-83.698589281,270.793060303,0.0001,0.0,0.0,0.0,0.000144,0.0,0.0,0.0,0.001369,2
1671463129413541946,457840,1671463129458324534,gps,2,1,42.3001695686,-83.6985892796,270.792999268,0.0001,0.0,0.0,0.0,0.000144,0.0,0.0,0.0,0.001369,2
1671463129423510528,457841,1671463129468341039,gps,2,1,42.3001695687,-83.6985892795,270.792999268,0.0001,0.0,0.0,0.0,0.000144,0.0,0.0,0.0,0.001369,2
1671463129433549384,457842,1671463129478376718,gps,2,1,42.3001695687,-83.6985892792,270.792999268,0.0001,0.0,0.0,0.0,0.000144,0.0,0.0,0.0,0.001369,2
1671463129443509219,457843,1671463129488289341,gps,2,1,42.3001695693,-83.6985892779,270.792938232,0.0001,0.0,0.0,0.0,0.000144,0.0,0.0,0.0,0.001369,2
1671463129453511118,457844,1671463129498308947,gps,2,1,42.3001695694,-83.6985892778,270.792938232,0.0001,0.0,0.0,0.0,0.000144,0.0,0.0,0.0,0.001369,2
1671463129463465421,457845,1671463129508423639,gps,2,1,42.3001695695,-83.6985892776,270.792938232,0.0001,0.0,0.0,0.0,0.000144,0.0,0.0,0.0,0.001369,2
1671463129473351736,457846,1671463129518348127,gps,2,1,42.3001695703,-83.6985892764,270.792877197,0.0001,0.0,0.0,0.0,0.000144,0.0,0.0,0.0,0.001369,2
1671463129483552671,457847,1671463129528333219,gps,2,1,42.3001695706,-83.6985892763,270.792877197,0.0001,0.0,0.0,0.0,0.000144,0.0,0.0,0.0,0.001369,2
1671463129493332614,457848,1671463129538390889,gps,2,1,42.3001695708,-83.6985892762,270.792877197,0.0001,0.0,0.0,0.0,0.000144,0.0,0.0,0.0,0.001369,2
1671463129503237688,457849,1671463129548344792,gps,2,1,42.3001695717,-83.698589275,270.792816162,0.0001,0.0,0.0,0.0,0.000144,0.0,0.0,0.0,0.001369,2
1671463129513478038,457850,1671463129558375903,gps,2,1,42.3001695721,-83.698589275,270.792816162,0.0001,0.0,0.0,0.0,0.000144,0.0,0.0,0.0,0.001369,2
1671463129523643113,457851,1671463129568443972,gps,2,1,42.3001695724,-83.6985892749,270.792816162,0.0001,0.0,0.0,0.0,0.000144,0.0,0.0,0.0,0.001369,2
1671463129533687933,457852,1671463129578342364,gps,2,1,42.3001695734,-83.6985892739,270.792755127,0.0001,0.0,0.0,0.0,0.000144,0.0,0.0,0.0,0.001369,2
1671463129543885522,457853,1671463129588507990,gps,2,1,42.3001695738,-83.6985892738,270.792755127,0.0001,0.0,0.0,0.0,0.000144,0.0,0.0,0.0,0.001369,2
1671463129553712591,457854,1671463129598485122,gps,2,1,42.3001695742,-83.6985892738,270.792755127,0.0001,0.0,0.0,0.0,0.000144,0.0,0.0,0.0,0.001369,2
1671463129563556750,457855,1671463129608351795,gps,2,1,42.3001695748,-83.6985892729,270.792663574,0.0001,0.0,0.0,0.0,0.000144,0.0,0.0,0.0,0.001369,2
1671463129573729012,457856,1671463129618348917,gps,2,1,42.3001695753,-83.6985892728,270.792663574,0.0001,0.0,0.0,0.0,0.000144,0.0,0.0,0.0,0.001369,2
1671463129583668521,457857,1671463129628375230,gps,2,1,42.3001695757,-83.6985892728,270.792663574,0.0001,0.0,0.0,0.0,0.000144,0.0,0.0,0.0,0.001369,2
1671463129593529304,457858,1671463129638304930,gps,2,1,42.3001695764,-83.6985892719,270.792572021,0.0001,0.0,0.0,0.0,0.000144,0.0,0.0,0.0,0.001369,2
1671463129603438147,457859,1671463129648305699,gps,2,1,42.3001695768,-83.6985892719,270.792572021,0.0001,0.0,0.0,0.0,0.000144,0.0,0.0,0.0,0.001369,2
1671463129613423044,457860,1671463129658478724,gps,2,1,42.3001695773,-83.6985892718,270.792572021,0.0001,0.0,0.0,0.0,0.000144,0.0,0.0,0.0,0.001369,2
1671463129623326111,457861,1671463129668338447,gps,2,1,42.3001695779,-83.6985892709,270.792449951,0.0001,0.0,0.0,0.0,0.000144,0.0,0.0,0.0,0.001369,2
1671463129633332685,457862,1671463129678325014,gps,2,1,42.3001695784,-83.6985892709,270.792449951,0.0001,0.0,0.0,0.0,0.000144,0.0,0.0,0.0,0.001369,2
1671463129643990298,457863,1671463129688427464,gps,2,1,42.3001695789,-83.6985892708,270.792449951,0.0001,0.0,0.0,0.0,0.000144,0.0,0.0,0.0,0.001369,2
1671463129653238717,457864,1671463129698316484,gps,2,1,42.3001695795,-83.6985892699,270.792358398,0.0001,0.0,0.0,0.0,0.000144,0.0,0.0,0.0,0.001369,2
1671463129663952782,457865,1671463129708333456,gps,2,1,42.3001695803,-83.6985892698,270.792358398,0.0001,0.0,0.0,0.0,0.000144,0.0,0.0,0.0,0.001369,2
1671463129673750314,457866,1671463129718383416,gps,2,1,42.3001695809,-83.6985892697,270.792358398,0.0001,0.0,0.0,0.0,0.000144,0.0,0.0,0.0,0.001369,2
1671463129683695061,457867,1671463129728376848,gps,2,1,42.3001695817,-83.6985892688,270.792266846,0.0001,0.0,0.0,0.0,0.000144,0.0,0.0,0.0,0.001369,2
1671463129693674241,457868,1671463129738360224,gps,2,1,42.3001695827,-83.6985892687,270.792266846,0.0001,0.0,0.0,0.0,0.000144,0.0,0.0,0.0,0.001369,2
1671463129703615862,457869,1671463129748385705,gps,2,1,42.3001695836,-83.6985892686,270.792236328,0.0001,0.0,0.0,0.0,0.000144,0.0,0.0,0.0,0.001369,2
1671463129713569781,457870,1671463129758317944,gps,2,1,42.3001695847,-83.6985892677,270.792175293,0.0001,0.0,0.0,0.0,0.000144,0.0,0.0,0.0,0.001369,2
1671463129723528438,457871,1671463129768333829,gps,2,1,42.3001695861,-83.6985892676,270.792144775,0.0001,0.0,0.0,0.0,0.000144,0.0,0.0,0.0,0.001369,2
1671463129733857619,457872,1671463129778382849,gps,2,1,42.3001695871,-83.6985892676,270.792144775,0.0001,0.0,0.0,0.0,0.000144,0.0,0.0,0.0,0.001369,2
1671463129743443205,457873,1671463129788330989,gps,2,1,42.3001695886,-83.6985892668,270.79208374,0.0001,0.0,0.0,0.0,0.000144,0.0,0.0,0.0,0.001369,2
1671463129753351537,457874,1671463129798374364,gps,2,1,42.3001695903,-83.6985892669,270.79208374,0.0001,0.0,0.0,0.0,0.000144,0.0,0.0,0.0,0.001369,2
1671463129763399220,457875,1671463129808421456,gps,2,1,42.3001695917,-83.6985892668,270.79208374,0.0001,0.0,0.0,0.0,0.000144,0.0,0.0,0.0,0.001369,2
1671463129773343136,457876,1671463129818320710,gps,2,1,42.3001695936,-83.6985892661,270.791992188,0.0001,0.0,0.0,0.0,0.000144,0.0,0.0,0.0,0.001369,2
1671463129783428677,457877,1671463129828352799,gps,2,1,42.3001695958,-83.6985892663,270.791992188,0.0001,0.0,0.0,0.0,0.000144,0.0,0.0,0.0,0.001369,2
1671463129793975749,457878,1671463129838485020,gps,2,1,42.3001695976,-83.6985892663,270.791992188,0.0001,0.0,0.0,0.0,0.000144,0.0,0.0,0.0,0.001369,2
1671463129803707317,457879,1671463129848338743,gps,2,1,42.3001695998,-83.6985892657,270.791931152,0.0001,0.0,0.0,0.0,0.000144,0.0,0.0,0.0,0.001369,2
1671463129813775292,457880,1671463129858340437,gps,2,1,42.3001696023,-83.6985892659,270.79196167,0.0001,0.0,0.0,0.0,0.000144,0.0,0.0,0.0,0.001369,2
1671463129823702512,457881,1671463129868404135,gps,2,1,42.3001696045,-83.698589266,270.79196167,0.0001,0.0,0.0,0.0,0.000144,0.0,0.0,0.0,0.001369,2
1671463129833444952,457882,1671463129878333645,gps,2,1,42.3001696071,-83.6985892655,270.791900635,0.0001,0.0,0.0,0.0,0.000144,0.0,0.0,0.0,0.001369,2
1671463129843605341,457883,1671463129888332702,gps,2,1,42.30016961,-83.6985892657,270.791900635,0.0001,0.0,0.0,0.0,0.000144,0.0,0.0,0.0,0.001369,2
1671463129853623705,457884,1671463129898398769,gps,2,1,42.3001696125,-83.6985892659,270.791900635,0.0001,0.0,0.0,0.0,0.000144,0.0,0.0,0.0,0.001369,2
1671463129863398695,457885,1671463129908405315,gps,2,1,42.3001696156,-83.6985892655,270.791870117,0.0001,0.0,0.0,0.0,0.000144,0.0,0.0,0.0,0.001369,2
1671463129873566482,457886,1671463129918387001,gps,2,1,42.3001696189,-83.6985892658,270.791870117,0.0001,0.0,0.0,0.0,0.000144,0.0,0.0,0.0,0.001369,2
1671463129883459343,457887,1671463129928326611,gps,2,1,42.3001696219,-83.698589266,270.791870117,0.0001,0.0,0.0,0.0,0.000144,0.0,0.0,0.0,0.001369,2
1671463129893440714,457888,1671463129938305181,gps,2,1,42.3001696255,-83.6985892658,270.791809082,0.0001,0.0,0.0,0.0,0.000144,0.0,0.0,0.0,0.001369,2
1671463129903391568,457889,1671463129948327261,gps,2,1,42.3001696294,-83.6985892662,270.791809082,0.0001,0.0,0.0,0.0,0.000144,0.0,0.0,0.0,0.001369,2
1671463129913362168,457890,1671463129958389550,gps,2,1,42.3001696328,-83.6985892665,270.791809082,0.0001,0.0,0.0,0.0,0.000144,0.0,0.0,0.0,0.001369,2
1671463129923293013,457891,1671463129968328844,gps,2,1,42.3001696369,-83.6985892663,270.791748047,0.0001,0.0,0.0,0.0,0.000144,0.0,0.0,0.0,0.001369,2
1671463129933260764,457892,1671463129978324371,gps,2,1,42.3001696412,-83.6985892667,270.791748047,0.0001,0.0,0.0,0.0,0.000144,0.0,0.0,0.0,0.001369,2
1671463129943632119,457893,1671463129988398399,gps,2,1,42.3001696452,-83.6985892671,270.791748047,0.0001,0.0,0.0,0.0,0.000144,0.0,0.0,0.0,0.001369,2
1671463129953751990,457894,1671463129998334092,gps,2,1,42.3001696498,-83.698589267,270.791687012,0.0001,0.0,0.0,0.0,0.000144,0.0,0.0,0.0,0.001369,2
1671463129963740024,457895,1671463130008337971,gps,2,1,42.3001696547,-83.6985892675,270.791687012,0.0001,0.0,0.0,0.0,0.000144,0.0,0.0,0.0,0.001369,2
1671463129973830184,457896,1671463130018392215,gps,2,1,42.3001696592,-83.6985892679,270.791687012,0.0001,0.0,0.0,0.0,0.000144,0.0,0.0,0.0,0.001369,2
1671463129983696783,457897,1671463130028333229,gps,2,1,42.3001696643,-83.6985892679,270.791625977,0.0001,0.0,0.0,0.0,0.000144,0.0,0.0,0.0,0.001369,2
1671463129993374787,457898,1671463130038313733,gps,2,1,42.3001696696,-83.6985892684,270.791625977,0.0001,0.0,0.0,0.0,0.000144,0.0,0.0,0.0,0.001369,2
1671463130003560632,457899,1671463130048474505,gps,2,1,42.3001696747,-83.6985892689,270.791625977,0.0001,0.0,0.0,0.0,0.000144,0.0,0.0,0.0,0.001369,2
1671463130013556021,457900,1671463130058407003,gps,2,1,42.3001696804,-83.6985892712,270.791625977,0.0001,0.0,0.0,0.0,0.000144,0.0,0.0,0.0,0.001369,2
1671463130023447276,457901,1671463130068402056,gps,2,1,42.3001696862,-83.6985892718,270.791625977,0.0001,0.0,0.0,0.0,0.000144,0.0,0.0,0.0,0.001369,2
1671463130033411219,457902,1671463130078477109,gps,2,1,42.3001696916,-83.6985892723,270.791625977,0.0001,0.0,0.0,0.0,0.000144,0.0,0.0,0.0,0.001369,2
1671463130043400355,457903,1671463130088426697,gps,2,1,42.3001696977,-83.6985892746,270.791625977,0.0001,0.0,0.0,0.0,0.000144,0.0,0.0,0.0,0.001369,2
1671463130053406357,457904,1671463130098373173,gps,2,1,42.3001697041,-83.6985892753,270.791625977,0.0001,0.0,0.0,0.0,0.000144,0.0,0.0,0.0,0.001369,2
1671463130063626377,457905,1671463130108449932,gps,2,1,42.30016971,-83.6985892759,270.791625977,0.0001,0.0,0.0,0.0,0.000144,0.0,0.0,0.0,0.001369,2
1671463130073855671,457906,1671463130118369888,gps,2,1,42.3001697168,-83.6985892782,270.791625977,0.0001,0.0,0.0,0.0,0.000144,0.0,0.0,0.0,0.001369,2
1671463130083601088,457907,1671463130128421765,gps,2,1,42.3001697237,-83.6985892789,270.791625977,0.0001,0.0,0.0,0.0,0.000144,0.0,0.0,0.0,0.001369,2
1671463130093790875,457908,1671463130138400799,gps,2,1,42.3001697303,-83.6985892796,270.791625977,0.0001,0.0,0.0,0.0,0.000144,0.0,0.0,0.0,0.001369,2
1671463130103775054,457909,1671463130148328075,gps,2,1,42.3001697377,-83.6985892819,270.791625977,0.0001,0.0,0.0,0.0,0.000144,0.0,0.0,0.0,0.001369,2
1671463130113748165,457910,1671463130158530087,gps,2,1,42.3001697453,-83.6985892827,270.791625977,0.0001,0.0,0.0,0.0,0.000144,0.0,0.0,0.0,0.001369,2
1671463130123770981,457911,1671463130168414386,gps,2,1,42.3001697524,-83.6985892834,270.791625977,0.0001,0.0,0.0,0.0,0.000144,0.0,0.0,0.0,0.001369,2
1671463130133542379,457912,1671463130178331627,gps,2,1,42.3001697603,-83.6985892857,270.791625977,0.0001,0.0,0.0,0.0,0.000144,0.0,0.0,0.0,0.001369,2
1671463130143530732,457913,1671463130188383232,gps,2,1,42.3001697686,-83.6985892866,270.791625977,0.0001,0.0,0.0,0.0,0.000144,0.0,0.0,0.0,0.001369,2
1671463130154210042,457914,1671463130198323616,gps,2,1,42.3001697764,-83.6985892874,270.791656494,0.0001,0.0,0.0,0.0,0.000144,0.0,0.0,0.0,0.001369,2
1671463130163321907,457915,1671463130208318087,gps,2,1,42.300169785,-83.6985892897,270.791625977,0.0001,0.0,0.0,0.0,0.000144,0.0,0.0,0.0,0.001369,2
1671463130173546126,457916,1671463130218400557,gps,2,1,42.3001697942,-83.6985892907,270.791656494,0.0001,0.0,0.0,0.0,0.000144,0.0,0.0,0.0,0.001369,2
1671463130183378855,457917,1671463130228352569,gps,2,1,42.3001698026,-83.6985892916,270.791656494,0.0001,0.0,0.0,0.0,0.000144,0.0,0.0,0.0,0.001369,2
1671463130193487834,457918,1671463130238327412,gps,2,1,42.300169812,-83.698589294,270.791656494,0.0001,0.0,0.0,0.0,0.000144,0.0,0.0,0.0,0.001369,2
1671463130203298576,457919,1671463130248392381,gps,2,1,42.300169822,-83.6985892951,270.791656494,0.0001,0.0,0.0,0.0,0.000144,0.0,0.0,0.0,0.001369,2
1671463130213276064,457920,1671463130258352022,gps,2,1,42.3001698313,-83.6985892961,270.791656494,0.0001,0.0,0.0,0.0,0.000144,0.0,0.0,0.0,0.001369,2
1671463130223214847,457921,1671463130268331793,gps,2,1,42.3001698416,-83.6985892986,270.791656494,0.0001,0.0,0.0,0.0,0.000144,0.0,0.0,0.0,0.001369,2
1671463130233710084,457922,1671463130278327803,gps,2,1,42.3001698525,-83.6985892999,270.791656494,0.0001,0.0,0.0,0.0,0.000144,0.0,0.0,0.0,0.001369,2
1671463130243868555,457923,1671463130288386984,gps,2,1,42.3001698625,-83.6985893011,270.791656494,0.0001,0.0,0.0,0.0,0.000144,0.0,0.0,0.0,0.001369,2
1671463130253289533,457924,1671463130298334533,gps,2,1,42.3001698738,-83.6985893037,270.791656494,4.9e-05,0.0,0.0,0.0,8.1e-05,0.0,0.0,0.0,0.001369,2
1671463130263592307,457925,1671463130308363572,gps,2,1,42.3001698858,-83.6985893052,270.791687012,4.9e-05,0.0,0.0,0.0,8.1e-05,0.0,0.0,0.0,0.001369,2
1671463130273643856,457926,1671463130318376274,gps,2,1,42.3001698969,-83.6985893066,270.791687012,4.9e-05,0.0,0.0,0.0,8.1e-05,0.0,0.0,0.0,0.001369,2
1671463130283543392,457927,1671463130328316484,gps,2,1,42.3001699093,-83.6985893094,270.791687012,4.9e-05,0.0,0.0,0.0,8.1e-05,0.0,0.0,0.0,0.001369,2
1671463130293586066,457928,1671463130338490937,gps,2,1,42.3001699224,-83.698589311,270.791687012,4.9e-05,0.0,0.0,0.0,8.1e-05,0.0,0.0,0.0,0.001369,2
1671463130303558048,457929,1671463130348347208,gps,2,1,42.3001699345,-83.6985893127,270.791687012,4.9e-05,0.0,0.0,0.0,8.1e-05,0.0,0.0,0.0,0.001369,2
1671463130313479227,457930,1671463130358334719,gps,2,1,42.300169948,-83.6985893156,270.791687012,4.9e-05,0.0,0.0,0.0,8.1e-05,0.0,0.0,0.0,0.001369,2
1671463130323845429,457931,1671463130368441160,gps,2,1,42.3001699624,-83.6985893175,270.791687012,4.9e-05,0.0,0.0,0.0,8.1e-05,0.0,0.0,0.0,0.001369,2
1671463130333394162,457932,1671463130378346387,gps,2,1,42.3001699757,-83.6985893193,270.791687012,4.9e-05,0.0,0.0,0.0,8.1e-05,0.0,0.0,0.0,0.001369,2
1671463130343680111,457933,1671463130388359350,gps,2,1,42.3001699905,-83.6985893224,270.791717529,4.9e-05,0.0,0.0,0.0,8.1e-05,0.0,0.0,0.0,0.001369,2
1671463130353313526,457934,1671463130398390463,gps,2,1,42.3001700061,-83.6985893245,270.791717529,4.9e-05,0.0,0.0,0.0,8.1e-05,0.0,0.0,0.0,0.001369,2
1671463130363843910,457935,1671463130408443855,gps,2,1,42.3001700209,-83.6985893264,270.791717529,4.9e-05,0.0,0.0,0.0,8.1e-05,0.0,0.0,0.0,0.001369,2
1671463130373347652,457936,1671463130418339125,gps,2,1,42.300170037,-83.6985893297,270.791717529,4.9e-05,0.0,0.0,0.0,8.1e-05,0.0,0.0,0.0,0.001369,2
1671463130383425696,457937,1671463130428442000,gps,2,1,42.3001700541,-83.6985893319,270.791748047,4.9e-05,0.0,0.0,0.0,8.1e-05,0.0,0.0,0.0,0.001369,2
1671463130393780821,457938,1671463130438371701,gps,2,1,42.3001700699,-83.6985893341,270.791748047,4.9e-05,0.0,0.0,0.0,8.1e-05,0.0,0.0,0.0,0.001369,2
1671463130403721320,457939,1671463130448345489,gps,2,1,42.3001700874,-83.6985893376,270.791748047,4.9e-05,0.0,0.0,0.0,8.1e-05,0.0,0.0,0.0,0.001369,2
1671463130413833534,457940,1671463130458428399,gps,2,1,42.300170106,-83.6985893401,270.791748047,4.9e-05,0.0,0.0,0.0,8.1e-05,0.0,0.0,0.0,0.001369,2
1671463130423311995,457941,1671463130468406979,gps,2,1,42.3001701232,-83.6985893424,270.791778564,4.9e-05,0.0,0.0,0.0,8.1e-05,0.0,0.0,0.0,0.001369,2
1671463130433576555,457942,1671463130478346577,gps,2,1,42.3001701422,-83.6985893461,270.791778564,4.9e-05,0.0,0.0,0.0,8.1e-05,0.0,0.0,0.0,0.001369,2
1671463130443629902,457943,1671463130488391752,gps,2,1,42.300170162,-83.6985893488,270.791809082,4.9e-05,0.0,0.0,0.0,8.1e-05,0.0,0.0,0.0,0.001369,2
1671463130453396843,457944,1671463130498337576,gps,2,1,42.3001701808,-83.6985893513,270.7918396,4.9e-05,0.0,0.0,0.0,8.1e-05,0.0,0.0,0.0,0.001369,2
1671463130463442276,457945,1671463130508337524,gps,2,1,42.3001702012,-83.6985893551,270.7918396,4.9e-05,0.0,0.0,0.0,8.1e-05,0.0,0.0,0.0,0.001369,2
1671463130473384963,457946,1671463130518386432,gps,2,1,42.3001702224,-83.698589358,270.791870117,4.9e-05,0.0,0.0,0.0,8.1e-05,0.0,0.0,0.0,0.001369,2
1671463130483352583,457947,1671463130528360528,gps,2,1,42.3001702424,-83.6985893606,270.791900635,4.9e-05,0.0,0.0,0.0,8.1e-05,0.0,0.0,0.0,0.001369,2
1671463130493444566,457948,1671463130538345964,gps,2,1,42.3001702641,-83.6985893647,270.791931152,4.9e-05,0.0,0.0,0.0,8.1e-05,0.0,0.0,0.0,0.001369,2
1671463130503895458,457949,1671463130548559169,gps,2,1,42.3001702867,-83.6985893676,270.79196167,4.9e-05,0.0,0.0,0.0,8.1e-05,0.0,0.0,0.0,0.001369,2
1671463130513812608,457950,1671463130558451300,gps,2,1,42.300170308,-83.6985893705,270.791992188,4.9e-05,0.0,0.0,0.0,8.1e-05,0.0,0.0,0.0,0.001369,2
1671463130523725236,457951,1671463130568347214,gps,2,1,42.3001703299,-83.698589375,270.792022705,4.9e-05,0.0,0.0,0.0,8.1e-05,0.0,0.0,0.0,0.001369,2
1671463130533398366,457952,1671463130578423690,gps,2,1,42.3001703538,-83.6985893781,270.79208374,4.9e-05,0.0,0.0,0.0,8.1e-05,0.0,0.0,0.0,0.001369,2
1671463130543815881,457953,1671463130588514468,gps,2,1,42.3001703765,-83.6985893812,270.792114258,4.9e-05,0.0,0.0,0.0,8.1e-05,0.0,0.0,0.0,0.001369,2
1671463130554293547,457954,1671463130598437630,gps,2,1,42.3001703997,-83.6985893858,270.792144775,4.9e-05,0.0,0.0,0.0,8.1e-05,0.0,0.0,0.0,0.001369,2
1671463130563493332,457955,1671463130608481133,gps,2,1,42.3001704249,-83.6985893892,270.792205811,4.9e-05,0.0,0.0,0.0,8.1e-05,0.0,0.0,0.0,0.001369,2
1671463130573543626,457956,1671463130618358582,gps,2,1,42.300170449,-83.6985893925,270.792266846,4.9e-05,0.0,0.0,0.0,8.1e-05,0.0,0.0,0.0,0.001369,2
1671463130583555650,457957,1671463130628349558,gps,2,1,42.3001704737,-83.6985893973,270.792297363,4.9e-05,0.0,0.0,0.0,8.1e-05,0.0,0.0,0.0,0.001369,2
1671463130593479619,457958,1671463130638342843,gps,2,1,42.3001705003,-83.698589401,270.792358398,4.9e-05,0.0,0.0,0.0,8.1e-05,0.0,0.0,0.0,0.001369,2
1671463130603478089,457959,1671463130648418297,gps,2,1,42.3001705257,-83.6985894045,270.792419434,4.9e-05,0.0,0.0,0.0,8.1e-05,0.0,0.0,0.0,0.001369,2
1671463130613373059,457960,1671463130658419158,gps,2,1,42.3001705518,-83.6985894095,270.792449951,4.9e-05,0.0,0.0,0.0,8.1e-05,0.0,0.0,0.0,0.001369,2
1671463130623291153,457961,1671463130668438441,gps,2,1,42.3001705799,-83.6985894134,270.792510986,4.9e-05,0.0,0.0,0.0,8.1e-05,0.0,0.0,0.0,0.001369,2
1671463130633336752,457962,1671463130678320733,gps,2,1,42.3001706067,-83.6985894171,270.792572021,4.9e-05,0.0,0.0,0.0,8.1e-05,0.0,0.0,0.0,0.001369,2
1671463130643599050,457963,1671463130688361662,gps,2,1,42.3001706343,-83.6985894224,270.792633057,4.9e-05,0.0,0.0,0.0,8.1e-05,0.0,0.0,0.0,0.001369,2
1671463130653913425,457964,1671463130698437150,gps,2,1,42.3001706639,-83.6985894265,270.792694092,4.9e-05,0.0,0.0,0.0,8.1e-05,0.0,0.0,0.0,0.001369,2
1671463130663946061,457965,1671463130708347635,gps,2,1,42.3001706922,-83.6985894305,270.792755127,4.9e-05,0.0,0.0,0.0,8.1e-05,0.0,0.0,0.0,0.001369,2
1671463130673800371,457966,1671463130718353127,gps,2,1,42.3001707213,-83.6985894359,270.792816162,4.9e-05,0.0,0.0,0.0,8.1e-05,0.0,0.0,0.0,0.001369,2
1671463130683622854,457967,1671463130728425219,gps,2,1,42.3001707524,-83.6985894403,270.792877197,4.9e-05,0.0,0.0,0.0,8.1e-05,0.0,0.0,0.0,0.001369,2
1671463130693687468,457968,1671463130738353658,gps,2,1,42.3001707822,-83.6985894445,270.79296875,4.9e-05,0.0,0.0,0.0,8.1e-05,0.0,0.0,0.0,0.001369,2
1671463130703500883,457969,1671463130748331106,gps,2,1,42.3001708129,-83.6985894502,270.793029785,4.9e-05,0.0,0.0,0.0,8.1e-05,0.0,0.0,0.0,0.001369,2
1671463130713606377,457970,1671463130758397437,gps,2,1,42.3001708456,-83.6985894548,270.79309082,4.9e-05,0.0,0.0,0.0,8.1e-05,0.0,0.0,0.0,0.001369,2
1671463130723508249,457971,1671463130768357752,gps,2,1,42.3001708769,-83.6985894592,270.793182373,4.9e-05,0.0,0.0,0.0,8.1e-05,0.0,0.0,0.0,0.001369,2
1671463130733501419,457972,1671463130778328801,gps,2,1,42.3001709093,-83.698589465,270.793243408,4.9e-05,0.0,0.0,0.0,8.1e-05,0.0,0.0,0.0,0.001369,2
1671463130743273493,457973,1671463130788328160,gps,2,1,42.3001709437,-83.6985894699,270.793304443,4.9e-05,0.0,0.0,0.0,8.1e-05,0.0,0.0,0.0,0.001369,2
1671463130753398563,457974,1671463130798400193,gps,2,1,42.3001709767,-83.6985894745,270.793395996,4.9e-05,0.0,0.0,0.0,8.1e-05,0.0,0.0,0.0,0.001369,2
1671463130763297342,457975,1671463130808367318,gps,2,1,42.3001710108,-83.6985894806,270.793457031,4.9e-05,0.0,0.0,0.0,8.1e-05,0.0,0.0,0.0,0.001369,2
1671463130773367637,457976,1671463130818394587,gps,2,1,42.3001710469,-83.6985894857,270.793518066,4.9e-05,0.0,0.0,0.0,8.1e-05,0.0,0.0,0.0,0.001369,2
1671463130783777465,457977,1671463130828342957,gps,2,1,42.3001710816,-83.6985894906,270.793609619,4.9e-05,0.0,0.0,0.0,8.1e-05,0.0,0.0,0.0,0.001369,2
1671463130793915680,457978,1671463130838420843,gps,2,1,42.3001711175,-83.6985894969,270.793670654,4.9e-05,0.0,0.0,0.0,8.1e-05,0.0,0.0,0.0,0.001369,2
1671463130803822845,457979,1671463130848401302,gps,2,1,42.3001711554,-83.6985895023,270.793762207,4.9e-05,0.0,0.0,0.0,8.1e-05,0.0,0.0,0.0,0.001369,2
1671463130813692418,457980,1671463130858336169,gps,2,1,42.3001711919,-83.6985895076,270.793823242,4.9e-05,0.0,0.0,0.0,8.1e-05,0.0,0.0,0.0,0.001369,2
1671463130823896511,457981,1671463130868340468,gps,2,1,42.3001712296,-83.6985895142,270.793914795,4.9e-05,0.0,0.0,0.0,8.1e-05,0.0,0.0,0.0,0.001369,2
1671463130833796271,457982,1671463130878399223,gps,2,1,42.3001712694,-83.6985895199,270.79397583,4.9e-05,0.0,0.0,0.0,8.1e-05,0.0,0.0,0.0,0.001369,2
1671463130843640796,457983,1671463130888328790,gps,2,1,42.3001713077,-83.6985895255,270.794067383,4.9e-05,0.0,0.0,0.0,8.1e-05,0.0,0.0,0.0,0.001369,2
1671463130853558798,457984,1671463130898334095,gps,2,1,42.3001713473,-83.6985895324,270.794128418,4.9e-05,0.0,0.0,0.0,8.1e-05,0.0,0.0,0.0,0.001369,2
1671463130863574908,457985,1671463130908420073,gps,2,1,42.3001713889,-83.6985895385,270.794219971,4.9e-05,0.0,0.0,0.0,8.1e-05,0.0,0.0,0.0,0.001369,2
1671463130873514435,457986,1671463130918389047,gps,2,1,42.300171429,-83.6985895444,270.794311523,4.9e-05,0.0,0.0,0.0,8.1e-05,0.0,0.0,0.0,0.001369,2
1671463130883454107,457987,1671463130928326857,gps,2,1,42.3001714704,-83.6985895516,270.794403076,4.9e-05,0.0,0.0,0.0,8.1e-05,0.0,0.0,0.0,0.001369,2
1671463130893485349,457988,1671463130938321858,gps,2,1,42.300171514,-83.698589558,270.794494629,4.9e-05,0.0,0.0,0.0,8.1e-05,0.0,0.0,0.0,0.001369,2
1671463130903588033,457989,1671463130948402976,gps,2,1,42.300171556,-83.6985895642,270.794586182,4.9e-05,0.0,0.0,0.0,8.1e-05,0.0,0.0,0.0,0.001369,2
1671463130913664100,457990,1671463130958323527,gps,2,1,42.3001715993,-83.6985895717,270.794708252,4.9e-05,0.0,0.0,0.0,8.1e-05,0.0,0.0,0.0,0.001369,2
1671463130923470942,457991,1671463130968335334,gps,2,1,42.3001716448,-83.6985895783,270.794799805,4.9e-05,0.0,0.0,0.0,8.1e-05,0.0,0.0,0.0,0.001369,2
1671463130933916237,457992,1671463130978404343,gps,2,1,42.3001716887,-83.6985895848,270.794891357,4.9e-05,0.0,0.0,0.0,8.1e-05,0.0,0.0,0.0,0.001369,2
1671463130943836530,457993,1671463130988342825,gps,2,1,42.3001717341,-83.6985895925,270.795013428,4.9e-05,0.0,0.0,0.0,8.1e-05,0.0,0.0,0.0,0.001369,2
1671463130953868108,457994,1671463130998395220,gps,2,1,42.3001717816,-83.6985895995,270.79510498,4.9e-05,0.0,0.0,0.0,8.1e-05,0.0,0.0,0.0,0.001369,2
1671463130963630356,457995,1671463131008347000,gps,2,1,42.3001718274,-83.6985896062,270.795227051,4.9e-05,0.0,0.0,0.0,8.1e-05,0.0,0.0,0.0,0.001369,2
1671463130973695401,457996,1671463131018346085,gps,2,1,42.3001718748,-83.6985896143,270.795349121,4.9e-05,0.0,0.0,0.0,8.1e-05,0.0,0.0,0.0,0.001369,2
1671463130983599404,457997,1671463131028397417,gps,2,1,42.3001719244,-83.6985896215,270.795440674,4.9e-05,0.0,0.0,0.0,8.1e-05,0.0,0.0,0.0,0.001369,2
1671463130993707565,457998,1671463131038333946,gps,2,1,42.3001719724,-83.6985896286,270.795562744,4.9e-05,0.0,0.0,0.0,8.1e-05,0.0,0.0,0.0,0.001369,2
1671463131003709223,457999,1671463131048383154,gps,2,1,42.3001720219,-83.6985896369,270.795684814,4.9e-05,0.0,0.0,0.0,8.1e-05,0.0,0.0,0.0,0.001369,2
1671463131013520016,458000,1671463131058471674,gps,2,1,42.3001720736,-83.6985896445,270.795776367,4.9e-05,0.0,0.0,0.0,8.1e-05,0.0,0.0,0.0,0.001369,2
1671463131023457887,458001,1671463131068439631,gps,2,1,42.3001721236,-83.6985896519,270.795898438,4.9e-05,0.0,0.0,0.0,8.1e-05,0.0,0.0,0.0,0.001369,2
1671463131033431395,458002,1671463131078391156,gps,2,1,42.300172173,-83.6985896607,270.796295166,4.9e-05,0.0,0.0,0.0,8.1e-05,0.0,0.0,0.0,0.001369,2
1671463131043488375,458003,1671463131088493813,gps,2,1,42.3001722269,-83.6985896687,270.796417236,4.9e-05,0.0,0.0,0.0,8.1e-05,0.0,0.0,0.0,0.001369,2
1671463131053339146,458004,1671463131098407603,gps,2,1,42.3001722789,-83.6985896763,270.796539307,4.9e-05,0.0,0.0,0.0,8.1e-05,0.0,0.0,0.0,0.001369,2
1671463131063259095,458005,1671463131108395298,gps,2,1,42.3001723307,-83.6985896855,270.796905518,4.9e-05,0.0,0.0,0.0,8.1e-05,0.0,0.0,0.0,0.001369,2
1671463131073828764,458006,1671463131118446986,gps,2,1,42.3001723866,-83.6985896937,270.797058105,4.9e-05,0.0,0.0,0.0,8.1e-05,0.0,0.0,0.0,0.001369,2
1671463131083462191,458007,1671463131128418926,gps,2,1,42.3001724408,-83.6985897017,270.797180176,4.9e-05,0.0,0.0,0.0,8.1e-05,0.0,0.0,0.0,0.001369,2
1671463131093770304,458008,1671463131138360315,gps,2,1,42.3001724948,-83.6985897111,270.797546387,4.9e-05,0.0,0.0,0.0,8.1e-05,0.0,0.0,0.0,0.001369,2
1671463131103775934,458009,1671463131148338923,gps,2,1,42.300172553,-83.6985897197,270.797698975,4.9e-05,0.0,0.0,0.0,8.1e-05,0.0,0.0,0.0,0.001369,2
1671463131113856675,458010,1671463131158506145,gps,2,1,42.3001726093,-83.6985897279,270.797821045,4.9e-05,0.0,0.0,0.0,8.1e-05,0.0,0.0,0.0,0.001369,2
1671463131123589269,458011,1671463131168332627,gps,2,1,42.3001726655,-83.6985897377,270.798217773,4.9e-05,0.0,0.0,0.0,8.1e-05,0.0,0.0,0.0,0.001369,2
1671463131133516575,458012,1671463131178319759,gps,2,1,42.3001727259,-83.6985897466,270.798370361,4.9e-05,0.0,0.0,0.0,8.1e-05,0.0,0.0,0.0,0.001369,2
1671463131143583002,458013,1671463131188406938,gps,2,1,42.3001727844,-83.6985897552,270.798522949,4.9e-05,0.0,0.0,0.0,8.1e-05,0.0,0.0,0.0,0.001369,2
1671463131153541064,458014,1671463131198336092,gps,2,1,42.3001728432,-83.6985897652,270.79888916,4.9e-05,0.0,0.0,0.0,8.1e-05,0.0,0.0,0.0,0.001369,2
1671463131163431858,458015,1671463131208349500,gps,2,1,42.300172906,-83.6985897744,270.799041748,4.9e-05,0.0,0.0,0.0,8.1e-05,0.0,0.0,0.0,0.001369,2
1671463131173474051,458016,1671463131218386323,gps,2,1,42.3001729668,-83.6985897833,270.799194336,4.9e-05,0.0,0.0,0.0,8.1e-05,0.0,0.0,0.0,0.001369,2
1671463131183341483,458017,1671463131228335894,gps,2,1,42.300173028,-83.6985897936,270.799560547,4.9e-05,0.0,0.0,0.0,8.1e-05,0.0,0.0,0.0,0.001369,2
1671463131193335343,458018,1671463131238332227,gps,2,1,42.3001730931,-83.698589803,270.799743652,4.9e-05,0.0,0.0,0.0,8.1e-05,0.0,0.0,0.0,0.001369,2
1671463131203313874,458019,1671463131248400920,gps,2,1,42.3001731562,-83.6985898123,270.79989624,4.9e-05,0.0,0.0,0.0,8.1e-05,0.0,0.0,0.0,0.001369,2
1671463131213216321,458020,1671463131258337758,gps,2,1,42.3001732199,-83.6985898228,270.800262451,4.9e-05,0.0,0.0,0.0,8.1e-05,0.0,0.0,0.0,0.001369,2
1671463131223808996,458021,1671463131268339557,gps,2,1,42.3001732874,-83.6985898326,270.800445557,4.9e-05,0.0,0.0,0.0,8.1e-05,0.0,0.0,0.0,0.001369,2
1671463131233861112,458022,1671463131278393019,gps,2,1,42.3001733529,-83.6985898421,270.800598145,4.9e-05,0.0,0.0,0.0,8.1e-05,0.0,0.0,0.0,0.001369,2
1671463131243855213,458023,1671463131288333897,gps,2,1,42.3001734191,-83.6985898529,270.800964355,4.9e-05,0.0,0.0,0.0,8.1e-05,0.0,0.0,0.0,0.001369,2
1671463131253622753,458024,1671463131298332047,gps,2,1,42.300173489,-83.6985898631,270.801147461,0.0001,0.0,0.0,0.0,0.000121,0.0,0.0,0.0,0.001369,2
1671463131263643957,458025,1671463131308425275,gps,2,1,42.300173557,-83.6985898729,270.801330566,0.0001,0.0,0.0,0.0,0.000121,0.0,0.0,0.0,0.001369,2
1671463131273755728,458026,1671463131318347672,gps,2,1,42.3001736258,-83.6985898841,270.801696777,0.0001,0.0,0.0,0.0,0.000121,0.0,0.0,0.0,0.001369,2
1671463131283449636,458027,1671463131328325966,gps,2,1,42.3001736983,-83.6985898945,270.801879883,0.0001,0.0,0.0,0.0,0.000121,0.0,0.0,0.0,0.001369,2
1671463131293554320,458028,1671463131338471547,gps,2,1,42.3001737687,-83.6985899046,270.802062988,0.0001,0.0,0.0,0.0,0.000121,0.0,0.0,0.0,0.001369,2
1671463131303486061,458029,1671463131348335645,gps,2,1,42.30017384,-83.6985899162,270.802429199,0.0001,0.0,0.0,0.0,0.000121,0.0,0.0,0.0,0.001369,2
1671463131313494192,458030,1671463131358330662,gps,2,1,42.3001739151,-83.698589927,270.802612305,0.0001,0.0,0.0,0.0,0.000121,0.0,0.0,0.0,0.001369,2
1671463131323409916,458031,1671463131368402776,gps,2,1,42.300173988,-83.6985899375,270.80279541,0.0001,0.0,0.0,0.0,0.000121,0.0,0.0,0.0,0.001369,2
1671463131333303204,458032,1671463131378336766,gps,2,1,42.300174062,-83.6985899493,270.803131104,0.0001,0.0,0.0,0.0,0.000121,0.0,0.0,0.0,0.001369,2
1671463131343288118,458033,1671463131388343239,gps,2,1,42.3001741397,-83.6985899605,270.803314209,0.0001,0.0,0.0,0.0,0.000121,0.0,0.0,0.0,0.001369,2
1671463131353927162,458034,1671463131398469845,gps,2,1,42.3001742152,-83.6985899714,270.803497314,0.0001,0.0,0.0,0.0,0.000121,0.0,0.0,0.0,0.001369,2
1671463131363154235,458035,1671463131408351785,gps,2,1,42.3001742919,-83.6985899835,270.803833008,0.0001,0.0,0.0,0.0,0.000121,0.0,0.0,0.0,0.001369,2
1671463131373404798,458036,1671463131418345601,gps,2,1,42.3001743724,-83.6985899951,270.804016113,0.0001,0.0,0.0,0.0,0.000121,0.0,0.0,0.0,0.001369,2
1671463131383777361,458037,1671463131428426376,gps,2,1,42.3001744505,-83.6985900063,270.804168701,0.0001,0.0,0.0,0.0,0.000121,0.0,0.0,0.0,0.001369,2
1671463131393744259,458038,1671463131438341188,gps,2,1,42.3001745302,-83.6985900188,270.804504395,0.0001,0.0,0.0,0.0,0.000121,0.0,0.0,0.0,0.001369,2
1671463131403348645,458039,1671463131448348999,gps,2,1,42.3001746136,-83.6985900308,270.8046875,0.0001,0.0,0.0,0.0,0.000121,0.0,0.0,0.0,0.001369,2
1671463131413733934,458040,1671463131458401988,gps,2,1,42.3001746945,-83.6985900423,270.804840088,0.0001,0.0,0.0,0.0,0.000121,0.0,0.0,0.0,0.001369,2
1671463131423542666,458041,1671463131468325953,gps,2,1,42.3001747772,-83.6985900552,270.805175781,0.0001,0.0,0.0,0.0,0.000121,0.0,0.0,0.0,0.001369,2
1671463131433502534,458042,1671463131478321510,gps,2,1,42.3001748633,-83.6985900675,270.805358887,0.0001,0.0,0.0,0.0,0.000121,0.0,0.0,0.0,0.001369,2
1671463131443589605,458043,1671463131488388009,gps,2,1,42.3001749472,-83.6985900794,270.805511475,0.0001,0.0,0.0,0.0,0.000121,0.0,0.0,0.0,0.001369,2
1671463131453453478,458044,1671463131498320415,gps,2,1,42.3001750328,-83.6985900926,270.80581665,0.0001,0.0,0.0,0.0,0.000121,0.0,0.0,0.0,0.001369,2
1671463131463384525,458045,1671463131508349104,gps,2,1,42.3001751221,-83.6985901053,270.805999756,0.0001,0.0,0.0,0.0,0.000121,0.0,0.0,0.0,0.001369,2
1671463131473358055,458046,1671463131518411095,gps,2,1,42.3001752088,-83.6985901176,270.806152344,0.0001,0.0,0.0,0.0,0.000121,0.0,0.0,0.0,0.001369,2
1671463131483264213,458047,1671463131528339014,gps,2,1,42.3001752976,-83.6985901312,270.80645752,0.0001,0.0,0.0,0.0,0.000121,0.0,0.0,0.0,0.001369,2
1671463131493428570,458048,1671463131538347946,gps,2,1,42.30017539,-83.6985901443,270.806610107,0.0001,0.0,0.0,0.0,0.000121,0.0,0.0,0.0,0.001369,2
1671463131503888311,458049,1671463131548544867,gps,2,1,42.3001754798,-83.698590157,270.806762695,0.0001,0.0,0.0,0.0,0.000121,0.0,0.0,0.0,0.001369,2
1671463131513290847,458050,1671463131558401730,gps,2,1,42.3001755734,-83.6985901704,270.807098389,0.0001,0.0,0.0,0.0,0.000121,0.0,0.0,0.0,0.001369,2
1671463131523820056,458051,1671463131568430796,gps,2,1,42.300175669,-83.6985901839,270.807250977,0.0001,0.0,0.0,0.0,0.000121,0.0,0.0,0.0,0.001369,2
1671463131533627206,458052,1671463131578452622,gps,2,1,42.3001757621,-83.698590197,270.807373047,0.0001,0.0,0.0,0.0,0.000121,0.0,0.0,0.0,0.001369,2
1671463131543796686,458053,1671463131588493010,gps,2,1,42.3001758589,-83.6985902108,270.80770874,0.0001,0.0,0.0,0.0,0.000121,0.0,0.0,0.0,0.001369,2
1671463131553649034,458054,1671463131598463234,gps,2,1,42.300175958,-83.6985902245,270.807830811,0.0001,0.0,0.0,0.0,0.000121,0.0,0.0,0.0,0.001369,2
1671463131563574901,458055,1671463131608407333,gps,2,1,42.3001760542,-83.6985902381,270.807952881,0.0001,0.0,0.0,0.0,0.000121,0.0,0.0,0.0,0.001369,2
1671463131573551319,458056,1671463131618327472,gps,2,1,42.3001761545,-83.6985902522,270.808288574,0.0001,0.0,0.0,0.0,0.000121,0.0,0.0,0.0,0.001369,2
1671463131583453171,458057,1671463131628331425,gps,2,1,42.3001762571,-83.6985902663,270.808380127,0.0001,0.0,0.0,0.0,0.000121,0.0,0.0,0.0,0.001369,2
1671463131593386517,458058,1671463131638397487,gps,2,1,42.3001763569,-83.6985902801,270.808502197,0.0001,0.0,0.0,0.0,0.000121,0.0,0.0,0.0,0.001369,2
1671463131603585134,458059,1671463131648367881,gps,2,1,42.3001764606,-83.6985902945,270.808807373,0.0001,0.0,0.0,0.0,0.000121,0.0,0.0,0.0,0.001369,2
1671463131613352980,458060,1671463131658351973,gps,2,1,42.3001765667,-83.6985903092,270.808929443,0.0001,0.0,0.0,0.0,0.000121,0.0,0.0,0.0,0.001369,2
1671463131623286782,458061,1671463131668416671,gps,2,1,42.3001766699,-83.6985903232,270.809020996,0.0001,0.0,0.0,0.0,0.000121,0.0,0.0,0.0,0.001369,2
1671463131633196889,458062,1671463131678344429,gps,2,1,42.3001767772,-83.6985903382,270.809326172,0.0001,0.0,0.0,0.0,0.000121,0.0,0.0,0.0,0.001369,2
1671463131643362330,458063,1671463131688359320,gps,2,1,42.3001768867,-83.6985903533,270.80947876,0.0001,0.0,0.0,0.0,0.000121,0.0,0.0,0.0,0.001369,2
1671463131653790004,458064,1671463131698417423,gps,2,1,42.3001769933,-83.6985903677,270.809570312,0.0001,0.0,0.0,0.0,0.000121,0.0,0.0,0.0,0.001369,2
1671463131663570038,458065,1671463131708355003,gps,2,1,42.3001771039,-83.6985903831,270.809906006,0.0001,0.0,0.0,0.0,0.000121,0.0,0.0,0.0,0.001369,2
1671463131673700554,458066,1671463131718345653,gps,2,1,42.3001772167,-83.6985903983,270.810089111,0.0001,0.0,0.0,0.0,0.000121,0.0,0.0,0.0,0.001369,2
1671463131683575480,458067,1671463131728424288,gps,2,1,42.3001773269,-83.6985904135,270.810241699,0.0001,0.0,0.0,0.0,0.000121,0.0,0.0,0.0,0.001369,2
1671463131693739166,458068,1671463131738385877,gps,2,1,42.3001774407,-83.6985904292,270.81060791,0.0001,0.0,0.0,0.0,0.000121,0.0,0.0,0.0,0.001369,2
1671463131703613832,458069,1671463131748423569,gps,2,1,42.3001775569,-83.6985904447,270.810821533,0.0001,0.0,0.0,0.0,0.000121,0.0,0.0,0.0,0.001369,2
1671463131713564367,458070,1671463131758393515,gps,2,1,42.3001776704,-83.6985904602,270.811004639,0.0001,0.0,0.0,0.0,0.000121,0.0,0.0,0.0,0.001369,2
1671463131723516006,458071,1671463131768348061,gps,2,1,42.3001777876,-83.698590476,270.811431885,0.0001,0.0,0.0,0.0,0.000121,0.0,0.0,0.0,0.001369,2
1671463131733452212,458072,1671463131778317732,gps,2,1,42.3001779072,-83.6985904919,270.811706543,0.0001,0.0,0.0,0.0,0.000121,0.0,0.0,0.0,0.001369,2
1671463131743388117,458073,1671463131788409167,gps,2,1,42.3001780239,-83.6985905076,270.811950684,0.0001,0.0,0.0,0.0,0.000121,0.0,0.0,0.0,0.001369,2
1671463131753301577,458074,1671463131798337666,gps,2,1,42.3001781447,-83.6985905236,270.812408447,0.0001,0.0,0.0,0.0,0.000121,0.0,0.0,0.0,0.001369,2
1671463131763328758,458075,1671463131808377574,gps,2,1,42.3001782679,-83.6985905397,270.812713623,0.0001,0.0,0.0,0.0,0.000121,0.0,0.0,0.0,0.001369,2
1671463131773292611,458076,1671463131818398383,gps,2,1,42.300178388,-83.6985905554,270.812988281,0.0001,0.0,0.0,0.0,0.000121,0.0,0.0,0.0,0.001369,2
1671463131783230382,458077,1671463131828342761,gps,2,1,42.3001785123,-83.6985905716,270.813446045,0.0001,0.0,0.0,0.0,0.000121,0.0,0.0,0.0,0.001369,2
1671463131793751100,458078,1671463131838488155,gps,2,1,42.3001786391,-83.6985905876,270.813781738,0.0001,0.0,0.0,0.0,0.000121,0.0,0.0,0.0,0.001369,2
1671463131803541665,458079,1671463131848416095,gps,2,1,42.3001787627,-83.6985906034,270.814086914,0.0001,0.0,0.0,0.0,0.000121,0.0,0.0,0.0,0.001369,2
1671463131813658407,458080,1671463131858349031,gps,2,1,42.3001788905,-83.6985906198,270.814575195,0.0001,0.0,0.0,0.0,0.000121,0.0,0.0,0.0,0.001369,2
1671463131823459273,458081,1671463131868348669,gps,2,1,42.3001790209,-83.6985906358,270.814880371,0.0001,0.0,0.0,0.0,0.000121,0.0,0.0,0.0,0.001369,2
1671463131833761033,458082,1671463131878406633,gps,2,1,42.3001791482,-83.6985906522,270.815185547,0.0001,0.0,0.0,0.0,0.000121,0.0,0.0,0.0,0.001369,2
1671463131843646970,458083,1671463131888336936,gps,2,1,42.3001792796,-83.6985906687,270.815612793,0.0001,0.0,0.0,0.0,0.000121,0.0,0.0,0.0,0.001369,2
1671463131853536495,458084,1671463131898330816,gps,2,1,42.3001794136,-83.6985906851,270.815887451,0.0001,0.0,0.0,0.0,0.000121,0.0,0.0,0.0,0.001369,2
1671463131863739473,458085,1671463131908483136,gps,2,1,42.3001795445,-83.6985907017,270.816162109,0.0001,0.0,0.0,0.0,0.000121,0.0,0.0,0.0,0.001369,2
1671463131873528116,458086,1671463131918325785,gps,2,1,42.3001796795,-83.6985907182,270.816558838,0.0001,0.0,0.0,0.0,0.000121,0.0,0.0,0.0,0.001369,2
1671463131883397196,458087,1671463131928425551,gps,2,1,42.300179817,-83.6985907349,270.816772461,0.0001,0.0,0.0,0.0,0.000121,0.0,0.0,0.0,0.001369,2
1671463131893388842,458088,1671463131938350935,gps,2,1,42.3001799516,-83.6985907511,270.817047119,0.0001,0.0,0.0,0.0,0.000121,0.0,0.0,0.0,0.001369,2
1671463131903554370,458089,1671463131948358562,gps,2,1,42.3001800903,-83.6985907678,270.817352295,0.0001,0.0,0.0,0.0,0.000121,0.0,0.0,0.0,0.001369,2
1671463131913305135,458090,1671463131958424120,gps,2,1,42.3001802314,-83.6985907847,270.817565918,0.0001,0.0,0.0,0.0,0.000121,0.0,0.0,0.0,0.001369,2
1671463131923867591,458091,1671463131968444501,gps,2,1,42.3001803696,-83.6985908008,270.817779541,0.0001,0.0,0.0,0.0,0.000121,0.0,0.0,0.0,0.001369,2
1671463131933241859,458092,1671463131978354025,gps,2,1,42.300180512,-83.6985908178,270.818084717,0.0001,0.0,0.0,0.0,0.000121,0.0,0.0,0.0,0.001369,2
1671463131943844364,458093,1671463131988359663,gps,2,1,42.300180657,-83.6985908347,270.81829834,0.0001,0.0,0.0,0.0,0.000121,0.0,0.0,0.0,0.001369,2
1671463131953791504,458094,1671463131998410694,gps,2,1,42.300180799,-83.6985908516,270.818481445,0.0001,0.0,0.0,0.0,0.000121,0.0,0.0,0.0,0.001369,2
1671463131963640181,458095,1671463132008367267,gps,2,1,42.3001809453,-83.698590869,270.818786621,0.0001,0.0,0.0,0.0,0.000121,0.0,0.0,0.0,0.001369,2
1671463131973571267,458096,1671463132018353307,gps,2,1,42.3001810941,-83.6985908866,270.819000244,0.0001,0.0,0.0,0.0,0.000121,0.0,0.0,0.0,0.001369,2
1671463131983588056,458097,1671463132028426822,gps,2,1,42.30018124,-83.698590904,270.81918335,0.0001,0.0,0.0,0.0,0.000121,0.0,0.0,0.0,0.001369,2
1671463131993713283,458098,1671463132038336770,gps,2,1,42.3001813901,-83.6985909217,270.819519043,0.0001,0.0,0.0,0.0,0.000121,0.0,0.0,0.0,0.001369,2
1671463132003877787,458099,1671463132048528403,gps,2,1,42.3001815428,-83.6985909401,270.819763184,0.0001,0.0,0.0,0.0,0.000121,0.0,0.0,0.0,0.001369,2
1671463132013268791,458100,1671463132058440807,gps,2,1,42.3001816924,-83.6985909577,270.819976807,0.0001,0.0,0.0,0.0,0.000121,0.0,0.0,0.0,0.001369,2
1671463132023582531,458101,1671463132068437794,gps,2,1,42.3001818463,-83.6985909761,270.820343018,0.0001,0.0,0.0,0.0,0.000121,0.0,0.0,0.0,0.001369,2
1671463132033398414,458102,1671463132078478659,gps,2,1,42.3001820028,-83.6985909949,270.820648193,0.0001,0.0,0.0,0.0,0.000121,0.0,0.0,0.0,0.001369,2
1671463132043499479,458103,1671463132088462706,gps,2,1,42.3001821562,-83.698591013,270.820892334,0.0001,0.0,0.0,0.0,0.000121,0.0,0.0,0.0,0.001369,2
1671463132053305726,458104,1671463132098388466,gps,2,1,42.3001823142,-83.6985910307,270.821380615,0.0001,0.0,0.0,0.0,0.000121,0.0,0.0,0.0,0.001369,2
1671463132063912062,458105,1671463132108492564,gps,2,1,42.3001824744,-83.6985910499,270.821685791,0.0001,0.0,0.0,0.0,0.000121,0.0,0.0,0.0,0.001369,2
1671463132073876447,458106,1671463132118414960,gps,2,1,42.3001826316,-83.6985910686,270.821990967,0.0001,0.0,0.0,0.0,0.000121,0.0,0.0,0.0,0.001369,2
1671463132083472514,458107,1671463132128351124,gps,2,1,42.3001827933,-83.6985910869,270.822509766,0.0001,0.0,0.0,0.0,0.000121,0.0,0.0,0.0,0.001369,2
1671463132093851604,458108,1671463132138444799,gps,2,1,42.3001829573,-83.6985911065,270.822845459,0.0001,0.0,0.0,0.0,0.000121,0.0,0.0,0.0,0.001369,2
1671463132103465488,458109,1671463132148420733,gps,2,1,42.3001831181,-83.6985911259,270.823181152,0.0001,0.0,0.0,0.0,0.000121,0.0,0.0,0.0,0.001369,2
1671463132113733728,458110,1671463132158368112,gps,2,1,42.3001832835,-83.6985911447,270.823699951,0.0001,0.0,0.0,0.0,0.000121,0.0,0.0,0.0,0.001369,2
1671463132123480580,458111,1671463132168431685,gps,2,1,42.3001834511,-83.6985911648,270.824066162,0.0001,0.0,0.0,0.0,0.000121,0.0,0.0,0.0,0.001369,2
1671463132133597189,458112,1671463132178438923,gps,2,1,42.3001836156,-83.6985911848,270.824401855,0.0001,0.0,0.0,0.0,0.000121,0.0,0.0,0.0,0.001369,2
1671463132143648010,458113,1671463132188373522,gps,2,1,42.3001837847,-83.6985912041,270.824951172,0.0001,0.0,0.0,0.0,0.000121,0.0,0.0,0.0,0.001369,2
1671463132153501619,458114,1671463132198468946,gps,2,1,42.3001839559,-83.6985912248,270.825378418,0.0001,0.0,0.0,0.0,0.000121,0.0,0.0,0.0,0.001369,2
1671463132163447465,458115,1671463132208402600,gps,2,1,42.300184124,-83.6985912452,270.825714111,0.0001,0.0,0.0,0.0,0.000121,0.0,0.0,0.0,0.001369,2
1671463132173403871,458116,1671463132218381005,gps,2,1,42.3001842967,-83.698591265,270.826293945,0.0001,0.0,0.0,0.0,0.000121,0.0,0.0,0.0,0.001369,2
1671463132183374193,458117,1671463132228459250,gps,2,1,42.3001844715,-83.6985912861,270.826721191,0.0001,0.0,0.0,0.0,0.000121,0.0,0.0,0.0,0.001369,2
1671463132193318514,458118,1671463132238418893,gps,2,1,42.3001846431,-83.6985913068,270.82711792,0.0001,0.0,0.0,0.0,0.000121,0.0,0.0,0.0,0.001369,2
1671463132203277514,458119,1671463132248404090,gps,2,1,42.3001848193,-83.698591327,270.827697754,0.0001,0.0,0.0,0.0,0.000121,0.0,0.0,0.0,0.001369,2
1671463132213833257,458120,1671463132258421763,gps,2,1,42.3001849975,-83.6985913485,270.828155518,0.0001,0.0,0.0,0.0,0.000121,0.0,0.0,0.0,0.001369,2
1671463132223506540,458121,1671463132268351573,gps,2,1,42.3001851729,-83.6985913695,270.828582764,0.0001,0.0,0.0,0.0,0.000121,0.0,0.0,0.0,0.001369,2
1671463132233745551,458122,1671463132278356751,gps,2,1,42.3001853527,-83.6985913901,270.82913208,0.0001,0.0,0.0,0.0,0.000121,0.0,0.0,0.0,0.001369,2
1671463132243295981,458123,1671463132288420326,gps,2,1,42.3001855345,-83.698591412,270.829528809,0.0001,0.0,0.0,0.0,0.000121,0.0,0.0,0.0,0.001369,2
1671463132253690998,458124,1671463132298353592,gps,2,1,42.3001857133,-83.6985914335,270.829956055,0.0001,0.0,0.0,0.0,0.000121,0.0,0.0,0.0,0.001369,2
1671463132263526196,458125,1671463132308361227,gps,2,1,42.3001858967,-83.6985914547,270.830505371,0.0001,0.0,0.0,0.0,0.000121,0.0,0.0,0.0,0.001369,2
1671463132273623929,458126,1671463132318423099,gps,2,1,42.300186082,-83.698591477,270.830871582,0.0001,0.0,0.0,0.0,0.000121,0.0,0.0,0.0,0.001369,2
1671463132283341521,458127,1671463132328343408,gps,2,1,42.3001862646,-83.6985914991,270.831268311,0.0001,0.0,0.0,0.0,0.000121,0.0,0.0,0.0,0.001369,2
1671463132293521416,458128,1671463132338417040,gps,2,1,42.3001864515,-83.6985915207,270.831756592,0.0001,0.0,0.0,0.0,0.000121,0.0,0.0,0.0,0.001369,2
1671463132303259200,458129,1671463132348406600,gps,2,1,42.3001866406,-83.6985915436,270.832092285,0.0001,0.0,0.0,0.0,0.000121,0.0,0.0,0.0,0.001369,2
1671463132313356810,458130,1671463132358365899,gps,2,1,42.3001868266,-83.6985915661,270.832458496,0.0001,0.0,0.0,0.0,0.000121,0.0,0.0,0.0,0.001369,2
1671463132323258185,458131,1671463132368358518,gps,2,1,42.300187017,-83.6985915883,270.83291626,0.0001,0.0,0.0,0.0,0.000121,0.0,0.0,0.0,0.001369,2
1671463132333713547,458132,1671463132378423541,gps,2,1,42.3001872096,-83.6985916116,270.833190918,0.0001,0.0,0.0,0.0,0.000121,0.0,0.0,0.0,0.001369,2
1671463132343331700,458133,1671463132388375805,gps,2,1,42.3001873993,-83.6985916345,270.833526611,0.0001,0.0,0.0,0.0,0.000121,0.0,0.0,0.0,0.001369,2
1671463132353173440,458134,1671463132398343029,gps,2,1,42.3001875932,-83.6985916569,270.833953857,0.0001,0.0,0.0,0.0,0.000121,0.0,0.0,0.0,0.001369,2
1671463132363844386,458135,1671463132408535821,gps,2,1,42.3001877893,-83.6985916804,270.834228516,0.0001,0.0,0.0,0.0,0.000121,0.0,0.0,0.0,0.001369,2
1671463132373711563,458136,1671463132418361548,gps,2,1,42.3001879824,-83.6985917035,270.834503174,0.0001,0.0,0.0,0.0,0.000121,0.0,0.0,0.0,0.001369,2
1671463132383448638,458137,1671463132428370580,gps,2,1,42.3001881799,-83.6985917264,270.834869385,0.0001,0.0,0.0,0.0,0.000121,0.0,0.0,0.0,0.001369,2
1671463132393644035,458138,1671463132438359651,gps,2,1,42.3001883794,-83.6985917496,270.835144043,0.0001,0.0,0.0,0.0,0.000121,0.0,0.0,0.0,0.001369,2
1671463132403390833,458139,1671463132448431522,gps,2,1,42.3001885759,-83.698591773,270.835418701,0.0001,0.0,0.0,0.0,0.000121,0.0,0.0,0.0,0.001369,2
1671463132413517970,458140,1671463132458353874,gps,2,1,42.3001887767,-83.6985917956,270.83581543,0.0001,0.0,0.0,0.0,0.000121,0.0,0.0,0.0,0.001369,2
1671463132423517557,458141,1671463132468397251,gps,2,1,42.3001889795,-83.6985918184,270.836151123,0.0001,0.0,0.0,0.0,0.000121,0.0,0.0,0.0,0.001369,2
1671463132433425853,458142,1671463132478354253,gps,2,1,42.3001891795,-83.6985918416,270.836425781,0.0001,0.0,0.0,0.0,0.000121,0.0,0.0,0.0,0.001369,2
1671463132443429381,458143,1671463132488345097,gps,2,1,42.3001893838,-83.6985918639,270.836914062,0.0001,0.0,0.0,0.0,0.000121,0.0,0.0,0.0,0.001369,2
1671463132453359186,458144,1671463132498422940,gps,2,1,42.30018959,-83.6985918866,270.837310791,0.0001,0.0,0.0,0.0,0.000121,0.0,0.0,0.0,0.001369,2
1671463132463328705,458145,1671463132508362910,gps,2,1,42.3001897933,-83.6985919094,270.837646484,0.0001,0.0,0.0,0.0,0.000121,0.0,0.0,0.0,0.001369,2
1671463132473288642,458146,1671463132518352749,gps,2,1,42.300190001,-83.6985919315,270.838195801,0.0001,0.0,0.0,0.0,0.000121,0.0,0.0,0.0,0.001369,2
1671463132483457789,458147,1671463132528420302,gps,2,1,42.3001902105,-83.6985919541,270.838653564,0.0001,0.0,0.0,0.0,0.000121,0.0,0.0,0.0,0.001369,2
1671463132493211216,458148,1671463132538364722,gps,2,1,42.3001904173,-83.6985919769,270.839080811,0.0001,0.0,0.0,0.0,0.000121,0.0,0.0,0.0,0.001369,2
1671463132503948749,458149,1671463132548453217,gps,2,1,42.3001906283,-83.6985919991,270.839660645,0.0001,0.0,0.0,0.0,0.000121,0.0,0.0,0.0,0.001369,2
1671463132513831933,458150,1671463132558401809,gps,2,1,42.3001908411,-83.6985920221,270.840179443,0.0001,0.0,0.0,0.0,0.000121,0.0,0.0,0.0,0.001369,2
1671463132523809083,458151,1671463132568445343,gps,2,1,42.3001910512,-83.6985920446,270.840637207,0.0001,0.0,0.0,0.0,0.000121,0.0,0.0,0.0,0.001369,2
1671463132533358433,458152,1671463132578420855,gps,2,1,42.3001912654,-83.6985920672,270.841247559,0.0001,0.0,0.0,0.0,0.000121,0.0,0.0,0.0,0.001369,2
1671463132543676565,458153,1671463132588517292,gps,2,1,42.3001914814,-83.6985920904,270.84173584,0.0001,0.0,0.0,0.0,0.000121,0.0,0.0,0.0,0.001369,2
1671463132553564762,458154,1671463132598476770,gps,2,1,42.3001916949,-83.6985921132,270.842224121,0.0001,0.0,0.0,0.0,0.000121,0.0,0.0,0.0,0.001369,2
1671463132563503772,458155,1671463132608360917,gps,2,1,42.300191913,-83.6985921378,270.842895508,0.0001,0.0,0.0,0.0,0.000121,0.0,0.0,0.0,0.001369,2
1671463132573441979,458156,1671463132618304596,gps,2,1,42.3001921322,-83.6985921614,270.843383789,0.0001,0.0,0.0,0.0,0.000121,0.0,0.0,0.0,0.001369,2
1671463132583486626,458157,1671463132628308117,gps,2,1,42.3001923488,-83.6985921846,270.843902588,0.0001,0.0,0.0,0.0,0.000121,0.0,0.0,0.0,0.001369,2
1671463132593373469,458158,1671463132638367059,gps,2,1,42.3001925699,-83.6985922096,270.844543457,0.0001,0.0,0.0,0.0,0.000121,0.0,0.0,0.0,0.001369,2
1671463132603555459,458159,1671463132648453246,gps,2,1,42.3001927922,-83.6985922338,270.845031738,0.0001,0.0,0.0,0.0,0.000121,0.0,0.0,0.0,0.001369,2
1671463132613248490,458160,1671463132658418694,gps,2,1,42.3001930119,-83.6985922575,270.84552002,0.0001,0.0,0.0,0.0,0.000121,0.0,0.0,0.0,0.001369,2
1671463132623735512,458161,1671463132668363587,gps,2,1,42.3001932362,-83.6985922831,270.846160889,0.0001,0.0,0.0,0.0,0.000121,0.0,0.0,0.0,0.001369,2
