%time,field.header.seq,field.header.stamp,field.header.frame_id,field.status.status,field.status.service,field.latitude,field.longitude,field.altitude,field.position_covariance0,field.position_covariance1,field.position_covariance2,field.position_covariance3,field.position_covariance4,field.position_covariance5,field.position_covariance6,field.position_covariance7,field.position_covariance8,field.position_covariance_type
1671462709293542292,415828,1671462709334623646,gps,2,1,42.3008580612,-83.6991810136,270.880065918,0.0001,0.0,0.0,0.0,0.000121,0.0,0.0,0.0,0.0016,2
1671462709303578866,415829,1671462709344647362,gps,2,1,42.3008580624,-83.6991810103,270.880065918,0.0001,0.0,0.0,0.0,0.000121,0.0,0.0,0.0,0.0016,2
1671462709313425125,415830,1671462709354683127,gps,2,1,42.3008580633,-83.6991810077,270.880065918,0.0001,0.0,0.0,0.0,0.000121,0.0,0.0,0.0,0.0016,2
1671462709323229326,415831,1671462709364625214,gps,2,1,42.3008580625,-83.6991810033,270.8800354,0.0001,0.0,0.0,0.0,0.000121,0.0,0.0,0.0,0.0016,2
1671462709333327972,415832,1671462709374661169,gps,2,1,42.3008580638,-83.6991809987,270.8800354,0.0001,0.0,0.0,0.0,0.000121,0.0,0.0,0.0,0.0016,2
1671462709343283597,415833,1671462709384691142,gps,2,1,42.3008580649,-83.6991809951,270.880004883,0.0001,0.0,0.0,0.0,0.000121,0.0,0.0,0.0,0.0016,2
1671462709353250959,415834,1671462709394629307,gps,2,1,42.3008580643,-83.6991809895,270.879974365,0.0001,0.0,0.0,0.0,0.000121,0.0,0.0,0.0,0.0016,2
1671462709363306586,415835,1671462709404641687,gps,2,1,42.3008580656,-83.6991809835,270.879974365,0.0001,0.0,0.0,0.0,0.000121,0.0,0.0,0.0,0.0016,2
1671462709373364052,415836,1671462709414713038,gps,2,1,42.3008580669,-83.6991809787,270.879974365,0.0001,0.0,0.0,0.0,0.000121,0.0,0.0,0.0,0.0016,2
1671462709383595424,415837,1671462709424637017,gps,2,1,42.3008580666,-83.6991809716,270.87991333,0.0001,0.0,0.0,0.0,0.000121,0.0,0.0,0.0,0.0016,2
1671462709393909732,415838,1671462709434696568,gps,2,1,42.3008580682,-83.6991809644,270.87991333,0.0001,0.0,0.0,0.0,0.000121,0.0,0.0,0.0,0.0016,2
1671462709403697853,415839,1671462709444727879,gps,2,1,42.3008580696,-83.6991809581,270.87991333,0.0001,0.0,0.0,0.0,0.000121,0.0,0.0,0.0,0.0016,2
1671462709413629002,415840,1671462709454644342,gps,2,1,42.3008580695,-83.6991809497,270.879882812,0.0001,0.0,0.0,0.0,0.000121,0.0,0.0,0.0,0.0016,2
1671462709423604567,415841,1671462709464748449,gps,2,1,42.3008580712,-83.6991809411,270.879882812,0.0001,0.0,0.0,0.0,0.000121,0.0,0.0,0.0,0.0016,2
1671462709433725255,415842,1671462709474677917,gps,2,1,42.3008580727,-83.6991809336,270.879882812,0.0001,0.0,0.0,0.0,0.000121,0.0,0.0,0.0,0.0016,2
1671462709443546911,415843,1671462709484640283,gps,2,1,42.3008580728,-83.6991809238,270.879852295,0.0001,0.0,0.0,0.0,0.000121,0.0,0.0,0.0,0.0016,2
1671462709453334102,415844,1671462709494672497,gps,2,1,42.3008580746,-83.6991809137,270.879852295,0.0001,0.0,0.0,0.0,0.000121,0.0,0.0,0.0,0.0016,2
1671462709463390767,415845,1671462709504634361,gps,2,1,42.3008580763,-83.6991809048,270.879852295,0.0001,0.0,0.0,0.0,0.000121,0.0,0.0,0.0,0.0016,2
1671462709473342305,415846,1671462709514642657,gps,2,1,42.3008580765,-83.6991808935,270.879821777,0.0001,0.0,0.0,0.0,0.000121,0.0,0.0,0.0,0.0016,2
1671462709483295297,415847,1671462709524644210,gps,2,1,42.3008580784,-83.6991808818,270.879821777,0.0001,0.0,0.0,0.0,0.000121,0.0,0.0,0.0,0.0016,2
1671462709493397808,415848,1671462709534692756,gps,2,1,42.3008580802,-83.6991808714,270.879821777,0.0001,0.0,0.0,0.0,0.000121,0.0,0.0,0.0,0.0016,2
1671462709503459697,415849,1671462709544762487,gps,2,1,42.3008580806,-83.6991808585,270.87979126,0.0001,0.0,0.0,0.0,0.000121,0.0,0.0,0.0,0.0016,2
1671462709513786704,415850,1671462709554751591,gps,2,1,42.3008580826,-83.6991808453,270.87979126,0.0001,0.0,0.0,0.0,0.000121,0.0,0.0,0.0,0.0016,2
1671462709523731858,415851,1671462709564730490,gps,2,1,42.3008580845,-83.6991808333,270.87979126,0.0001,0.0,0.0,0.0,0.000121,0.0,0.0,0.0,0.0016,2
1671462709533842523,415852,1671462709574637721,gps,2,1,42.3008580843,-83.699180818,270.87979126,0.0001,0.0,0.0,0.0,0.000121,0.0,0.0,0.0,0.0016,2
1671462709543622094,415853,1671462709584776374,gps,2,1,42.3008580864,-83.6991808031,270.87979126,0.0001,0.0,0.0,0.0,0.000121,0.0,0.0,0.0,0.0016,2
1671462709553651856,415854,1671462709594756976,gps,2,1,42.3008580884,-83.6991807896,270.87979126,0.0001,0.0,0.0,0.0,0.000121,0.0,0.0,0.0,0.0016,2
1671462709563512742,415855,1671462709604670641,gps,2,1,42.3008580884,-83.6991807728,270.87979126,0.0001,0.0,0.0,0.0,0.000121,0.0,0.0,0.0,0.0016,2
1671462709573518366,415856,1671462709614725622,gps,2,1,42.3008580906,-83.6991807563,270.879760742,0.0001,0.0,0.0,0.0,0.000121,0.0,0.0,0.0,0.0016,2
1671462709583463821,415857,1671462709624632057,gps,2,1,42.3008580927,-83.6991807411,270.879760742,0.0001,0.0,0.0,0.0,0.000121,0.0,0.0,0.0,0.0016,2
1671462709593596962,415858,1671462709634625761,gps,2,1,42.300858093,-83.6991807227,270.879760742,0.0001,0.0,0.0,0.0,0.000121,0.0,0.0,0.0,0.0016,2
1671462709603405327,415859,1671462709644696557,gps,2,1,42.3008580954,-83.6991807046,270.879730225,0.0001,0.0,0.0,0.0,0.000121,0.0,0.0,0.0,0.0016,2
1671462709613252757,415860,1671462709654636800,gps,2,1,42.3008580977,-83.6991806879,270.879730225,0.0001,0.0,0.0,0.0,0.000121,0.0,0.0,0.0,0.0016,2
1671462709623318097,415861,1671462709664630552,gps,2,1,42.3008580981,-83.699180668,270.879730225,0.0001,0.0,0.0,0.0,0.000121,0.0,0.0,0.0,0.0016,2
1671462709633809885,415862,1671462709674713470,gps,2,1,42.3008581007,-83.6991806483,270.879730225,0.0001,0.0,0.0,0.0,0.000121,0.0,0.0,0.0,0.0016,2
1671462709643205119,415863,1671462709684661826,gps,2,1,42.3008581031,-83.6991806299,270.879699707,0.0001,0.0,0.0,0.0,0.000121,0.0,0.0,0.0,0.0016,2
1671462709653623777,415864,1671462709694729027,gps,2,1,42.3008581037,-83.6991806084,270.879699707,0.0001,0.0,0.0,0.0,0.000121,0.0,0.0,0.0,0.0016,2
1671462709663438309,415865,1671462709704688941,gps,2,1,42.3008581065,-83.699180587,270.879699707,0.0001,0.0,0.0,0.0,0.000121,0.0,0.0,0.0,0.0016,2
1671462709673707031,415866,1671462709714656602,gps,2,1,42.3008581091,-83.6991805671,270.879699707,0.0001,0.0,0.0,0.0,0.000121,0.0,0.0,0.0,0.0016,2
1671462709683314019,415867,1671462709724630613,gps,2,1,42.3008581099,-83.699180544,270.879699707,0.0001,0.0,0.0,0.0,0.000121,0.0,0.0,0.0,0.0016,2
1671462709693693282,415868,1671462709734702386,gps,2,1,42.3008581129,-83.6991805209,270.879699707,0.0001,0.0,0.0,0.0,0.000121,0.0,0.0,0.0,0.0016,2
1671462709703481120,415869,1671462709744634587,gps,2,1,42.3008581157,-83.6991804993,270.879669189,0.0001,0.0,0.0,0.0,0.000121,0.0,0.0,0.0,0.0016,2
1671462709713609253,415870,1671462709754619338,gps,2,1,42.3008581168,-83.6991804744,270.879699707,0.0001,0.0,0.0,0.0,0.000121,0.0,0.0,0.0,0.0016,2
1671462709723346112,415871,1671462709764627401,gps,2,1,42.30085812,-83.6991804498,270.879699707,0.0001,0.0,0.0,0.0,0.000121,0.0,0.0,0.0,0.0016,2
1671462709733509793,415872,1671462709774688457,gps,2,1,42.300858123,-83.6991804264,270.879699707,0.0001,0.0,0.0,0.0,0.000121,0.0,0.0,0.0,0.0016,2
1671462709743451620,415873,1671462709784626847,gps,2,1,42.3008581243,-83.6991803999,270.879699707,0.0001,0.0,0.0,0.0,0.000121,0.0,0.0,0.0,0.0016,2
1671462709753347165,415874,1671462709794621152,gps,2,1,42.3008581277,-83.6991803734,270.879699707,0.0001,0.0,0.0,0.0,0.000121,0.0,0.0,0.0,0.0016,2
1671462709763339506,415875,1671462709804724860,gps,2,1,42.3008581309,-83.6991803486,270.879699707,0.0001,0.0,0.0,0.0,0.000121,0.0,0.0,0.0,0.0016,2
1671462709773296154,415876,1671462709814633155,gps,2,1,42.3008581325,-83.6991803206,270.879730225,0.0001,0.0,0.0,0.0,0.000121,0.0,0.0,0.0,0.0016,2
1671462709783273023,415877,1671462709824635439,gps,2,1,42.300858136,-83.6991802926,270.879730225,0.0001,0.0,0.0,0.0,0.000121,0.0,0.0,0.0,0.0016,2
1671462709793670006,415878,1671462709834698970,gps,2,1,42.3008581394,-83.6991802657,270.879730225,0.0001,0.0,0.0,0.0,0.000121,0.0,0.0,0.0,0.0016,2
1671462709803683484,415879,1671462709844638224,gps,2,1,42.3008581412,-83.6991802361,270.879760742,0.0001,0.0,0.0,0.0,0.000121,0.0,0.0,0.0,0.0016,2
1671462709813704563,415880,1671462709854704940,gps,2,1,42.3008581449,-83.6991802065,270.879760742,0.0001,0.0,0.0,0.0,0.000121,0.0,0.0,0.0,0.0016,2
1671462709823332012,415881,1671462709864649406,gps,2,1,42.3008581484,-83.6991801782,270.879760742,0.0001,0.0,0.0,0.0,0.000121,0.0,0.0,0.0,0.0016,2
1671462709833564265,415882,1671462709874631378,gps,2,1,42.3008581505,-83.699180147,270.87979126,0.0001,0.0,0.0,0.0,0.000121,0.0,0.0,0.0,0.0016,2
1671462709843275063,415883,1671462709884640378,gps,2,1,42.3008581543,-83.6991801157,270.87979126,0.0001,0.0,0.0,0.0,0.000121,0.0,0.0,0.0,0.0016,2
1671462709853509728,415884,1671462709894704193,gps,2,1,42.300858158,-83.6991800859,270.87979126,0.0001,0.0,0.0,0.0,0.000121,0.0,0.0,0.0,0.0016,2
1671462709863472921,415885,1671462709904623975,gps,2,1,42.3008581603,-83.699180053,270.87979126,0.0001,0.0,0.0,0.0,0.000121,0.0,0.0,0.0,0.0016,2
1671462709873469656,415886,1671462709914628432,gps,2,1,42.3008581642,-83.6991800201,270.87979126,0.0001,0.0,0.0,0.0,0.000121,0.0,0.0,0.0,0.0016,2
1671462709883448840,415887,1671462709924717285,gps,2,1,42.3008581681,-83.6991799884,270.87979126,0.0001,0.0,0.0,0.0,0.000121,0.0,0.0,0.0,0.0016,2
1671462709893548160,415888,1671462709934640277,gps,2,1,42.3008581703,-83.699179954,270.87979126,0.0001,0.0,0.0,0.0,0.000121,0.0,0.0,0.0,0.0016,2
1671462709903314956,415889,1671462709944738593,gps,2,1,42.3008581743,-83.6991799192,270.87979126,0.0001,0.0,0.0,0.0,0.000121,0.0,0.0,0.0,0.0016,2
1671462709913306689,415890,1671462709954698198,gps,2,1,42.3008581783,-83.6991798859,270.87979126,0.0001,0.0,0.0,0.0,0.000121,0.0,0.0,0.0,0.0016,2
1671462709923239754,415891,1671462709964638896,gps,2,1,42.3008581806,-83.6991798498,270.87979126,0.0001,0.0,0.0,0.0,0.000121,0.0,0.0,0.0,0.0016,2
1671462709933629824,415892,1671462709974716482,gps,2,1,42.3008581847,-83.6991798131,270.879760742,0.0001,0.0,0.0,0.0,0.000121,0.0,0.0,0.0,0.0016,2
1671462709943475843,415893,1671462709984650791,gps,2,1,42.3008581887,-83.6991797779,270.879760742,0.0001,0.0,0.0,0.0,0.000121,0.0,0.0,0.0,0.0016,2
1671462709953556666,415894,1671462709994625992,gps,2,1,42.3008581912,-83.6991797399,270.879760742,0.0001,0.0,0.0,0.0,0.000121,0.0,0.0,0.0,0.0016,2
1671462709963484397,415895,1671462710004645546,gps,2,1,42.3008581954,-83.6991797013,270.879760742,0.0001,0.0,0.0,0.0,0.000121,0.0,0.0,0.0,0.0016,2
1671462709973654418,415896,1671462710014798395,gps,2,1,42.3008581996,-83.6991796643,270.879730225,0.0001,0.0,0.0,0.0,0.000121,0.0,0.0,0.0,0.0016,2
1671462709983630797,415897,1671462710024641076,gps,2,1,42.3008582022,-83.6991796244,270.879730225,0.0001,0.0,0.0,0.0,0.000121,0.0,0.0,0.0,0.0016,2
1671462709993686296,415898,1671462710034661417,gps,2,1,42.3008582066,-83.6991795841,270.879730225,0.0001,0.0,0.0,0.0,0.000121,0.0,0.0,0.0,0.0016,2
1671462710003539533,415899,1671462710044855679,gps,2,1,42.3008582109,-83.6991795452,270.879699707,0.0001,0.0,0.0,0.0,0.000121,0.0,0.0,0.0,0.0016,2
1671462710013290294,415900,1671462710054742528,gps,2,1,42.3008582116,-83.699179505,270.879852295,0.0001,0.0,0.0,0.0,0.000121,0.0,0.0,0.0,0.0016,2
1671462710023895213,415901,1671462710064742088,gps,2,1,42.3008582163,-83.6991794628,270.879852295,0.0001,0.0,0.0,0.0,0.000121,0.0,0.0,0.0,0.0016,2
1671462710033474386,415902,1671462710074728567,gps,2,1,42.3008582208,-83.6991794221,270.879821777,0.0001,0.0,0.0,0.0,0.000121,0.0,0.0,0.0,0.0016,2
1671462710043455772,415903,1671462710084694240,gps,2,1,42.3008582219,-83.6991793801,270.879974365,0.0001,0.0,0.0,0.0,0.000121,0.0,0.0,0.0,0.0016,2
1671462710053230866,415904,1671462710094665543,gps,2,1,42.3008582268,-83.6991793362,270.879974365,0.0001,0.0,0.0,0.0,0.000121,0.0,0.0,0.0,0.0016,2
1671462710063243165,415905,1671462710104752768,gps,2,1,42.3008582315,-83.6991792938,270.879943848,0.0001,0.0,0.0,0.0,0.000121,0.0,0.0,0.0,0.0016,2
1671462710073771659,415906,1671462710114757010,gps,2,1,42.300858233,-83.6991792499,270.880096436,0.0001,0.0,0.0,0.0,0.000121,0.0,0.0,0.0,0.0016,2
1671462710083897562,415907,1671462710124679479,gps,2,1,42.3008582382,-83.699179204,270.880065918,0.0001,0.0,0.0,0.0,0.000121,0.0,0.0,0.0,0.0016,2
1671462710093753655,415908,1671462710134717061,gps,2,1,42.3008582432,-83.6991791596,270.8800354,0.0001,0.0,0.0,0.0,0.000121,0.0,0.0,0.0,0.0016,2
1671462710103690928,415909,1671462710144629447,gps,2,1,42.3008582451,-83.6991791138,270.880187988,0.0001,0.0,0.0,0.0,0.000121,0.0,0.0,0.0,0.0016,2
1671462710113606074,415910,1671462710154658675,gps,2,1,42.3008582505,-83.699179066,270.880157471,0.0001,0.0,0.0,0.0,0.000121,0.0,0.0,0.0,0.0016,2
1671462710123576067,415911,1671462710164746061,gps,2,1,42.3008582557,-83.6991790197,270.880126953,0.0001,0.0,0.0,0.0,0.000121,0.0,0.0,0.0,0.0016,2
1671462710133299298,415912,1671462710174634605,gps,2,1,42.300858258,-83.6991789718,270.880279541,0.0001,0.0,0.0,0.0,0.000121,0.0,0.0,0.0,0.0016,2
1671462710143435363,415913,1671462710184696285,gps,2,1,42.3008582637,-83.6991789219,270.880249023,0.0001,0.0,0.0,0.0,0.000121,0.0,0.0,0.0,0.0016,2
1671462710153491075,415914,1671462710194736132,gps,2,1,42.3008582691,-83.6991788738,270.880218506,0.0001,0.0,0.0,0.0,0.000121,0.0,0.0,0.0,0.0016,2
1671462710163435960,415915,1671462710204636998,gps,2,1,42.3008582717,-83.6991788239,270.880340576,0.0001,0.0,0.0,0.0,0.000121,0.0,0.0,0.0,0.0016,2
1671462710173372412,415916,1671462710214629150,gps,2,1,42.3008582776,-83.6991787721,270.880310059,0.0001,0.0,0.0,0.0,0.000121,0.0,0.0,0.0,0.0016,2
1671462710183342336,415917,1671462710224704568,gps,2,1,42.3008582834,-83.6991787219,270.880279541,0.0001,0.0,0.0,0.0,0.000121,0.0,0.0,0.0,0.0016,2
1671462710193375111,415918,1671462710234639093,gps,2,1,42.3008582863,-83.6991786699,270.880371094,0.0001,0.0,0.0,0.0,0.000121,0.0,0.0,0.0,0.0016,2
1671462710203265383,415919,1671462710244652458,gps,2,1,42.3008582923,-83.6991786159,270.880340576,0.0001,0.0,0.0,0.0,0.000121,0.0,0.0,0.0,0.0016,2
1671462710213695712,415920,1671462710254717586,gps,2,1,42.3008582982,-83.6991785638,270.880279541,0.0001,0.0,0.0,0.0,0.000121,0.0,0.0,0.0,0.0016,2
1671462710223201657,415921,1671462710264644920,gps,2,1,42.3008583012,-83.6991785096,270.880371094,0.0001,0.0,0.0,0.0,0.000121,0.0,0.0,0.0,0.0016,2
1671462710233658932,415922,1671462710274649693,gps,2,1,42.3008583073,-83.6991784533,270.880279541,0.0001,0.0,0.0,0.0,0.000121,0.0,0.0,0.0,0.0016,2
1671462710243657695,415923,1671462710284724296,gps,2,1,42.3008583134,-83.6991783989,270.880218506,0.0001,0.0,0.0,0.0,0.000121,0.0,0.0,0.0,0.0016,2
1671462710253637611,415924,1671462710294652067,gps,2,1,42.3008583166,-83.6991783422,270.880279541,4.9e-05,0.0,0.0,0.0,8.1e-05,0.0,0.0,0.0,0.001521,2
1671462710263568174,415925,1671462710304725348,gps,2,1,42.3008583228,-83.6991782834,270.880218506,4.9e-05,0.0,0.0,0.0,8.1e-05,0.0,0.0,0.0,0.001521,2
1671462710273524523,415926,1671462710314664510,gps,2,1,42.3008583289,-83.6991782266,270.880126953,4.9e-05,0.0,0.0,0.0,8.1e-05,0.0,0.0,0.0,0.001521,2
1671462710283632792,415927,1671462710324633719,gps,2,1,42.3008583323,-83.6991781674,270.880187988,4.9e-05,0.0,0.0,0.0,8.1e-05,0.0,0.0,0.0,0.001521,2
1671462710293577978,415928,1671462710334638442,gps,2,1,42.3008583386,-83.6991781058,270.880096436,4.9e-05,0.0,0.0,0.0,8.1e-05,0.0,0.0,0.0,0.001521,2
1671462710303476915,415929,1671462710344688390,gps,2,1,42.3008583448,-83.6991780466,270.8800354,4.9e-05,0.0,0.0,0.0,8.1e-05,0.0,0.0,0.0,0.001521,2
1671462710313388678,415930,1671462710354636027,gps,2,1,42.3008583485,-83.6991779845,270.880065918,4.9e-05,0.0,0.0,0.0,8.1e-05,0.0,0.0,0.0,0.001521,2
1671462710323341166,415931,1671462710364662112,gps,2,1,42.3008583551,-83.69917792,270.880004883,4.9e-05,0.0,0.0,0.0,8.1e-05,0.0,0.0,0.0,0.001521,2
1671462710333284367,415932,1671462710374708949,gps,2,1,42.3008583615,-83.6991778578,270.87991333,4.9e-05,0.0,0.0,0.0,8.1e-05,0.0,0.0,0.0,0.001521,2
1671462710343260071,415933,1671462710384652559,gps,2,1,42.3008583656,-83.6991777926,270.879943848,4.9e-05,0.0,0.0,0.0,8.1e-05,0.0,0.0,0.0,0.001521,2
1671462710353225446,415934,1671462710394651473,gps,2,1,42.3008583725,-83.699177725,270.879882812,4.9e-05,0.0,0.0,0.0,8.1e-05,0.0,0.0,0.0,0.001521,2
1671462710363688999,415935,1671462710404706473,gps,2,1,42.3008583792,-83.6991776599,270.879821777,4.9e-05,0.0,0.0,0.0,8.1e-05,0.0,0.0,0.0,0.001521,2
1671462710373712286,415936,1671462710414646594,gps,2,1,42.3008583838,-83.6991775917,270.879852295,4.9e-05,0.0,0.0,0.0,8.1e-05,0.0,0.0,0.0,0.001521,2
1671462710383507119,415937,1671462710424645854,gps,2,1,42.3008583912,-83.6991775209,270.879760742,4.9e-05,0.0,0.0,0.0,8.1e-05,0.0,0.0,0.0,0.001521,2
1671462710393383756,415938,1671462710434742350,gps,2,1,42.3008583983,-83.6991774527,270.879699707,4.9e-05,0.0,0.0,0.0,8.1e-05,0.0,0.0,0.0,0.001521,2
1671462710403573860,415939,1671462710444736699,gps,2,1,42.3008584035,-83.6991773814,270.879730225,4.9e-05,0.0,0.0,0.0,8.1e-05,0.0,0.0,0.0,0.001521,2
1671462710413541115,415940,1671462710454650674,gps,2,1,42.3008584114,-83.6991773074,270.879638672,4.9e-05,0.0,0.0,0.0,8.1e-05,0.0,0.0,0.0,0.001521,2
1671462710423548336,415941,1671462710464699667,gps,2,1,42.3008584189,-83.699177236,270.879547119,4.9e-05,0.0,0.0,0.0,8.1e-05,0.0,0.0,0.0,0.001521,2
1671462710433604687,415942,1671462710474644723,gps,2,1,42.3008584246,-83.6991771614,270.879577637,4.9e-05,0.0,0.0,0.0,8.1e-05,0.0,0.0,0.0,0.001521,2
1671462710443531124,415943,1671462710484640861,gps,2,1,42.3008584329,-83.6991770841,270.879486084,4.9e-05,0.0,0.0,0.0,8.1e-05,0.0,0.0,0.0,0.001521,2
1671462710453338358,415944,1671462710494710839,gps,2,1,42.3008584409,-83.6991770096,270.879394531,4.9e-05,0.0,0.0,0.0,8.1e-05,0.0,0.0,0.0,0.001521,2
1671462710463348602,415945,1671462710504639963,gps,2,1,42.300858447,-83.6991769316,270.879425049,4.9e-05,0.0,0.0,0.0,8.1e-05,0.0,0.0,0.0,0.001521,2
1671462710473306928,415946,1671462710514658272,gps,2,1,42.3008584556,-83.6991768507,270.879364014,4.9e-05,0.0,0.0,0.0,8.1e-05,0.0,0.0,0.0,0.001521,2
1671462710483274296,415947,1671462710524705323,gps,2,1,42.300858464,-83.6991767729,270.879272461,4.9e-05,0.0,0.0,0.0,8.1e-05,0.0,0.0,0.0,0.001521,2
1671462710493869231,415948,1671462710534643744,gps,2,1,42.3008584704,-83.6991766913,270.879302979,4.9e-05,0.0,0.0,0.0,8.1e-05,0.0,0.0,0.0,0.001521,2
1671462710503784902,415949,1671462710544744260,gps,2,1,42.3008584792,-83.699176607,270.879241943,4.9e-05,0.0,0.0,0.0,8.1e-05,0.0,0.0,0.0,0.001521,2
1671462710513923919,415950,1671462710554714504,gps,2,1,42.3008584879,-83.6991765255,270.879180908,4.9e-05,0.0,0.0,0.0,8.1e-05,0.0,0.0,0.0,0.001521,2
1671462710523751504,415951,1671462710564715240,gps,2,1,42.3008584947,-83.6991764403,270.879211426,4.9e-05,0.0,0.0,0.0,8.1e-05,0.0,0.0,0.0,0.001521,2
1671462710533504224,415952,1671462710574732303,gps,2,1,42.3008585041,-83.6991763524,270.879150391,4.9e-05,0.0,0.0,0.0,8.1e-05,0.0,0.0,0.0,0.001521,2
1671462710543665233,415953,1671462710584714481,gps,2,1,42.300858513,-83.6991762674,270.879089355,4.9e-05,0.0,0.0,0.0,8.1e-05,0.0,0.0,0.0,0.001521,2
1671462710553603994,415954,1671462710594739009,gps,2,1,42.3008585194,-83.6991761801,270.87902832,4.9e-05,0.0,0.0,0.0,8.1e-05,0.0,0.0,0.0,0.001521,2
1671462710563528947,415955,1671462710604680647,gps,2,1,42.3008585292,-83.6991760883,270.878967285,4.9e-05,0.0,0.0,0.0,8.1e-05,0.0,0.0,0.0,0.001521,2
1671462710573523065,415956,1671462710614716089,gps,2,1,42.3008585385,-83.6991759997,270.878936768,4.9e-05,0.0,0.0,0.0,8.1e-05,0.0,0.0,0.0,0.001521,2
1671462710583476072,415957,1671462710624660765,gps,2,1,42.3008585455,-83.6991759085,270.878845215,4.9e-05,0.0,0.0,0.0,8.1e-05,0.0,0.0,0.0,0.001521,2
1671462710593345417,415958,1671462710634643668,gps,2,1,42.3008585557,-83.699175813,270.878845215,4.9e-05,0.0,0.0,0.0,8.1e-05,0.0,0.0,0.0,0.001521,2
1671462710603382959,415959,1671462710644713962,gps,2,1,42.3008585655,-83.6991757206,270.878814697,4.9e-05,0.0,0.0,0.0,8.1e-05,0.0,0.0,0.0,0.001521,2
1671462710613310902,415960,1671462710654680431,gps,2,1,42.3008585731,-83.6991756254,270.878753662,4.9e-05,0.0,0.0,0.0,8.1e-05,0.0,0.0,0.0,0.001521,2
1671462710623303675,415961,1671462710664654306,gps,2,1,42.3008585838,-83.6991755258,270.878723145,4.9e-05,0.0,0.0,0.0,8.1e-05,0.0,0.0,0.0,0.001521,2
1671462710633666477,415962,1671462710674735823,gps,2,1,42.3008585942,-83.6991754295,270.878692627,4.9e-05,0.0,0.0,0.0,8.1e-05,0.0,0.0,0.0,0.001521,2
1671462710643276668,415963,1671462710684671623,gps,2,1,42.3008586021,-83.6991753303,270.878662109,4.9e-05,0.0,0.0,0.0,8.1e-05,0.0,0.0,0.0,0.001521,2
1671462710653820044,415964,1671462710694748813,gps,2,1,42.3008586133,-83.6991752265,270.878662109,4.9e-05,0.0,0.0,0.0,8.1e-05,0.0,0.0,0.0,0.001521,2
1671462710663806755,415965,1671462710704706558,gps,2,1,42.3008586242,-83.6991751261,270.878631592,4.9e-05,0.0,0.0,0.0,8.1e-05,0.0,0.0,0.0,0.001521,2
1671462710673602328,415966,1671462710714653716,gps,2,1,42.3008586326,-83.6991750226,270.878601074,4.9e-05,0.0,0.0,0.0,8.1e-05,0.0,0.0,0.0,0.001521,2
1671462710683501723,415967,1671462710724677532,gps,2,1,42.3008586443,-83.6991749145,270.878601074,4.9e-05,0.0,0.0,0.0,8.1e-05,0.0,0.0,0.0,0.001521,2
1671462710693612908,415968,1671462710734707652,gps,2,1,42.3008586555,-83.69917481,270.878570557,4.9e-05,0.0,0.0,0.0,8.1e-05,0.0,0.0,0.0,0.001521,2
1671462710703468054,415969,1671462710744737209,gps,2,1,42.3008586645,-83.6991747022,270.878540039,4.9e-05,0.0,0.0,0.0,8.1e-05,0.0,0.0,0.0,0.001521,2
1671462710713513240,415970,1671462710754724115,gps,2,1,42.3008586766,-83.6991745896,270.878509521,4.9e-05,0.0,0.0,0.0,8.1e-05,0.0,0.0,0.0,0.001521,2
1671462710723304569,415971,1671462710764666258,gps,2,1,42.3008586883,-83.6991744807,270.878509521,4.9e-05,0.0,0.0,0.0,8.1e-05,0.0,0.0,0.0,0.001521,2
1671462710733661767,415972,1671462710774655813,gps,2,1,42.3008586978,-83.699174368,270.878448486,4.9e-05,0.0,0.0,0.0,8.1e-05,0.0,0.0,0.0,0.001521,2
1671462710743480223,415973,1671462710784716079,gps,2,1,42.3008587102,-83.6991742505,270.878387451,4.9e-05,0.0,0.0,0.0,8.1e-05,0.0,0.0,0.0,0.001521,2
1671462710753325364,415974,1671462710794695347,gps,2,1,42.3008587223,-83.6991741371,270.878356934,4.9e-05,0.0,0.0,0.0,8.1e-05,0.0,0.0,0.0,0.001521,2
1671462710763277193,415975,1671462710804677799,gps,2,1,42.3008587322,-83.6991740195,270.878265381,4.9e-05,0.0,0.0,0.0,8.1e-05,0.0,0.0,0.0,0.001521,2
1671462710773242692,415976,1671462710814739343,gps,2,1,42.3008587449,-83.6991738969,270.878173828,4.9e-05,0.0,0.0,0.0,8.1e-05,0.0,0.0,0.0,0.001521,2
1671462710783395815,415977,1671462710824703332,gps,2,1,42.3008587574,-83.6991737785,270.878112793,4.9e-05,0.0,0.0,0.0,8.1e-05,0.0,0.0,0.0,0.001521,2
1671462710793652083,415978,1671462710834678332,gps,2,1,42.3008587677,-83.6991736556,270.877990723,4.9e-05,0.0,0.0,0.0,8.1e-05,0.0,0.0,0.0,0.001521,2
1671462710803435061,415979,1671462710844654246,gps,2,1,42.3008587808,-83.6991735275,270.877868652,4.9e-05,0.0,0.0,0.0,8.1e-05,0.0,0.0,0.0,0.001521,2
1671462710813763398,415980,1671462710854713175,gps,2,1,42.3008587936,-83.6991734039,270.8777771,4.9e-05,0.0,0.0,0.0,8.1e-05,0.0,0.0,0.0,0.001521,2
1671462710823606594,415981,1671462710864655121,gps,2,1,42.3008588043,-83.6991732753,270.877624512,4.9e-05,0.0,0.0,0.0,8.1e-05,0.0,0.0,0.0,0.001521,2
1671462710833571827,415982,1671462710874714129,gps,2,1,42.3008588177,-83.6991731413,270.877471924,4.9e-05,0.0,0.0,0.0,8.1e-05,0.0,0.0,0.0,0.001521,2
1671462710843606531,415983,1671462710884672178,gps,2,1,42.3008588309,-83.6991730123,270.877349854,4.9e-05,0.0,0.0,0.0,8.1e-05,0.0,0.0,0.0,0.001521,2
1671462710853494253,415984,1671462710894635437,gps,2,1,42.3008588419,-83.6991728778,270.877197266,4.9e-05,0.0,0.0,0.0,8.1e-05,0.0,0.0,0.0,0.001521,2
1671462710863459593,415985,1671462710904720789,gps,2,1,42.3008588556,-83.699172738,270.876983643,4.9e-05,0.0,0.0,0.0,8.1e-05,0.0,0.0,0.0,0.001521,2
1671462710873421816,415986,1671462710914689905,gps,2,1,42.3008588691,-83.6991726031,270.876861572,4.9e-05,0.0,0.0,0.0,8.1e-05,0.0,0.0,0.0,0.001521,2
1671462710883224408,415987,1671462710924582047,gps,2,1,42.3008588805,-83.6991724622,270.876617432,4.9e-05,0.0,0.0,0.0,8.1e-05,0.0,0.0,0.0,0.001521,2
1671462710893336687,415988,1671462710934587634,gps,2,1,42.3008588948,-83.6991723162,270.876403809,4.9e-05,0.0,0.0,0.0,8.1e-05,0.0,0.0,0.0,0.001521,2
1671462710903289561,415989,1671462710944707716,gps,2,1,42.3008589085,-83.6991721756,270.876220703,4.9e-05,0.0,0.0,0.0,8.1e-05,0.0,0.0,0.0,0.001521,2
1671462710913730559,415990,1671462710954723653,gps,2,1,42.3008589206,-83.6991720286,270.875976562,4.9e-05,0.0,0.0,0.0,8.1e-05,0.0,0.0,0.0,0.001521,2
1671462710923235167,415991,1671462710964702324,gps,2,1,42.3008589356,-83.6991718771,270.875762939,4.9e-05,0.0,0.0,0.0,8.1e-05,0.0,0.0,0.0,0.001521,2
1671462710933576489,415992,1671462710974711087,gps,2,1,42.3008589499,-83.6991717301,270.875579834,4.9e-05,0.0,0.0,0.0,8.1e-05,0.0,0.0,0.0,0.001521,2
1671462710943884815,415993,1671462710984657415,gps,2,1,42.3008589628,-83.6991715774,270.875335693,4.9e-05,0.0,0.0,0.0,8.1e-05,0.0,0.0,0.0,0.001521,2
1671462710953662429,415994,1671462710994718302,gps,2,1,42.3008589787,-83.6991714205,270.87512207,4.9e-05,0.0,0.0,0.0,8.1e-05,0.0,0.0,0.0,0.001521,2
1671462710963605092,415995,1671462711004649574,gps,2,1,42.3008589937,-83.6991712676,270.874938965,4.9e-05,0.0,0.0,0.0,8.1e-05,0.0,0.0,0.0,0.001521,2
1671462710973563170,415996,1671462711014659775,gps,2,1,42.3008590076,-83.6991711097,270.874725342,4.9e-05,0.0,0.0,0.0,8.1e-05,0.0,0.0,0.0,0.001521,2
1671462710983387358,415997,1671462711024726418,gps,2,1,42.3008590245,-83.6991709471,270.874572754,4.9e-05,0.0,0.0,0.0,8.1e-05,0.0,0.0,0.0,0.001521,2
1671462710993644184,415998,1671462711034645085,gps,2,1,42.3008590404,-83.6991707889,270.874420166,4.9e-05,0.0,0.0,0.0,8.1e-05,0.0,0.0,0.0,0.001521,2
1671462711003506383,415999,1671462711044796296,gps,2,1,42.3008590555,-83.6991706256,270.874237061,4.9e-05,0.0,0.0,0.0,8.1e-05,0.0,0.0,0.0,0.001521,2
1671462711013428995,416000,1671462711054788471,gps,2,1,42.3008590735,-83.6991704578,270.874145508,4.9e-05,0.0,0.0,0.0,8.1e-05,0.0,0.0,0.0,0.001521,2
1671462711023397378,416001,1671462711064780467,gps,2,1,42.3008590903,-83.6991702939,270.87399292,4.9e-05,0.0,0.0,0.0,8.1e-05,0.0,0.0,0.0,0.001521,2
1671462711033347869,416002,1671462711074676795,gps,2,1,42.3008591045,-83.6991701239,270.873657227,4.9e-05,0.0,0.0,0.0,8.1e-05,0.0,0.0,0.0,0.001521,2
1671462711043610360,416003,1671462711084762564,gps,2,1,42.3008591235,-83.6991699503,270.873596191,4.9e-05,0.0,0.0,0.0,8.1e-05,0.0,0.0,0.0,0.001521,2
1671462711053289265,416004,1671462711094730897,gps,2,1,42.3008591415,-83.6991697814,270.873474121,4.9e-05,0.0,0.0,0.0,8.1e-05,0.0,0.0,0.0,0.001521,2
1671462711063645411,416005,1671462711104657524,gps,2,1,42.3008591568,-83.6991696057,270.873199463,4.9e-05,0.0,0.0,0.0,8.1e-05,0.0,0.0,0.0,0.001521,2
1671462711073912332,416006,1671462711114790379,gps,2,1,42.3008591767,-83.6991694263,270.873138428,4.9e-05,0.0,0.0,0.0,8.1e-05,0.0,0.0,0.0,0.001521,2
1671462711083842828,416007,1671462711124686933,gps,2,1,42.3008591958,-83.6991692518,270.873077393,4.9e-05,0.0,0.0,0.0,8.1e-05,0.0,0.0,0.0,0.001521,2
1671462711093817145,416008,1671462711134647570,gps,2,1,42.3008592122,-83.6991690702,270.872802734,4.9e-05,0.0,0.0,0.0,8.1e-05,0.0,0.0,0.0,0.001521,2
1671462711103670695,416009,1671462711144720190,gps,2,1,42.3008592327,-83.6991688848,270.872741699,4.9e-05,0.0,0.0,0.0,8.1e-05,0.0,0.0,0.0,0.001521,2
1671462711113718491,416010,1671462711154663481,gps,2,1,42.3008592527,-83.6991687044,270.872650146,4.9e-05,0.0,0.0,0.0,8.1e-05,0.0,0.0,0.0,0.001521,2
1671462711123509976,416011,1671462711164649649,gps,2,1,42.3008592698,-83.6991685166,270.872375488,4.9e-05,0.0,0.0,0.0,8.1e-05,0.0,0.0,0.0,0.001521,2
1671462711133541664,416012,1671462711174743297,gps,2,1,42.300859291,-83.699168325,270.872314453,4.9e-05,0.0,0.0,0.0,8.1e-05,0.0,0.0,0.0,0.001521,2
1671462711143523063,416013,1671462711184659187,gps,2,1,42.3008593117,-83.6991681385,270.8722229,4.9e-05,0.0,0.0,0.0,8.1e-05,0.0,0.0,0.0,0.001521,2
1671462711153450382,416014,1671462711194743046,gps,2,1,42.3008593292,-83.6991679449,270.871948242,4.9e-05,0.0,0.0,0.0,8.1e-05,0.0,0.0,0.0,0.001521,2
1671462711163405956,416015,1671462711204717609,gps,2,1,42.3008593506,-83.6991677467,270.871826172,4.9e-05,0.0,0.0,0.0,8.1e-05,0.0,0.0,0.0,0.001521,2
1671462711173351560,416016,1671462711214641336,gps,2,1,42.3008593715,-83.6991675539,270.871734619,4.9e-05,0.0,0.0,0.0,8.1e-05,0.0,0.0,0.0,0.001521,2
1671462711183310426,416017,1671462711224658589,gps,2,1,42.3008593892,-83.699167354,270.871429443,4.9e-05,0.0,0.0,0.0,8.1e-05,0.0,0.0,0.0,0.001521,2
1671462711193425313,416018,1671462711234732646,gps,2,1,42.30085941,-83.6991671496,270.871307373,4.9e-05,0.0,0.0,0.0,8.1e-05,0.0,0.0,0.0,0.001521,2
1671462711203226317,416019,1671462711244668155,gps,2,1,42.3008594316,-83.6991669504,270.871185303,4.9e-05,0.0,0.0,0.0,8.1e-05,0.0,0.0,0.0,0.001521,2
1671462711213211990,416020,1671462711254656669,gps,2,1,42.300859449,-83.6991667443,270.870849609,4.9e-05,0.0,0.0,0.0,8.1e-05,0.0,0.0,0.0,0.001521,2
1671462711223901597,416021,1671462711264714709,gps,2,1,42.3008594694,-83.6991665337,270.870666504,4.9e-05,0.0,0.0,0.0,8.1e-05,0.0,0.0,0.0,0.001521,2
1671462711233793394,416022,1671462711274670647,gps,2,1,42.3008594904,-83.6991663285,270.870544434,4.9e-05,0.0,0.0,0.0,8.1e-05,0.0,0.0,0.0,0.001521,2
1671462711243574149,416023,1671462711284655551,gps,2,1,42.3008595072,-83.6991661164,270.870178223,4.9e-05,0.0,0.0,0.0,8.1e-05,0.0,0.0,0.0,0.001521,2
1671462711253551613,416024,1671462711294671953,gps,2,1,42.300859527,-83.6991658998,270.869995117,0.0001,0.0,0.0,0.0,0.000121,0.0,0.0,0.0,0.0016,2
1671462711263568120,416025,1671462711304740926,gps,2,1,42.3008595475,-83.6991656881,270.869812012,0.0001,0.0,0.0,0.0,0.000121,0.0,0.0,0.0,0.0016,2
1671462711273504841,416026,1671462711314642700,gps,2,1,42.3008595638,-83.6991654698,270.869476318,0.0001,0.0,0.0,0.0,0.000121,0.0,0.0,0.0,0.0016,2
1671462711283603676,416027,1671462711324708084,gps,2,1,42.3008595828,-83.6991652473,270.86932373,0.0001,0.0,0.0,0.0,0.000121,0.0,0.0,0.0,0.0016,2
1671462711293448934,416028,1671462711334650687,gps,2,1,42.3008596023,-83.6991650296,270.869140625,0.0001,0.0,0.0,0.0,0.000121,0.0,0.0,0.0,0.0016,2
1671462711303425408,416029,1671462711344651672,gps,2,1,42.300859618,-83.6991648053,270.868774414,0.0001,0.0,0.0,0.0,0.000121,0.0,0.0,0.0,0.0016,2
1671462711313332997,416030,1671462711354712733,gps,2,1,42.3008596363,-83.6991645765,270.868652344,0.0001,0.0,0.0,0.0,0.000121,0.0,0.0,0.0,0.0016,2
1671462711323320805,416031,1671462711364661179,gps,2,1,42.3008596553,-83.6991643535,270.868469238,0.0001,0.0,0.0,0.0,0.000121,0.0,0.0,0.0,0.0016,2
1671462711333326973,416032,1671462711374657609,gps,2,1,42.3008596706,-83.6991641231,270.868164062,0.0001,0.0,0.0,0.0,0.000121,0.0,0.0,0.0,0.0016,2
1671462711343352738,416033,1671462711384741875,gps,2,1,42.3008596889,-83.6991638885,270.868011475,0.0001,0.0,0.0,0.0,0.000121,0.0,0.0,0.0,0.0016,2
1671462711353659265,416034,1671462711394749728,gps,2,1,42.3008597076,-83.6991636589,270.867828369,0.0001,0.0,0.0,0.0,0.000121,0.0,0.0,0.0,0.0016,2
1671462711363710556,416035,1671462711404661124,gps,2,1,42.3008597229,-83.6991634223,270.867523193,0.0001,0.0,0.0,0.0,0.000121,0.0,0.0,0.0,0.0016,2
1671462711373707658,416036,1671462711414674432,gps,2,1,42.3008597417,-83.6991631817,270.867401123,0.0001,0.0,0.0,0.0,0.000121,0.0,0.0,0.0,0.0016,2
1671462711383594283,416037,1671462711424741909,gps,2,1,42.3008597599,-83.6991629459,270.867248535,0.0001,0.0,0.0,0.0,0.000121,0.0,0.0,0.0,0.0016,2
1671462711393630558,416038,1671462711434660962,gps,2,1,42.3008597758,-83.6991627029,270.867004395,0.0001,0.0,0.0,0.0,0.000121,0.0,0.0,0.0,0.0016,2
1671462711403601116,416039,1671462711444757139,gps,2,1,42.300859795,-83.6991624562,270.866882324,0.0001,0.0,0.0,0.0,0.000121,0.0,0.0,0.0,0.0016,2
1671462711413582753,416040,1671462711454723035,gps,2,1,42.3008598137,-83.6991622145,270.866760254,0.0001,0.0,0.0,0.0,0.000121,0.0,0.0,0.0,0.0016,2
1671462711423495471,416041,1671462711464651572,gps,2,1,42.3008598304,-83.6991619655,270.866516113,0.0001,0.0,0.0,0.0,0.000121,0.0,0.0,0.0,0.0016,2
1671462711433468766,416042,1671462711474712436,gps,2,1,42.3008598502,-83.6991617132,270.866394043,0.0001,0.0,0.0,0.0,0.000121,0.0,0.0,0.0,0.0016,2
1671462711443526536,416043,1671462711484651411,gps,2,1,42.3008598695,-83.6991614651,270.866271973,0.0001,0.0,0.0,0.0,0.000121,0.0,0.0,0.0,0.0016,2
1671462711453364218,416044,1671462711494637084,gps,2,1,42.3008598871,-83.6991612103,270.866027832,0.0001,0.0,0.0,0.0,0.000121,0.0,0.0,0.0,0.0016,2
1671462711463200241,416045,1671462711504720838,gps,2,1,42.3008599079,-83.6991609519,270.865905762,0.0001,0.0,0.0,0.0,0.000121,0.0,0.0,0.0,0.0016,2
1671462711473282308,416046,1671462711514666666,gps,2,1,42.3008599281,-83.6991606984,270.865783691,0.0001,0.0,0.0,0.0,0.000121,0.0,0.0,0.0,0.0016,2
1671462711483242620,416047,1671462711524652818,gps,2,1,42.3008599466,-83.6991604378,270.865509033,0.0001,0.0,0.0,0.0,0.000121,0.0,0.0,0.0,0.0016,2
1671462711493766825,416048,1671462711534666607,gps,2,1,42.3008599685,-83.6991601738,270.865356445,0.0001,0.0,0.0,0.0,0.000121,0.0,0.0,0.0,0.0016,2
1671462711503800135,416049,1671462711544784914,gps,2,1,42.3008599893,-83.6991599141,270.865203857,0.0001,0.0,0.0,0.0,0.000121,0.0,0.0,0.0,0.0016,2
1671462711513681144,416050,1671462711554719215,gps,2,1,42.3008600079,-83.6991596481,270.864929199,0.0001,0.0,0.0,0.0,0.000121,0.0,0.0,0.0,0.0016,2
1671462711523555478,416051,1671462711564727365,gps,2,1,42.3008600304,-83.699159378,270.864685059,0.0001,0.0,0.0,0.0,0.000121,0.0,0.0,0.0,0.0016,2
1671462711533798905,416052,1671462711574766300,gps,2,1,42.3008600522,-83.6991591126,270.864532471,0.0001,0.0,0.0,0.0,0.000121,0.0,0.0,0.0,0.0016,2
1671462711543689081,416053,1671462711584746033,gps,2,1,42.3008600716,-83.6991588409,270.864196777,0.0001,0.0,0.0,0.0,0.000121,0.0,0.0,0.0,0.0016,2
1671462711553579000,416054,1671462711594788798,gps,2,1,42.3008600945,-83.699158565,270.863922119,0.0001,0.0,0.0,0.0,0.000121,0.0,0.0,0.0,0.0016,2
1671462711563558108,416055,1671462711604734430,gps,2,1,42.3008601173,-83.6991582938,270.863708496,0.0001,0.0,0.0,0.0,0.000121,0.0,0.0,0.0,0.0016,2
1671462711573495221,416056,1671462711614668155,gps,2,1,42.3008601373,-83.6991580162,270.863342285,0.0001,0.0,0.0,0.0,0.000121,0.0,0.0,0.0,0.0016,2
1671462711583482266,416057,1671462711624722109,gps,2,1,42.3008601608,-83.6991577344,270.863037109,0.0001,0.0,0.0,0.0,0.000121,0.0,0.0,0.0,0.0016,2
1671462711593404525,416058,1671462711634643117,gps,2,1,42.300860184,-83.6991574577,270.862762451,0.0001,0.0,0.0,0.0,0.000121,0.0,0.0,0.0,0.0016,2
1671462711603367328,416059,1671462711644653296,gps,2,1,42.3008602044,-83.6991571743,270.862365723,0.0001,0.0,0.0,0.0,0.000121,0.0,0.0,0.0,0.0016,2
1671462711613310083,416060,1671462711654673447,gps,2,1,42.3008602283,-83.699156887,270.862060547,0.0001,0.0,0.0,0.0,0.000121,0.0,0.0,0.0,0.0016,2
1671462711623489707,416061,1671462711664732888,gps,2,1,42.300860252,-83.6991566044,270.861755371,0.0001,0.0,0.0,0.0,0.000121,0.0,0.0,0.0,0.0016,2
1671462711633240285,416062,1671462711674658036,gps,2,1,42.3008602718,-83.6991563157,270.86138916,0.0001,0.0,0.0,0.0,0.000121,0.0,0.0,0.0,0.0016,2
1671462711643461324,416063,1671462711684673741,gps,2,1,42.3008602958,-83.6991560228,270.861053467,0.0001,0.0,0.0,0.0,0.000121,0.0,0.0,0.0,0.0016,2
1671462711653831005,416064,1671462711694805025,gps,2,1,42.3008603196,-83.6991557346,270.860748291,0.0001,0.0,0.0,0.0,0.000121,0.0,0.0,0.0,0.0016,2
1671462711663718094,416065,1671462711704702852,gps,2,1,42.3008603396,-83.6991554403,270.86038208,0.0001,0.0,0.0,0.0,0.000121,0.0,0.0,0.0,0.0016,2
1671462711673294034,416066,1671462711714750068,gps,2,1,42.3008603636,-83.6991551419,270.860046387,0.0001,0.0,0.0,0.0,0.000121,0.0,0.0,0.0,0.0016,2
1671462711683642313,416067,1671462711724733465,gps,2,1,42.3008603875,-83.6991548479,270.859710693,0.0001,0.0,0.0,0.0,0.000121,0.0,0.0,0.0,0.0016,2
1671462711693488738,416068,1671462711734664234,gps,2,1,42.3008604075,-83.6991545481,270.859375,0.0001,0.0,0.0,0.0,0.000121,0.0,0.0,0.0,0.0016,2
1671462711703508196,416069,1671462711744654351,gps,2,1,42.3008604313,-83.6991542442,270.859069824,0.0001,0.0,0.0,0.0,0.000121,0.0,0.0,0.0,0.0016,2
1671462711713497795,416070,1671462711754704115,gps,2,1,42.3008604552,-83.6991539445,270.858764648,0.0001,0.0,0.0,0.0,0.000121,0.0,0.0,0.0,0.0016,2
1671462711723450020,416071,1671462711764653972,gps,2,1,42.3008604753,-83.6991536393,270.858428955,0.0001,0.0,0.0,0.0,0.000121,0.0,0.0,0.0,0.0016,2
1671462711733395158,416072,1671462711774655323,gps,2,1,42.300860499,-83.6991533298,270.858154297,0.0001,0.0,0.0,0.0,0.000121,0.0,0.0,0.0,0.0016,2
1671462711743356022,416073,1671462711784780103,gps,2,1,42.3008605229,-83.6991530247,270.857879639,0.0001,0.0,0.0,0.0,0.000121,0.0,0.0,0.0,0.0016,2
1671462711753292099,416074,1671462711794672927,gps,2,1,42.3008605429,-83.6991527142,270.857574463,0.0001,0.0,0.0,0.0,0.000121,0.0,0.0,0.0,0.0016,2
1671462711763275669,416075,1671462711804690323,gps,2,1,42.3008605667,-83.6991523993,270.857330322,0.0001,0.0,0.0,0.0,0.000121,0.0,0.0,0.0,0.0016,2
1671462711773194072,416076,1671462711814725659,gps,2,1,42.3008605905,-83.6991520889,270.857055664,0.0001,0.0,0.0,0.0,0.000121,0.0,0.0,0.0,0.0016,2
1671462711783164979,416077,1671462711824661300,gps,2,1,42.3008606106,-83.6991517729,270.856750488,0.0001,0.0,0.0,0.0,0.000121,0.0,0.0,0.0,0.0016,2
1671462711793865234,416078,1671462711834715412,gps,2,1,42.3008606342,-83.6991514526,270.856506348,0.0001,0.0,0.0,0.0,0.000121,0.0,0.0,0.0,0.0016,2
1671462711803679936,416079,1671462711844663804,gps,2,1,42.3008606579,-83.6991511373,270.856231689,0.0001,0.0,0.0,0.0,0.000121,0.0,0.0,0.0,0.0016,2
1671462711813654674,416080,1671462711854664794,gps,2,1,42.3008606781,-83.6991508159,270.855957031,0.0001,0.0,0.0,0.0,0.000121,0.0,0.0,0.0,0.0016,2
1671462711823478148,416081,1671462711864656453,gps,2,1,42.3008607017,-83.6991504904,270.855682373,0.0001,0.0,0.0,0.0,0.000121,0.0,0.0,0.0,0.0016,2
1671462711833591682,416082,1671462711874755831,gps,2,1,42.3008607255,-83.6991501696,270.855407715,0.0001,0.0,0.0,0.0,0.000121,0.0,0.0,0.0,0.0016,2
1671462711843507644,416083,1671462711884656017,gps,2,1,42.3008607458,-83.699149843,270.855102539,0.0001,0.0,0.0,0.0,0.000121,0.0,0.0,0.0,0.0016,2
1671462711853554578,416084,1671462711894651847,gps,2,1,42.3008607696,-83.6991495125,270.854827881,0.0001,0.0,0.0,0.0,0.000121,0.0,0.0,0.0,0.0016,2
1671462711863464842,416085,1671462711904704638,gps,2,1,42.3008607934,-83.6991491864,270.854553223,0.0001,0.0,0.0,0.0,0.000121,0.0,0.0,0.0,0.0016,2
1671462711873480090,416086,1671462711914681112,gps,2,1,42.300860814,-83.6991488547,270.854248047,0.0001,0.0,0.0,0.0,0.000121,0.0,0.0,0.0,0.0016,2
1671462711883379888,416087,1671462711924677597,gps,2,1,42.3008608383,-83.6991485192,270.853942871,0.0001,0.0,0.0,0.0,0.000121,0.0,0.0,0.0,0.0016,2
1671462711893488399,416088,1671462711934748322,gps,2,1,42.3008608623,-83.6991481878,270.853668213,0.0001,0.0,0.0,0.0,0.000121,0.0,0.0,0.0,0.0016,2
1671462711903282505,416089,1671462711944755579,gps,2,1,42.3008608835,-83.6991478504,270.853271484,0.0001,0.0,0.0,0.0,0.000121,0.0,0.0,0.0,0.0016,2
1671462711913217068,416090,1671462711954725725,gps,2,1,42.3008609084,-83.6991475098,270.852966309,0.0001,0.0,0.0,0.0,0.000121,0.0,0.0,0.0,0.0016,2
1671462711923299259,416091,1671462711964661907,gps,2,1,42.3008609325,-83.6991471735,270.852661133,0.0001,0.0,0.0,0.0,0.000121,0.0,0.0,0.0,0.0016,2
1671462711933493238,416092,1671462711974662718,gps,2,1,42.3008609544,-83.6991468313,270.852264404,0.0001,0.0,0.0,0.0,0.000121,0.0,0.0,0.0,0.0016,2
1671462711943836419,416093,1671462711984668925,gps,2,1,42.3008609798,-83.699146486,270.851928711,0.0001,0.0,0.0,0.0,0.000121,0.0,0.0,0.0,0.0016,2
1671462711953607318,416094,1671462711994728187,gps,2,1,42.3008610045,-83.6991461446,270.851593018,0.0001,0.0,0.0,0.0,0.000121,0.0,0.0,0.0,0.0016,2
1671462711963704070,416095,1671462712004668076,gps,2,1,42.3008610272,-83.6991457976,270.851226807,0.0001,0.0,0.0,0.0,0.000121,0.0,0.0,0.0,0.0016,2
1671462711973351567,416096,1671462712014673932,gps,2,1,42.3008610532,-83.6991454476,270.850921631,0.0001,0.0,0.0,0.0,0.000121,0.0,0.0,0.0,0.0016,2
1671462711983546518,416097,1671462712024718845,gps,2,1,42.3008610786,-83.6991451015,270.850585938,0.0001,0.0,0.0,0.0,0.000121,0.0,0.0,0.0,0.0016,2
1671462711993712912,416098,1671462712034729838,gps,2,1,42.3008611022,-83.6991447501,270.850250244,0.0001,0.0,0.0,0.0,0.000121,0.0,0.0,0.0,0.0016,2
1671462712003374531,416099,1671462712044728381,gps,2,1,42.300861129,-83.6991443955,270.850036621,0.0001,0.0,0.0,0.0,0.000121,0.0,0.0,0.0,0.0016,2
1671462712013456075,416100,1671462712054818287,gps,2,1,42.3008611554,-83.6991440448,270.849731445,0.0001,0.0,0.0,0.0,0.000121,0.0,0.0,0.0,0.0016,2
1671462712023461488,416101,1671462712064699599,gps,2,1,42.3008611797,-83.6991436888,270.849487305,0.0001,0.0,0.0,0.0,0.000121,0.0,0.0,0.0,0.0016,2
1671462712033337832,416102,1671462712074726544,gps,2,1,42.3008612076,-83.6991433298,270.849365234,0.0001,0.0,0.0,0.0,0.000121,0.0,0.0,0.0,0.0016,2
1671462712043285361,416103,1671462712084795972,gps,2,1,42.3008612347,-83.6991429746,270.849121094,0.0001,0.0,0.0,0.0,0.000121,0.0,0.0,0.0,0.0016,2
1671462712053235173,416104,1671462712094665031,gps,2,1,42.300861255,-83.6991426127,270.848693848,0.0001,0.0,0.0,0.0,0.000121,0.0,0.0,0.0,0.0016,2
1671462712063403589,416105,1671462712104717432,gps,2,1,42.3008612833,-83.6991422496,270.84866333,0.0001,0.0,0.0,0.0,0.000121,0.0,0.0,0.0,0.0016,2
1671462712073870016,416106,1671462712114801287,gps,2,1,42.3008613108,-83.6991418901,270.84854126,0.0001,0.0,0.0,0.0,0.000121,0.0,0.0,0.0,0.0016,2
1671462712083716945,416107,1671462712124703123,gps,2,1,42.3008613317,-83.6991415239,270.848205566,0.0001,0.0,0.0,0.0,0.000121,0.0,0.0,0.0,0.0016,2
1671462712093712817,416108,1671462712134710739,gps,2,1,42.30086136,-83.6991411566,270.848205566,0.0001,0.0,0.0,0.0,0.000121,0.0,0.0,0.0,0.0016,2
1671462712103620040,416109,1671462712144793072,gps,2,1,42.3008613881,-83.699140793,270.848175049,0.0001,0.0,0.0,0.0,0.000121,0.0,0.0,0.0,0.0016,2
1671462712113470264,416110,1671462712154673211,gps,2,1,42.3008614092,-83.6991404227,270.847839355,0.0001,0.0,0.0,0.0,0.000121,0.0,0.0,0.0,0.0016,2
1671462712123396486,416111,1671462712164728313,gps,2,1,42.3008614371,-83.6991400514,270.847808838,0.0001,0.0,0.0,0.0,0.000121,0.0,0.0,0.0,0.0016,2
1671462712133530483,416112,1671462712174764074,gps,2,1,42.3008614654,-83.6991396835,270.847747803,0.0001,0.0,0.0,0.0,0.000121,0.0,0.0,0.0,0.0016,2
1671462712143513222,416113,1671462712184683565,gps,2,1,42.3008614862,-83.6991393091,270.847412109,0.0001,0.0,0.0,0.0,0.000121,0.0,0.0,0.0,0.0016,2
1671462712153429372,416114,1671462712194802870,gps,2,1,42.3008615136,-83.6991389336,270.847259521,0.0001,0.0,0.0,0.0,0.000121,0.0,0.0,0.0,0.0016,2
1671462712163374936,416115,1671462712204793361,gps,2,1,42.3008615417,-83.6991385613,270.847198486,0.0001,0.0,0.0,0.0,0.000121,0.0,0.0,0.0,0.0016,2
1671462712173353657,416116,1671462712214668578,gps,2,1,42.3008615628,-83.6991381828,270.846740723,0.0001,0.0,0.0,0.0,0.000121,0.0,0.0,0.0,0.0016,2
1671462712183384302,416117,1671462712224769349,gps,2,1,42.3008615894,-83.6991378029,270.846466064,0.0001,0.0,0.0,0.0,0.000121,0.0,0.0,0.0,0.0016,2
1671462712193540008,416118,1671462712234824940,gps,2,1,42.3008616165,-83.6991374261,270.846282959,0.0001,0.0,0.0,0.0,0.000121,0.0,0.0,0.0,0.0016,2
1671462712203196529,416119,1671462712244692000,gps,2,1,42.3008616373,-83.6991370432,270.845703125,0.0001,0.0,0.0,0.0,0.000121,0.0,0.0,0.0,0.0016,2
1671462712213629974,416120,1671462712254700316,gps,2,1,42.3008616637,-83.6991366596,270.845397949,0.0001,0.0,0.0,0.0,0.000121,0.0,0.0,0.0,0.0016,2
1671462712223739891,416121,1671462712264724812,gps,2,1,42.30086169,-83.6991362786,270.845062256,0.0001,0.0,0.0,0.0,0.000121,0.0,0.0,0.0,0.0016,2
1671462712233685708,416122,1671462712274668105,gps,2,1,42.3008617109,-83.6991358926,270.844512939,0.0001,0.0,0.0,0.0,0.000121,0.0,0.0,0.0,0.0016,2
1671462712243613287,416123,1671462712284728657,gps,2,1,42.3008617381,-83.6991355063,270.844268799,0.0001,0.0,0.0,0.0,0.000121,0.0,0.0,0.0,0.0016,2
1671462712253183440,416124,1671462712294668612,gps,2,1,42.3008617648,-83.6991351218,270.844024658,0.0001,0.0,0.0,0.0,0.000144,0.0,0.0,0.0,0.0016,2
1671462712263526957,416125,1671462712304679503,gps,2,1,42.3008617868,-83.6991347325,270.843597412,0.0001,0.0,0.0,0.0,0.000144,0.0,0.0,0.0,0.0016,2
1671462712273506416,416126,1671462712314665646,gps,2,1,42.3008618152,-83.6991343417,270.843536377,0.0001,0.0,0.0,0.0,0.000144,0.0,0.0,0.0,0.0016,2
1671462712283488529,416127,1671462712324719007,gps,2,1,42.3008618422,-83.6991339552,270.843292236,0.0001,0.0,0.0,0.0,0.000144,0.0,0.0,0.0,0.0016,2
1671462712293444956,416128,1671462712334650018,gps,2,1,42.3008618656,-83.6991335619,270.842956543,0.0001,0.0,0.0,0.0,0.000144,0.0,0.0,0.0,0.0016,2
1671462712303386922,416129,1671462712344664384,gps,2,1,42.300861895,-83.6991331676,270.842987061,0.0001,0.0,0.0,0.0,0.000144,0.0,0.0,0.0,0.0016,2
1671462712313393957,416130,1671462712354732208,gps,2,1,42.3008619232,-83.699132777,270.84286499,0.0001,0.0,0.0,0.0,0.000144,0.0,0.0,0.0,0.0016,2
1671462712323503396,416131,1671462712364676877,gps,2,1,42.3008619474,-83.6991323807,270.842651367,0.0001,0.0,0.0,0.0,0.000144,0.0,0.0,0.0,0.0016,2
1671462712333314699,416132,1671462712374784783,gps,2,1,42.3008619768,-83.6991319833,270.842803955,0.0001,0.0,0.0,0.0,0.000144,0.0,0.0,0.0,0.0016,2
1671462712343592184,416133,1671462712384765968,gps,2,1,42.3008620062,-83.6991315887,270.842834473,0.0001,0.0,0.0,0.0,0.000144,0.0,0.0,0.0,0.0016,2
1671462712353384254,416134,1671462712394667892,gps,2,1,42.30086203,-83.6991311886,270.842803955,0.0001,0.0,0.0,0.0,0.000144,0.0,0.0,0.0,0.0016,2
1671462712363674036,416135,1671462712404739191,gps,2,1,42.3008620581,-83.699130787,270.843109131,0.0001,0.0,0.0,0.0,0.000144,0.0,0.0,0.0,0.0016,2
1671462712373628892,416136,1671462712414677552,gps,2,1,42.3008620871,-83.6991303891,270.843261719,0.0001,0.0,0.0,0.0,0.000144,0.0,0.0,0.0,0.0016,2
1671462712383506327,416137,1671462712424673733,gps,2,1,42.3008621101,-83.6991299853,270.843414307,0.0001,0.0,0.0,0.0,0.000144,0.0,0.0,0.0,0.0016,2
1671462712393670609,416138,1671462712434726862,gps,2,1,42.3008621369,-83.6991295804,270.843811035,0.0001,0.0,0.0,0.0,0.000144,0.0,0.0,0.0,0.0016,2
1671462712403591118,416139,1671462712444799428,gps,2,1,42.3008621649,-83.6991291782,270.844177246,0.0001,0.0,0.0,0.0,0.000144,0.0,0.0,0.0,0.0016,2
1671462712413471347,416140,1671462712454652425,gps,2,1,42.3008621865,-83.6991287708,270.844451904,0.0001,0.0,0.0,0.0,0.000144,0.0,0.0,0.0,0.0016,2
1671462712423466333,416141,1671462712464660531,gps,2,1,42.3008622117,-83.6991283621,270.845001221,0.0001,0.0,0.0,0.0,0.000144,0.0,0.0,0.0,0.0016,2
1671462712433343815,416142,1671462712474719423,gps,2,1,42.3008622385,-83.6991279567,270.845428467,0.0001,0.0,0.0,0.0,0.000144,0.0,0.0,0.0,0.0016,2
1671462712443505521,416143,1671462712484652921,gps,2,1,42.3008622592,-83.6991275458,270.845794678,0.0001,0.0,0.0,0.0,0.000144,0.0,0.0,0.0,0.0016,2
1671462712453286184,416144,1671462712494723281,gps,2,1,42.3008622839,-83.6991271336,270.846374512,0.0001,0.0,0.0,0.0,0.000144,0.0,0.0,0.0,0.0016,2
1671462712463328494,416145,1671462712504668228,gps,2,1,42.300862309,-83.699126724,270.846923828,0.0001,0.0,0.0,0.0,0.000144,0.0,0.0,0.0,0.0016,2
1671462712473260696,416146,1671462712514658114,gps,2,1,42.3008623296,-83.6991263094,270.847290039,0.0001,0.0,0.0,0.0,0.000144,0.0,0.0,0.0,0.0016,2
1671462712483777407,416147,1671462712524739936,gps,2,1,42.3008623542,-83.6991258934,270.847808838,0.0001,0.0,0.0,0.0,0.000144,0.0,0.0,0.0,0.0016,2
1671462712493191634,416148,1671462712534675362,gps,2,1,42.3008623793,-83.6991254809,270.848419189,0.0001,0.0,0.0,0.0,0.000144,0.0,0.0,0.0,0.0016,2
1671462712503751916,416149,1671462712544732808,gps,2,1,42.3008624,-83.699125063,270.848754883,0.0001,0.0,0.0,0.0,0.000144,0.0,0.0,0.0,0.0016,2
1671462712513724043,416150,1671462712554766636,gps,2,1,42.3008624252,-83.6991246434,270.849212646,0.0001,0.0,0.0,0.0,0.000144,0.0,0.0,0.0,0.0016,2
1671462712523288952,416151,1671462712564744339,gps,2,1,42.3008624504,-83.6991242272,270.849731445,0.0001,0.0,0.0,0.0,0.000144,0.0,0.0,0.0,0.0016,2
1671462712533662138,416152,1671462712574741018,gps,2,1,42.3008624725,-83.6991238048,270.84979248,0.0001,0.0,0.0,0.0,0.000144,0.0,0.0,0.0,0.0016,2
1671462712543620954,416153,1671462712584764940,gps,2,1,42.3008624984,-83.6991233819,270.850097656,0.0001,0.0,0.0,0.0,0.000144,0.0,0.0,0.0,0.0016,2
1671462712553555972,416154,1671462712594773956,gps,2,1,42.3008625235,-83.6991229623,270.850524902,0.0001,0.0,0.0,0.0,0.000144,0.0,0.0,0.0,0.0016,2
1671462712563496370,416155,1671462712604733846,gps,2,1,42.300862546,-83.6991225364,270.850463867,0.0001,0.0,0.0,0.0,0.000144,0.0,0.0,0.0,0.0016,2
1671462712573482380,416156,1671462712614673726,gps,2,1,42.300862572,-83.69912211,270.850708008,0.0001,0.0,0.0,0.0,0.000144,0.0,0.0,0.0,0.0016,2
1671462712583429553,416157,1671462712624799516,gps,2,1,42.300862597,-83.699121687,270.851013184,0.0001,0.0,0.0,0.0,0.000144,0.0,0.0,0.0,0.0016,2
1671462712593347806,416158,1671462712634663547,gps,2,1,42.3008626199,-83.6991212578,270.850891113,0.0001,0.0,0.0,0.0,0.000144,0.0,0.0,0.0,0.0016,2
1671462712603311681,416159,1671462712644669573,gps,2,1,42.3008626455,-83.6991208281,270.851043701,0.0001,0.0,0.0,0.0,0.000144,0.0,0.0,0.0,0.0016,2
1671462712613592807,416160,1671462712654727973,gps,2,1,42.3008626713,-83.6991204012,270.851257324,0.0001,0.0,0.0,0.0,0.000144,0.0,0.0,0.0,0.0016,2
1671462712623431906,416161,1671462712664720903,gps,2,1,42.3008626943,-83.6991199684,270.851104736,0.0001,0.0,0.0,0.0,0.000144,0.0,0.0,0.0,0.0016,2
1671462712633810575,416162,1671462712674789908,gps,2,1,42.3008627203,-83.6991195353,270.851196289,0.0001,0.0,0.0,0.0,0.000144,0.0,0.0,0.0,0.0016,2
1671462712643846468,416163,1671462712684716791,gps,2,1,42.3008627465,-83.6991191049,270.851318359,0.0001,0.0,0.0,0.0,0.000144,0.0,0.0,0.0,0.0016,2
1671462712653724033,416164,1671462712694765858,gps,2,1,42.3008627704,-83.6991186688,270.851043701,0.0001,0.0,0.0,0.0,0.000144,0.0,0.0,0.0,0.0016,2
1671462712663700560,416165,1671462712704739105,gps,2,1,42.3008627975,-83.6991182321,270.851074219,0.0001,0.0,0.0,0.0,0.000144,0.0,0.0,0.0,0.0016,2
1671462712673538442,416166,1671462712714670776,gps,2,1,42.3008628239,-83.6991177982,270.851196289,0.0001,0.0,0.0,0.0,0.000144,0.0,0.0,0.0,0.0016,2
1671462712683174719,416167,1671462712724681401,gps,2,1,42.3008628487,-83.6991173589,270.850891113,0.0001,0.0,0.0,0.0,0.000144,0.0,0.0,0.0,0.0016,2
1671462712693485769,416168,1671462712734682842,gps,2,1,42.3008628768,-83.6991169186,270.850891113,0.0001,0.0,0.0,0.0,0.000144,0.0,0.0,0.0,0.0016,2
1671462712703513497,416169,1671462712744767440,gps,2,1,42.3008629034,-83.6991164813,270.850921631,0.0001,0.0,0.0,0.0,0.000144,0.0,0.0,0.0,0.0016,2
1671462712713453868,416170,1671462712754689898,gps,2,1,42.3008629293,-83.6991160387,270.850616455,0.0001,0.0,0.0,0.0,0.000144,0.0,0.0,0.0,0.0016,2
1671462712723417901,416171,1671462712764678856,gps,2,1,42.3008629579,-83.6991155952,270.85055542,0.0001,0.0,0.0,0.0,0.000144,0.0,0.0,0.0,0.0016,2
1671462712733379988,416172,1671462712774750500,gps,2,1,42.3008629856,-83.6991151547,270.85055542,0.0001,0.0,0.0,0.0,0.000144,0.0,0.0,0.0,0.0016,2
1671462712743323161,416173,1671462712784671102,gps,2,1,42.3008630122,-83.699114709,270.850219727,0.0001,0.0,0.0,0.0,0.000144,0.0,0.0,0.0,0.0016,2
1671462712753282459,416174,1671462712794751400,gps,2,1,42.300863041,-83.6991142626,270.850189209,0.0001,0.0,0.0,0.0,0.000144,0.0,0.0,0.0,0.0016,2
1671462712763208908,416175,1671462712804712807,gps,2,1,42.3008630698,-83.6991138187,270.850158691,0.0001,0.0,0.0,0.0,0.000144,0.0,0.0,0.0,0.0016,2
1671462712773172176,416176,1671462712814673398,gps,2,1,42.3008630966,-83.6991133696,270.850006104,0.0001,0.0,0.0,0.0,0.000144,0.0,0.0,0.0,0.0016,2
1671462712783830003,416177,1671462712824681280,gps,2,1,42.3008631258,-83.6991129197,270.849975586,0.0001,0.0,0.0,0.0,0.000144,0.0,0.0,0.0,0.0016,2
1671462712793746111,416178,1671462712834744144,gps,2,1,42.3008631548,-83.6991124728,270.849945068,0.0001,0.0,0.0,0.0,0.000144,0.0,0.0,0.0,0.0016,2
1671462712803693450,416179,1671462712844675243,gps,2,1,42.3008631817,-83.6991120205,270.849822998,0.0001,0.0,0.0,0.0,0.000144,0.0,0.0,0.0,0.0016,2
1671462712813650348,416180,1671462712854686626,gps,2,1,42.3008632108,-83.6991115674,270.849822998,0.0001,0.0,0.0,0.0,0.000144,0.0,0.0,0.0,0.0016,2
1671462712823676042,416181,1671462712864748890,gps,2,1,42.3008632399,-83.699111117,270.849822998,0.0001,0.0,0.0,0.0,0.000144,0.0,0.0,0.0,0.0016,2
1671462712833564355,416182,1671462712874827953,gps,2,1,42.3008632668,-83.6991106614,270.849731445,0.0001,0.0,0.0,0.0,0.000144,0.0,0.0,0.0,0.0016,2
1671462712843531679,416183,1671462712884687070,gps,2,1,42.3008632957,-83.6991102048,270.84979248,0.0001,0.0,0.0,0.0,0.000144,0.0,0.0,0.0,0.0016,2
1671462712853462802,416184,1671462712894736340,gps,2,1,42.3008633248,-83.6991097512,270.849822998,0.0001,0.0,0.0,0.0,0.000144,0.0,0.0,0.0,0.0016,2
1671462712863625931,416185,1671462712904652739,gps,2,1,42.3008633518,-83.6991092921,270.84979248,0.0001,0.0,0.0,0.0,0.000144,0.0,0.0,0.0,0.0016,2
1671462712873405150,416186,1671462712914746656,gps,2,1,42.3008633807,-83.6991088321,270.849884033,0.0001,0.0,0.0,0.0,0.000144,0.0,0.0,0.0,0.0016,2
1671462712883334702,416187,1671462712924682358,gps,2,1,42.3008634098,-83.699108375,270.849945068,0.0001,0.0,0.0,0.0,0.000144,0.0,0.0,0.0,0.0016,2
1671462712893409083,416188,1671462712934677128,gps,2,1,42.3008634383,-83.6991079123,270.849914551,0.0001,0.0,0.0,0.0,0.000144,0.0,0.0,0.0,0.0016,2
1671462712903288876,416189,1671462712944774998,gps,2,1,42.3008634671,-83.6991074488,270.850036621,0.0001,0.0,0.0,0.0,0.000144,0.0,0.0,0.0,0.0016,2
1671462712913319886,416190,1671462712954743546,gps,2,1,42.3008634957,-83.6991069883,270.850158691,0.0001,0.0,0.0,0.0,0.000144,0.0,0.0,0.0,0.0016,2
1671462712923184277,416191,1671462712964669836,gps,2,1,42.3008635238,-83.6991065221,270.850158691,0.0001,0.0,0.0,0.0,0.000144,0.0,0.0,0.0,0.0016,2
1671462712933720241,416192,1671462712974677144,gps,2,1,42.3008635519,-83.699106055,270.850341797,0.0001,0.0,0.0,0.0,0.000144,0.0,0.0,0.0,0.0016,2
1671462712943887938,416193,1671462712984735726,gps,2,1,42.30086358,-83.6991055911,270.850463867,0.0001,0.0,0.0,0.0,0.000144,0.0,0.0,0.0,0.0016,2
1671462712953729224,416194,1671462712994690073,gps,2,1,42.3008636074,-83.6991051212,270.85055542,0.0001,0.0,0.0,0.0,0.000144,0.0,0.0,0.0,0.0016,2
1671462712963497316,416195,1671462713004695407,gps,2,1,42.3008636342,-83.6991046506,270.850799561,0.0001,0.0,0.0,0.0,0.000144,0.0,0.0,0.0,0.0016,2
1671462712973569408,416196,1671462713014758567,gps,2,1,42.300863662,-83.6991041826,270.851013184,0.0001,0.0,0.0,0.0,0.000144,0.0,0.0,0.0,0.0016,2
1671462712983598325,416197,1671462713024684668,gps,2,1,42.3008636885,-83.6991037091,270.851135254,0.0001,0.0,0.0,0.0,0.000144,0.0,0.0,0.0,0.0016,2
1671462712993470376,416198,1671462713034752355,gps,2,1,42.3008637144,-83.6991032344,270.85144043,0.0001,0.0,0.0,0.0,0.000144,0.0,0.0,0.0,0.0016,2
1671462713003453680,416199,1671462713044804758,gps,2,1,42.3008637415,-83.699102763,270.851715088,0.0001,0.0,0.0,0.0,0.000144,0.0,0.0,0.0,0.0016,2
1671462713013378846,416200,1671462713054748067,gps,2,1,42.3008637749,-83.6991022878,270.85168457,0.0001,0.0,0.0,0.0,0.000144,0.0,0.0,0.0,0.0016,2
1671462713023356784,416201,1671462713064800036,gps,2,1,42.3008638011,-83.6991018095,270.851989746,0.0001,0.0,0.0,0.0,0.000144,0.0,0.0,0.0,0.0016,2
1671462713033798755,416202,1671462713074753986,gps,2,1,42.3008638275,-83.6991013342,270.852264404,0.0001,0.0,0.0,0.0,0.000144,0.0,0.0,0.0,0.0016,2
1671462713043242698,416203,1671462713084735041,gps,2,1,42.3008638606,-83.6991008552,270.852203369,0.0001,0.0,0.0,0.0,0.000144,0.0,0.0,0.0,0.0016,2
1671462713053446893,416204,1671462713094731872,gps,2,1,42.300863887,-83.6991003732,270.852478027,0.0001,0.0,0.0,0.0,0.000144,0.0,0.0,0.0,0.0016,2
1671462713063525706,416205,1671462713104767394,gps,2,1,42.3008639128,-83.6990998942,270.852752686,0.0001,0.0,0.0,0.0,0.000144,0.0,0.0,0.0,0.0016,2
1671462713073821813,416206,1671462713114757346,gps,2,1,42.300863946,-83.6990994115,270.852661133,0.0001,0.0,0.0,0.0,0.000144,0.0,0.0,0.0,0.0016,2
1671462713083659287,416207,1671462713124844508,gps,2,1,42.3008639725,-83.6990989258,270.852844238,0.0001,0.0,0.0,0.0,0.000144,0.0,0.0,0.0,0.0016,2
1671462713093660994,416208,1671462713134670754,gps,2,1,42.3008639985,-83.6990984433,270.853088379,0.0001,0.0,0.0,0.0,0.000144,0.0,0.0,0.0,0.0016,2
1671462713103614751,416209,1671462713144674039,gps,2,1,42.3008640318,-83.6990979569,270.852935791,0.0001,0.0,0.0,0.0,0.000144,0.0,0.0,0.0,0.0016,2
1671462713113570246,416210,1671462713154695355,gps,2,1,42.3008640584,-83.6990974676,270.853027344,0.0001,0.0,0.0,0.0,0.000144,0.0,0.0,0.0,0.0016,2
1671462713123554447,416211,1671462713164748531,gps,2,1,42.300864085,-83.6990969811,270.853210449,0.0001,0.0,0.0,0.0,0.000144,0.0,0.0,0.0,0.0016,2
1671462713133478534,416212,1671462713174680620,gps,2,1,42.3008641185,-83.6990964914,270.852996826,0.0001,0.0,0.0,0.0,0.000144,0.0,0.0,0.0,0.0016,2
1671462713143589149,416213,1671462713184659995,gps,2,1,42.3008641453,-83.6990959984,270.853027344,0.0001,0.0,0.0,0.0,0.000144,0.0,0.0,0.0,0.0016,2
1671462713153397157,416214,1671462713194813799,gps,2,1,42.3008641722,-83.6990955082,270.853118896,0.0001,0.0,0.0,0.0,0.000144,0.0,0.0,0.0,0.0016,2
1671462713163350196,416215,1671462713204669796,gps,2,1,42.3008642055,-83.6990950147,270.852874756,0.0001,0.0,0.0,0.0,0.000144,0.0,0.0,0.0,0.0016,2
1671462713173262824,416216,1671462713214732331,gps,2,1,42.3008642324,-83.6990945178,270.852874756,0.0001,0.0,0.0,0.0,0.000144,0.0,0.0,0.0,0.0016,2
1671462713183284494,416217,1671462713224669440,gps,2,1,42.3008642594,-83.699094024,270.852874756,0.0001,0.0,0.0,0.0,0.000144,0.0,0.0,0.0,0.0016,2
1671462713193374132,416218,1671462713234675943,gps,2,1,42.3008642925,-83.6990935266,270.85256958,0.0001,0.0,0.0,0.0,0.000144,0.0,0.0,0.0,0.0016,2
1671462713203763237,416219,1671462713244748964,gps,2,1,42.3008643193,-83.6990930257,270.852478027,0.0001,0.0,0.0,0.0,0.000144,0.0,0.0,0.0,0.0016,2
1671462713213716199,416220,1671462713254676356,gps,2,1,42.3008643462,-83.6990925283,270.852416992,0.0001,0.0,0.0,0.0,0.000144,0.0,0.0,0.0,0.0016,2
1671462713223697482,416221,1671462713264668107,gps,2,1,42.300864379,-83.6990920271,270.852050781,0.0001,0.0,0.0,0.0,0.000144,0.0,0.0,0.0,0.0016,2
1671462713233713742,416222,1671462713274687992,gps,2,1,42.300864406,-83.6990915226,270.851837158,0.0001,0.0,0.0,0.0,0.000144,0.0,0.0,0.0,0.0016,2
1671462713243594369,416223,1671462713284739276,gps,2,1,42.3008644329,-83.6990910211,270.851715088,0.0001,0.0,0.0,0.0,0.000144,0.0,0.0,0.0,0.0016,2
1671462713253520499,416224,1671462713294679779,gps,2,1,42.300864466,-83.699090516,270.851226807,6.4e-05,0.0,0.0,0.0,0.0001,0.0,0.0,0.0,0.001521,2
1671462713263608993,416225,1671462713304703798,gps,2,1,42.3008644939,-83.6990900079,270.850891113,6.4e-05,0.0,0.0,0.0,0.0001,0.0,0.0,0.0,0.001521,2
1671462713273496916,416226,1671462713314724821,gps,2,1,42.3008645207,-83.6990895029,270.850708008,6.4e-05,0.0,0.0,0.0,0.0001,0.0,0.0,0.0,0.001521,2
1671462713283452589,416227,1671462713324683671,gps,2,1,42.3008645542,-83.6990889942,270.850128174,6.4e-05,0.0,0.0,0.0,0.0001,0.0,0.0,0.0,0.001521,2
1671462713293408054,416228,1671462713334736181,gps,2,1,42.3008645823,-83.6990884824,270.849731445,6.4e-05,0.0,0.0,0.0,0.0001,0.0,0.0,0.0,0.001521,2
1671462713303353062,416229,1671462713344679115,gps,2,1,42.3008646098,-83.6990879737,270.849334717,6.4e-05,0.0,0.0,0.0,0.0001,0.0,0.0,0.0,0.001521,2
1671462713313295304,416230,1671462713354669603,gps,2,1,42.3008646433,-83.6990874611,270.84866333,6.4e-05,0.0,0.0,0.0,0.0001,0.0,0.0,0.0,0.001521,2
1671462713323269491,416231,1671462713364683084,gps,2,1,42.3008646704,-83.6990869452,270.848052979,6.4e-05,0.0,0.0,0.0,0.0001,0.0,0.0,0.0,0.001521,2
