%time,field.header.seq,field.header.stamp,field.header.frame_id,field.status.status,field.status.service,field.latitude,field.longitude,field.altitude,field.position_covariance0,field.position_covariance1,field.position_covariance2,field.position_covariance3,field.position_covariance4,field.position_covariance5,field.position_covariance6,field.position_covariance7,field.position_covariance8,field.position_covariance_type
1672947278312880920,79779,1672947278312637710,gps,2,1,42.2998693259,-83.6984974721,269.682922363,0.000169,0.0,0.0,0.0,0.000169,0.0,0.0,0.0,0.003025,2
1672947278322829822,79780,1672947278322577613,gps,2,1,42.2998693622,-83.6984974806,269.683197021,0.000169,0.0,0.0,0.0,0.000169,0.0,0.0,0.0,0.003025,2
1672947278332857879,79781,1672947278332632550,gps,2,1,42.2998693935,-83.6984974877,269.683288574,0.000169,0.0,0.0,0.0,0.000169,0.0,0.0,0.0,0.003025,2
1672947278342792308,79782,1672947278342575973,gps,2,1,42.2998694255,-83.6984974949,269.683410645,0.000169,0.0,0.0,0.0,0.000169,0.0,0.0,0.0,0.003025,2
1672947278352805421,79783,1672947278352571846,gps,2,1,42.2998694609,-83.6984975033,269.683685303,0.000169,0.0,0.0,0.0,0.000169,0.0,0.0,0.0,0.003025,2
1672947278362788959,79784,1672947278362577963,gps,2,1,42.2998694914,-83.6984975102,269.683776855,0.000169,0.0,0.0,0.0,0.000169,0.0,0.0,0.0,0.003025,2
1672947278372895456,79785,1672947278372666052,gps,2,1,42.2998695226,-83.6984975173,269.683868408,0.000169,0.0,0.0,0.0,0.000169,0.0,0.0,0.0,0.003025,2
1672947278382941069,79786,1672947278382590015,gps,2,1,42.299869557,-83.6984975254,269.684112549,0.000169,0.0,0.0,0.0,0.000169,0.0,0.0,0.0,0.003025,2
1672947278392856878,79787,1672947278392628233,gps,2,1,42.2998695868,-83.6984975323,269.684234619,0.000169,0.0,0.0,0.0,0.000169,0.0,0.0,0.0,0.003025,2
1672947278402834513,79788,1672947278402599827,gps,2,1,42.2998696173,-83.6984975392,269.684326172,0.000169,0.0,0.0,0.0,0.000169,0.0,0.0,0.0,0.003025,2
1672947278412809937,79789,1672947278412585959,gps,2,1,42.2998696509,-83.6984975472,269.684570312,0.000169,0.0,0.0,0.0,0.000169,0.0,0.0,0.0,0.003025,2
1672947278422822998,79790,1672947278422590330,gps,2,1,42.29986968,-83.6984975538,269.684661865,0.000169,0.0,0.0,0.0,0.000169,0.0,0.0,0.0,0.003025,2
1672947278432855931,79791,1672947278432647085,gps,2,1,42.2998697098,-83.6984975606,269.684783936,0.000169,0.0,0.0,0.0,0.000169,0.0,0.0,0.0,0.003025,2
1672947278442763155,79792,1672947278442577667,gps,2,1,42.2998697426,-83.6984975685,269.684997559,0.000169,0.0,0.0,0.0,0.000169,0.0,0.0,0.0,0.003025,2
1672947278452839791,79793,1672947278452627203,gps,2,1,42.2998697714,-83.6984975751,269.685089111,0.000169,0.0,0.0,0.0,0.000169,0.0,0.0,0.0,0.003025,2
1672947278462800433,79794,1672947278462588248,gps,2,1,42.2998698006,-83.6984975817,269.685180664,0.000169,0.0,0.0,0.0,0.000169,0.0,0.0,0.0,0.003025,2
1672947278472779220,79795,1672947278472575591,gps,2,1,42.2998698329,-83.6984975894,269.685394287,0.000169,0.0,0.0,0.0,0.000169,0.0,0.0,0.0,0.003025,2
1672947278482892583,79796,1672947278482679787,gps,2,1,42.2998698612,-83.6984975959,269.685455322,0.000169,0.0,0.0,0.0,0.000169,0.0,0.0,0.0,0.003025,2
1672947278492832987,79797,1672947278492627947,gps,2,1,42.2998698899,-83.6984976024,269.685546875,0.000169,0.0,0.0,0.0,0.000169,0.0,0.0,0.0,0.003025,2
1672947278502877811,79798,1672947278502648265,gps,2,1,42.2998699218,-83.69849761,269.685760498,0.000169,0.0,0.0,0.0,0.000169,0.0,0.0,0.0,0.003025,2
1672947278512846537,79799,1672947278512639625,gps,2,1,42.2998699499,-83.6984976163,269.685852051,0.000169,0.0,0.0,0.0,0.000169,0.0,0.0,0.0,0.003025,2
1672947278522874611,79800,1672947278522665526,gps,2,1,42.2998699782,-83.6984976228,269.685913086,0.000169,0.0,0.0,0.0,0.000169,0.0,0.0,0.0,0.003025,2
1672947278532845363,79801,1672947278532634126,gps,2,1,42.2998700114,-83.6984976308,269.686248779,0.000169,0.0,0.0,0.0,0.000169,0.0,0.0,0.0,0.003025,2
1672947278542872863,79802,1672947278542668451,gps,2,1,42.2998700392,-83.6984976372,269.686340332,0.000169,0.0,0.0,0.0,0.000169,0.0,0.0,0.0,0.003025,2
1672947278552969693,79803,1672947278552776488,gps,2,1,42.2998700672,-83.6984976436,269.686431885,0.000169,0.0,0.0,0.0,0.000169,0.0,0.0,0.0,0.003025,2
1672947278562802707,79804,1672947278562594324,gps,2,1,42.2998701001,-83.6984976516,269.686737061,0.000169,0.0,0.0,0.0,0.000169,0.0,0.0,0.0,0.003025,2
1672947278572846315,79805,1672947278572638615,gps,2,1,42.2998701277,-83.6984976581,269.686859131,0.000169,0.0,0.0,0.0,0.000169,0.0,0.0,0.0,0.003025,2
1672947278582778618,79806,1672947278582583334,gps,2,1,42.2998701555,-83.6984976645,269.686981201,0.000169,0.0,0.0,0.0,0.000169,0.0,0.0,0.0,0.003025,2
1672947278592760924,79807,1672947278592565260,gps,2,1,42.2998701879,-83.6984976725,269.687286377,0.000169,0.0,0.0,0.0,0.000169,0.0,0.0,0.0,0.003025,2
1672947278602778735,79808,1672947278602564801,gps,2,1,42.2998702153,-83.698497679,269.687438965,0.000169,0.0,0.0,0.0,0.000169,0.0,0.0,0.0,0.003025,2
1672947278612854423,79809,1672947278612647049,gps,2,1,42.2998702429,-83.6984976854,269.687561035,0.000169,0.0,0.0,0.0,0.000169,0.0,0.0,0.0,0.003025,2
1672947278622801635,79810,1672947278622561689,gps,2,1,42.299870275,-83.6984976935,269.687866211,0.000169,0.0,0.0,0.0,0.000169,0.0,0.0,0.0,0.003025,2
1672947278632871208,79811,1672947278632660125,gps,2,1,42.2998703022,-83.6984977,269.688018799,0.000169,0.0,0.0,0.0,0.000169,0.0,0.0,0.0,0.003025,2
1672947278642769364,79812,1672947278642575003,gps,2,1,42.2998703296,-83.6984977065,269.688140869,0.000169,0.0,0.0,0.0,0.000169,0.0,0.0,0.0,0.003025,2
1672947278652841998,79813,1672947278652644341,gps,2,1,42.2998703613,-83.6984977145,269.688446045,0.000169,0.0,0.0,0.0,0.000169,0.0,0.0,0.0,0.003025,2
1672947278662842636,79814,1672947278662601961,gps,2,1,42.2998703884,-83.698497721,269.688568115,0.000169,0.0,0.0,0.0,0.000169,0.0,0.0,0.0,0.003025,2
1672947278672855160,79815,1672947278672638941,gps,2,1,42.2998704156,-83.6984977275,269.688690186,0.000169,0.0,0.0,0.0,0.000169,0.0,0.0,0.0,0.003025,2
1672947278682773765,79816,1672947278682571218,gps,2,1,42.2998704469,-83.6984977354,269.688995361,0.000169,0.0,0.0,0.0,0.000169,0.0,0.0,0.0,0.003025,2
1672947278692823847,79817,1672947278692644134,gps,2,1,42.2998704738,-83.6984977418,269.689117432,0.000169,0.0,0.0,0.0,0.000169,0.0,0.0,0.0,0.003025,2
1672947278702809261,79818,1672947278702598901,gps,2,1,42.2998705009,-83.6984977483,269.689208984,0.000169,0.0,0.0,0.0,0.000169,0.0,0.0,0.0,0.003025,2
1672947278712806482,79819,1672947278712601336,gps,2,1,42.299870532,-83.698497756,269.68951416,0.000169,0.0,0.0,0.0,0.000169,0.0,0.0,0.0,0.003025,2
1672947278722834549,79820,1672947278722601195,gps,2,1,42.2998705589,-83.6984977622,269.689605713,0.000169,0.0,0.0,0.0,0.000169,0.0,0.0,0.0,0.003025,2
1672947278732981693,79821,1672947278732727744,gps,2,1,42.2998705858,-83.6984977686,269.689697266,0.000169,0.0,0.0,0.0,0.000169,0.0,0.0,0.0,0.003025,2
1672947278742809532,79822,1672947278742592351,gps,2,1,42.2998706167,-83.6984977761,269.689971924,0.000169,0.0,0.0,0.0,0.000169,0.0,0.0,0.0,0.003025,2
1672947278752894101,79823,1672947278752667007,gps,2,1,42.2998706435,-83.6984977823,269.690063477,0.000169,0.0,0.0,0.0,0.000169,0.0,0.0,0.0,0.003025,2
1672947278762821493,79824,1672947278762588059,gps,2,1,42.2998706704,-83.6984977885,269.690155029,0.000169,0.0,0.0,0.0,0.000169,0.0,0.0,0.0,0.003025,2
1672947278772779266,79825,1672947278772571872,gps,2,1,42.2998707012,-83.6984977959,269.690429688,0.000169,0.0,0.0,0.0,0.000169,0.0,0.0,0.0,0.003025,2
1672947278782849448,79826,1672947278782628971,gps,2,1,42.299870728,-83.6984978021,269.69052124,0.000169,0.0,0.0,0.0,0.000169,0.0,0.0,0.0,0.003025,2
1672947278792794039,79827,1672947278792582456,gps,2,1,42.2998707549,-83.6984978082,269.690612793,0.000169,0.0,0.0,0.0,0.000169,0.0,0.0,0.0,0.003025,2
1672947278802869637,79828,1672947278802657323,gps,2,1,42.2998707856,-83.6984978155,269.690856934,0.000169,0.0,0.0,0.0,0.000169,0.0,0.0,0.0,0.003025,2
1672947278812854282,79829,1672947278812626498,gps,2,1,42.2998708124,-83.6984978216,269.690948486,0.000169,0.0,0.0,0.0,0.000169,0.0,0.0,0.0,0.003025,2
1672947278822808541,79830,1672947278822587899,gps,2,1,42.2998708393,-83.6984978277,269.691070557,0.000169,0.0,0.0,0.0,0.000169,0.0,0.0,0.0,0.003025,2
1672947278832795848,79831,1672947278832574235,gps,2,1,42.2998708698,-83.698497835,269.691314697,0.000169,0.0,0.0,0.0,0.000169,0.0,0.0,0.0,0.003025,2
1672947278842798050,79832,1672947278842570191,gps,2,1,42.2998708967,-83.698497841,269.691436768,0.000169,0.0,0.0,0.0,0.000169,0.0,0.0,0.0,0.003025,2
1672947278852844774,79833,1672947278852619544,gps,2,1,42.2998709235,-83.6984978471,269.69152832,0.000169,0.0,0.0,0.0,0.000169,0.0,0.0,0.0,0.003025,2
1672947278862769707,79834,1672947278862562309,gps,2,1,42.299870954,-83.6984978544,269.691772461,0.000169,0.0,0.0,0.0,0.000169,0.0,0.0,0.0,0.003025,2
1672947278872871145,79835,1672947278872646052,gps,2,1,42.2998709809,-83.6984978604,269.691894531,0.000169,0.0,0.0,0.0,0.000169,0.0,0.0,0.0,0.003025,2
1672947278882786109,79836,1672947278882558024,gps,2,1,42.2998710077,-83.6984978665,269.692016602,0.000169,0.0,0.0,0.0,0.000169,0.0,0.0,0.0,0.003025,2
1672947278892778583,79837,1672947278892551785,gps,2,1,42.2998710382,-83.6984978735,269.692230225,0.000169,0.0,0.0,0.0,0.000169,0.0,0.0,0.0,0.003025,2
1672947278902766051,79838,1672947278902550566,gps,2,1,42.299871065,-83.6984978797,269.692352295,0.000169,0.0,0.0,0.0,0.000169,0.0,0.0,0.0,0.003025,2
1672947278912841886,79839,1672947278912613074,gps,2,1,42.2998710919,-83.6984978858,269.692474365,0.000169,0.0,0.0,0.0,0.000169,0.0,0.0,0.0,0.003025,2
1672947278922795268,79840,1672947278922561398,gps,2,1,42.2998711223,-83.6984978928,269.692657471,0.000169,0.0,0.0,0.0,0.000169,0.0,0.0,0.0,0.003025,2
1672947278932849494,79841,1672947278932622098,gps,2,1,42.2998711492,-83.698497899,269.692779541,0.000169,0.0,0.0,0.0,0.000169,0.0,0.0,0.0,0.003025,2
1672947278942823502,79842,1672947278942577680,gps,2,1,42.2998711761,-83.6984979052,269.692901611,0.000169,0.0,0.0,0.0,0.000169,0.0,0.0,0.0,0.003025,2
1672947278952811269,79843,1672947278952554271,gps,2,1,42.2998712065,-83.6984979123,269.693084717,0.000169,0.0,0.0,0.0,0.000169,0.0,0.0,0.0,0.003025,2
1672947278962854649,79844,1672947278962620114,gps,2,1,42.2998712334,-83.6984979186,269.69317627,0.000169,0.0,0.0,0.0,0.000169,0.0,0.0,0.0,0.003025,2
1672947278972808932,79845,1672947278972568469,gps,2,1,42.2998712604,-83.6984979248,269.69329834,0.000169,0.0,0.0,0.0,0.000169,0.0,0.0,0.0,0.003025,2
1672947278982913629,79846,1672947278982667496,gps,2,1,42.2998712908,-83.6984979319,269.693450928,0.000169,0.0,0.0,0.0,0.000169,0.0,0.0,0.0,0.003025,2
1672947278992853185,79847,1672947278992631206,gps,2,1,42.2998713178,-83.6984979383,269.69354248,0.000169,0.0,0.0,0.0,0.000169,0.0,0.0,0.0,0.003025,2
1672947279002906479,79848,1672947279002633840,gps,2,1,42.2998713448,-83.6984979445,269.693634033,0.000169,0.0,0.0,0.0,0.000169,0.0,0.0,0.0,0.003025,2
1672947279012804152,79849,1672947279012578853,gps,2,1,42.2998713764,-83.6984979519,269.693786621,0.000169,0.0,0.0,0.0,0.000169,0.0,0.0,0.0,0.003025,2
1672947279022916724,79850,1672947279022677575,gps,2,1,42.2998714035,-83.6984979583,269.693878174,0.000169,0.0,0.0,0.0,0.000169,0.0,0.0,0.0,0.003025,2
1672947279032874130,79851,1672947279032644558,gps,2,1,42.2998714306,-83.6984979646,269.693969727,0.000169,0.0,0.0,0.0,0.000169,0.0,0.0,0.0,0.003025,2
1672947279042748075,79852,1672947279042540883,gps,2,1,42.2998714621,-83.698497972,269.694091797,0.000169,0.0,0.0,0.0,0.000169,0.0,0.0,0.0,0.003025,2
1672947279052956178,79853,1672947279052746990,gps,2,1,42.2998714893,-83.6984979784,269.69418335,0.000169,0.0,0.0,0.0,0.000169,0.0,0.0,0.0,0.003025,2
1672947279062857532,79854,1672947279062666026,gps,2,1,42.2998715164,-83.6984979847,269.69430542,0.000169,0.0,0.0,0.0,0.000169,0.0,0.0,0.0,0.003025,2
1672947279072789167,79855,1672947279072577021,gps,2,1,42.2998715478,-83.6984979921,269.69442749,0.000169,0.0,0.0,0.0,0.000169,0.0,0.0,0.0,0.003025,2
1672947279082805859,79856,1672947279082618933,gps,2,1,42.2998715751,-83.6984979984,269.694549561,0.000169,0.0,0.0,0.0,0.000169,0.0,0.0,0.0,0.003025,2
1672947279092790683,79857,1672947279092559826,gps,2,1,42.2998716023,-83.6984980048,269.694641113,0.000169,0.0,0.0,0.0,0.000169,0.0,0.0,0.0,0.003025,2
1672947279102806670,79858,1672947279102554956,gps,2,1,42.2998716338,-83.6984980122,269.694793701,0.000169,0.0,0.0,0.0,0.000169,0.0,0.0,0.0,0.003025,2
1672947279112844316,79859,1672947279112630381,gps,2,1,42.2998716612,-83.6984980186,269.694915771,0.000169,0.0,0.0,0.0,0.000169,0.0,0.0,0.0,0.003025,2
1672947279122786986,79860,1672947279122558398,gps,2,1,42.2998716885,-83.698498025,269.695007324,0.000169,0.0,0.0,0.0,0.000169,0.0,0.0,0.0,0.003025,2
1672947279132768454,79861,1672947279132549108,gps,2,1,42.29987172,-83.6984980323,269.695159912,0.000169,0.0,0.0,0.0,0.000169,0.0,0.0,0.0,0.003025,2
1672947279142788659,79862,1672947279142535733,gps,2,1,42.2998717476,-83.6984980388,269.695281982,0.000169,0.0,0.0,0.0,0.000169,0.0,0.0,0.0,0.003025,2
1672947279152826879,79863,1672947279152617837,gps,2,1,42.2998717749,-83.6984980452,269.695373535,0.000169,0.0,0.0,0.0,0.000169,0.0,0.0,0.0,0.003025,2
1672947279162775976,79864,1672947279162542041,gps,2,1,42.2998718065,-83.6984980526,269.695526123,0.000169,0.0,0.0,0.0,0.000169,0.0,0.0,0.0,0.003025,2
1672947279172757515,79865,1672947279172521563,gps,2,1,42.2998718341,-83.6984980591,269.695617676,0.000169,0.0,0.0,0.0,0.000169,0.0,0.0,0.0,0.003025,2
1672947279182795427,79866,1672947279182595950,gps,2,1,42.2998718617,-83.6984980655,269.695739746,0.000169,0.0,0.0,0.0,0.000169,0.0,0.0,0.0,0.003025,2
1672947279192770222,79867,1672947279192541696,gps,2,1,42.2998718932,-83.6984980728,269.695861816,0.000169,0.0,0.0,0.0,0.000169,0.0,0.0,0.0,0.003025,2
1672947279202837699,79868,1672947279202613112,gps,2,1,42.299871921,-83.6984980793,269.695983887,0.000169,0.0,0.0,0.0,0.000169,0.0,0.0,0.0,0.003025,2
1672947279212770894,79869,1672947279212543635,gps,2,1,42.2998719487,-83.6984980858,269.696075439,0.000169,0.0,0.0,0.0,0.000169,0.0,0.0,0.0,0.003025,2
1672947279222827258,79870,1672947279222549193,gps,2,1,42.2998719803,-83.6984980931,269.696228027,0.000169,0.0,0.0,0.0,0.000169,0.0,0.0,0.0,0.003025,2
1672947279232940554,79871,1672947279232704307,gps,2,1,42.2998720082,-83.6984980996,269.69631958,0.000169,0.0,0.0,0.0,0.000169,0.0,0.0,0.0,0.003025,2
1672947279242751573,79872,1672947279242558638,gps,2,1,42.2998720361,-83.6984981062,269.696411133,0.000169,0.0,0.0,0.0,0.000169,0.0,0.0,0.0,0.003025,2
1672947279252758189,79873,1672947279252542041,gps,2,1,42.2998720677,-83.6984981135,269.696563721,0.000169,0.0,0.0,0.0,0.000169,0.0,0.0,0.0,0.003025,2
1672947279262881708,79874,1672947279262627767,gps,2,1,42.2998720959,-83.69849812,269.696685791,0.000169,0.0,0.0,0.0,0.000169,0.0,0.0,0.0,0.003025,2
1672947279272817096,79875,1672947279272545431,gps,2,1,42.2998721239,-83.6984981266,269.696777344,0.000169,0.0,0.0,0.0,0.000169,0.0,0.0,0.0,0.003025,2
1672947279282775546,79876,1672947279282553072,gps,2,1,42.2998721555,-83.6984981339,269.696929932,0.000169,0.0,0.0,0.0,0.000169,0.0,0.0,0.0,0.003025,2
1672947279292784421,79877,1672947279292544857,gps,2,1,42.2998721838,-83.6984981405,269.697021484,0.000169,0.0,0.0,0.0,0.000169,0.0,0.0,0.0,0.003025,2
1672947279302934338,79878,1672947279302686616,gps,2,1,42.299872212,-83.6984981471,269.697143555,0.000169,0.0,0.0,0.0,0.000169,0.0,0.0,0.0,0.003025,2
1672947279312741208,79879,1672947279312520286,gps,2,1,42.2998722437,-83.6984981544,269.697265625,0.000169,0.0,0.0,0.0,0.000169,0.0,0.0,0.0,0.003025,2
1672947279322802999,79880,1672947279322530274,gps,2,1,42.299872272,-83.6984981609,269.697387695,0.000169,0.0,0.0,0.0,0.000169,0.0,0.0,0.0,0.003025,2
1672947279332802566,79881,1672947279332599034,gps,2,1,42.2998723003,-83.6984981675,269.697509766,0.000169,0.0,0.0,0.0,0.000169,0.0,0.0,0.0,0.003025,2
1672947279342795181,79882,1672947279342541743,gps,2,1,42.299872332,-83.6984981748,269.697662354,0.000169,0.0,0.0,0.0,0.000169,0.0,0.0,0.0,0.003025,2
1672947279352752978,79883,1672947279352549724,gps,2,1,42.2998723604,-83.6984981813,269.697753906,0.000169,0.0,0.0,0.0,0.000169,0.0,0.0,0.0,0.003025,2
1672947279362788144,79884,1672947279362583218,gps,2,1,42.2998723887,-83.6984981879,269.697875977,0.000169,0.0,0.0,0.0,0.000169,0.0,0.0,0.0,0.003025,2
1672947279372736664,79885,1672947279372539843,gps,2,1,42.2998724204,-83.6984981951,269.698028564,0.000169,0.0,0.0,0.0,0.000169,0.0,0.0,0.0,0.003025,2
1672947279382800746,79886,1672947279382558248,gps,2,1,42.2998724489,-83.6984982016,269.698150635,0.000169,0.0,0.0,0.0,0.000169,0.0,0.0,0.0,0.003025,2
1672947279392831152,79887,1672947279392630159,gps,2,1,42.2998724773,-83.6984982082,269.698272705,0.000169,0.0,0.0,0.0,0.000169,0.0,0.0,0.0,0.003025,2
1672947279402734878,79888,1672947279402537221,gps,2,1,42.2998725089,-83.6984982154,269.698425293,0.000169,0.0,0.0,0.0,0.000169,0.0,0.0,0.0,0.003025,2
1672947279412840501,79889,1672947279412632370,gps,2,1,42.2998725376,-83.6984982221,269.698547363,0.000169,0.0,0.0,0.0,0.000169,0.0,0.0,0.0,0.003025,2
1672947279422741397,79890,1672947279422549125,gps,2,1,42.2998725662,-83.6984982287,269.698669434,0.000169,0.0,0.0,0.0,0.000169,0.0,0.0,0.0,0.003025,2
1672947279432764051,79891,1672947279432553818,gps,2,1,42.2998725979,-83.698498236,269.698822021,0.000169,0.0,0.0,0.0,0.000169,0.0,0.0,0.0,0.003025,2
1672947279442846627,79892,1672947279442594234,gps,2,1,42.2998726268,-83.6984982428,269.698944092,0.000169,0.0,0.0,0.0,0.000169,0.0,0.0,0.0,0.003025,2
1672947279452756011,79893,1672947279452523483,gps,2,1,42.2998726556,-83.6984982494,269.699066162,0.000169,0.0,0.0,0.0,0.000169,0.0,0.0,0.0,0.003025,2
1672947279462767828,79894,1672947279462520538,gps,2,1,42.2998726873,-83.6984982569,269.69921875,0.000169,0.0,0.0,0.0,0.000169,0.0,0.0,0.0,0.003025,2
1672947279472710637,79895,1672947279472526983,gps,2,1,42.2998727164,-83.6984982638,269.699310303,0.000169,0.0,0.0,0.0,0.000169,0.0,0.0,0.0,0.003025,2
1672947279482940070,79896,1672947279482696186,gps,2,1,42.2998727453,-83.6984982705,269.699432373,0.000169,0.0,0.0,0.0,0.000169,0.0,0.0,0.0,0.003025,2
1672947279492756469,79897,1672947279492541600,gps,2,1,42.2998727771,-83.6984982781,269.699584961,0.000169,0.0,0.0,0.0,0.000169,0.0,0.0,0.0,0.003025,2
1672947279502795527,79898,1672947279502618026,gps,2,1,42.2998728062,-83.698498285,269.699676514,0.000169,0.0,0.0,0.0,0.000169,0.0,0.0,0.0,0.003025,2
1672947279512800267,79899,1672947279512601941,gps,2,1,42.2998728353,-83.6984982919,269.699798584,0.000169,0.0,0.0,0.0,0.000169,0.0,0.0,0.0,0.003025,2
1672947279522808509,79900,1672947279522605428,gps,2,1,42.2998728671,-83.6984982995,269.699951172,0.000169,0.0,0.0,0.0,0.000169,0.0,0.0,0.0,0.003025,2
1672947279532831658,79901,1672947279532627873,gps,2,1,42.2998728964,-83.6984983064,269.700073242,0.0001,0.0,0.0,0.0,0.000121,0.0,0.0,0.0,0.002916,2
1672947279542811506,79902,1672947279542628489,gps,2,1,42.2998729256,-83.6984983134,269.700164795,0.0001,0.0,0.0,0.0,0.000121,0.0,0.0,0.0,0.002916,2
1672947279552910630,79903,1672947279552702924,gps,2,1,42.2998729582,-83.6984983211,269.700439453,0.0001,0.0,0.0,0.0,0.000121,0.0,0.0,0.0,0.002916,2
1672947279562802743,79904,1672947279562581781,gps,2,1,42.2998729876,-83.6984983281,269.700561523,0.0001,0.0,0.0,0.0,0.000121,0.0,0.0,0.0,0.002916,2
1672947279572795126,79905,1672947279572602145,gps,2,1,42.2998730169,-83.6984983351,269.700653076,0.0001,0.0,0.0,0.0,0.000121,0.0,0.0,0.0,0.002916,2
1672947279582742146,79906,1672947279582532391,gps,2,1,42.2998730497,-83.6984983428,269.700927734,0.0001,0.0,0.0,0.0,0.000121,0.0,0.0,0.0,0.002916,2
1672947279592768768,79907,1672947279592570017,gps,2,1,42.2998730793,-83.6984983498,269.701049805,0.0001,0.0,0.0,0.0,0.000121,0.0,0.0,0.0,0.002916,2
1672947279602808872,79908,1672947279602606219,gps,2,1,42.2998731089,-83.6984983568,269.701141357,0.0001,0.0,0.0,0.0,0.000121,0.0,0.0,0.0,0.002916,2
1672947279612735888,79909,1672947279612544034,gps,2,1,42.2998731418,-83.6984983645,269.701416016,0.0001,0.0,0.0,0.0,0.000121,0.0,0.0,0.0,0.002916,2
1672947279622730684,79910,1672947279622528468,gps,2,1,42.2998731716,-83.6984983715,269.701507568,0.0001,0.0,0.0,0.0,0.000121,0.0,0.0,0.0,0.002916,2
1672947279632817619,79911,1672947279632618290,gps,2,1,42.2998732014,-83.6984983785,269.701629639,0.0001,0.0,0.0,0.0,0.000121,0.0,0.0,0.0,0.002916,2
1672947279642706285,79912,1672947279642538438,gps,2,1,42.2998732342,-83.6984983859,269.701843262,0.0001,0.0,0.0,0.0,0.000121,0.0,0.0,0.0,0.002916,2
1672947279652762285,79913,1672947279652525521,gps,2,1,42.2998732643,-83.6984983929,269.701965332,0.0001,0.0,0.0,0.0,0.000121,0.0,0.0,0.0,0.002916,2
1672947279662878181,79914,1672947279662672473,gps,2,1,42.2998732943,-83.6984983999,269.702056885,0.0001,0.0,0.0,0.0,0.000121,0.0,0.0,0.0,0.002916,2
1672947279672750137,79915,1672947279672549802,gps,2,1,42.2998733272,-83.6984984073,269.702301025,0.0001,0.0,0.0,0.0,0.000121,0.0,0.0,0.0,0.002916,2
1672947279682759606,79916,1672947279682545643,gps,2,1,42.2998733575,-83.6984984143,269.702392578,0.0001,0.0,0.0,0.0,0.000121,0.0,0.0,0.0,0.002916,2
1672947279692785713,79917,1672947279692578817,gps,2,1,42.2998733876,-83.6984984214,269.702484131,0.0001,0.0,0.0,0.0,0.000121,0.0,0.0,0.0,0.002916,2
1672947279702735986,79918,1672947279702535018,gps,2,1,42.2998734207,-83.6984984288,269.702728271,0.0001,0.0,0.0,0.0,0.000121,0.0,0.0,0.0,0.002916,2
1672947279712762474,79919,1672947279712545432,gps,2,1,42.2998734513,-83.698498436,269.702819824,0.0001,0.0,0.0,0.0,0.000121,0.0,0.0,0.0,0.002916,2
1672947279722817388,79920,1672947279722596022,gps,2,1,42.2998734816,-83.698498443,269.702941895,0.0001,0.0,0.0,0.0,0.000121,0.0,0.0,0.0,0.002916,2
1672947279732800910,79921,1672947279732603315,gps,2,1,42.2998735148,-83.6984984506,269.703155518,0.0001,0.0,0.0,0.0,0.000121,0.0,0.0,0.0,0.002916,2
1672947279742746523,79922,1672947279742528566,gps,2,1,42.2998735456,-83.6984984579,269.70324707,0.0001,0.0,0.0,0.0,0.000121,0.0,0.0,0.0,0.002916,2
1672947279752824625,79923,1672947279752632228,gps,2,1,42.2998735762,-83.698498465,269.703369141,0.0001,0.0,0.0,0.0,0.000121,0.0,0.0,0.0,0.002916,2
1672947279762770632,79924,1672947279762560136,gps,2,1,42.2998736096,-83.6984984727,269.703582764,0.0001,0.0,0.0,0.0,0.000121,0.0,0.0,0.0,0.002916,2
1672947279772769992,79925,1672947279772559932,gps,2,1,42.2998736405,-83.6984984801,269.703674316,0.0001,0.0,0.0,0.0,0.000121,0.0,0.0,0.0,0.002916,2
1672947279782802372,79926,1672947279782610349,gps,2,1,42.2998736713,-83.6984984874,269.703796387,0.0001,0.0,0.0,0.0,0.000121,0.0,0.0,0.0,0.002916,2
1672947279792738504,79927,1672947279792524391,gps,2,1,42.2998737048,-83.6984984951,269.703979492,0.0001,0.0,0.0,0.0,0.000121,0.0,0.0,0.0,0.002916,2
1672947279802891885,79928,1672947279802678374,gps,2,1,42.2998737359,-83.6984985026,269.704101562,0.0001,0.0,0.0,0.0,0.000121,0.0,0.0,0.0,0.002916,2
1672947279812745403,79929,1672947279812534164,gps,2,1,42.2998737669,-83.6984985101,269.704193115,0.0001,0.0,0.0,0.0,0.000121,0.0,0.0,0.0,0.002916,2
1672947279822738835,79930,1672947279822518525,gps,2,1,42.2998738006,-83.6984985179,269.704406738,0.0001,0.0,0.0,0.0,0.000121,0.0,0.0,0.0,0.002916,2
1672947279832720388,79931,1672947279832521522,gps,2,1,42.2998738319,-83.6984985255,269.704528809,0.0001,0.0,0.0,0.0,0.000121,0.0,0.0,0.0,0.002916,2
1672947279842792490,79932,1672947279842581009,gps,2,1,42.2998738631,-83.698498533,269.704620361,0.0001,0.0,0.0,0.0,0.000121,0.0,0.0,0.0,0.002916,2
1672947279852717547,79933,1672947279852520261,gps,2,1,42.2998738969,-83.6984985409,269.704833984,0.0001,0.0,0.0,0.0,0.000121,0.0,0.0,0.0,0.002916,2
1672947279862772242,79934,1672947279862532223,gps,2,1,42.2998739285,-83.6984985485,269.704925537,0.0001,0.0,0.0,0.0,0.000121,0.0,0.0,0.0,0.002916,2
1672947279872808996,79935,1672947279872586906,gps,2,1,42.2998739599,-83.6984985561,269.705047607,0.0001,0.0,0.0,0.0,0.000121,0.0,0.0,0.0,0.002916,2
1672947279882721591,79936,1672947279882512607,gps,2,1,42.299873994,-83.6984985642,269.70526123,0.0001,0.0,0.0,0.0,0.000121,0.0,0.0,0.0,0.002916,2
1672947279892709105,79937,1672947279892515594,gps,2,1,42.299874026,-83.6984985719,269.705352783,0.0001,0.0,0.0,0.0,0.000121,0.0,0.0,0.0,0.002916,2
1672947279902800945,79938,1672947279902598785,gps,2,1,42.2998740576,-83.6984985795,269.705444336,0.0001,0.0,0.0,0.0,0.000121,0.0,0.0,0.0,0.002916,2
1672947279912738345,79939,1672947279912527035,gps,2,1,42.2998740919,-83.6984985877,269.705657959,0.0001,0.0,0.0,0.0,0.000121,0.0,0.0,0.0,0.002916,2
1672947279922736036,79940,1672947279922529659,gps,2,1,42.2998741241,-83.6984985955,269.705749512,0.0001,0.0,0.0,0.0,0.000121,0.0,0.0,0.0,0.002916,2
1672947279932845818,79941,1672947279932651267,gps,2,1,42.2998741561,-83.6984986032,269.705871582,0.0001,0.0,0.0,0.0,0.000121,0.0,0.0,0.0,0.002916,2
1672947279942781853,79942,1672947279942572870,gps,2,1,42.2998741906,-83.6984986115,269.706054688,0.0001,0.0,0.0,0.0,0.000121,0.0,0.0,0.0,0.002916,2
1672947279952732735,79943,1672947279952521214,gps,2,1,42.2998742232,-83.6984986194,269.70614624,0.0001,0.0,0.0,0.0,0.000121,0.0,0.0,0.0,0.002916,2
1672947279962804147,79944,1672947279962581089,gps,2,1,42.2998742555,-83.6984986273,269.706237793,0.0001,0.0,0.0,0.0,0.000121,0.0,0.0,0.0,0.002916,2
1672947279972785950,79945,1672947279972522525,gps,2,1,42.2998742903,-83.6984986357,269.706451416,0.0001,0.0,0.0,0.0,0.000121,0.0,0.0,0.0,0.002916,2
1672947279982825147,79946,1672947279982618265,gps,2,1,42.2998743232,-83.6984986437,269.706542969,0.0001,0.0,0.0,0.0,0.000121,0.0,0.0,0.0,0.002916,2
1672947279992751623,79947,1672947279992569607,gps,2,1,42.2998743558,-83.6984986517,269.706634521,0.0001,0.0,0.0,0.0,0.000121,0.0,0.0,0.0,0.002916,2
1672947280002844536,79948,1672947280002594886,gps,2,1,42.299874391,-83.6984986603,269.706848145,0.0001,0.0,0.0,0.0,0.000121,0.0,0.0,0.0,0.002916,2
1672947280012854787,79949,1672947280012610219,gps,2,1,42.2998744243,-83.6984986685,269.706939697,0.0001,0.0,0.0,0.0,0.000121,0.0,0.0,0.0,0.002916,2
1672947280022839160,79950,1672947280022623777,gps,2,1,42.2998744573,-83.6984986766,269.707061768,0.0001,0.0,0.0,0.0,0.000121,0.0,0.0,0.0,0.002916,2
1672947280032789890,79951,1672947280032570011,gps,2,1,42.2998744928,-83.6984986853,269.707580566,0.0001,0.0,0.0,0.0,0.000121,0.0,0.0,0.0,0.002916,2
1672947280042800553,79952,1672947280042592374,gps,2,1,42.2998745266,-83.6984986936,269.707702637,0.0001,0.0,0.0,0.0,0.000121,0.0,0.0,0.0,0.002916,2
1672947280052984609,79953,1672947280052716337,gps,2,1,42.2998745601,-83.6984987018,269.707824707,0.0001,0.0,0.0,0.0,0.000121,0.0,0.0,0.0,0.002916,2
1672947280062834764,79954,1672947280062610687,gps,2,1,42.2998745959,-83.6984987107,269.708343506,0.0001,0.0,0.0,0.0,0.000121,0.0,0.0,0.0,0.002916,2
1672947280072805292,79955,1672947280072617759,gps,2,1,42.2998746302,-83.6984987191,269.708465576,0.0001,0.0,0.0,0.0,0.000121,0.0,0.0,0.0,0.002916,2
1672947280082794977,79956,1672947280082593021,gps,2,1,42.299874664,-83.6984987275,269.708587646,0.0001,0.0,0.0,0.0,0.000121,0.0,0.0,0.0,0.002916,2
1672947280092723634,79957,1672947280092527001,gps,2,1,42.2998747004,-83.6984987364,269.709106445,0.0001,0.0,0.0,0.0,0.000121,0.0,0.0,0.0,0.002916,2
1672947280102733253,79958,1672947280102516557,gps,2,1,42.2998747351,-83.698498745,269.709228516,0.0001,0.0,0.0,0.0,0.000121,0.0,0.0,0.0,0.002916,2
1672947280112794701,79959,1672947280112579295,gps,2,1,42.2998747695,-83.6984987535,269.709350586,0.0001,0.0,0.0,0.0,0.000121,0.0,0.0,0.0,0.002916,2
1672947280122742963,79960,1672947280122511964,gps,2,1,42.2998748062,-83.6984987625,269.709838867,0.0001,0.0,0.0,0.0,0.000121,0.0,0.0,0.0,0.002916,2
1672947280132738821,79961,1672947280132521345,gps,2,1,42.2998748416,-83.6984987711,269.709991455,0.0001,0.0,0.0,0.0,0.000121,0.0,0.0,0.0,0.002916,2
1672947280142812693,79962,1672947280142608821,gps,2,1,42.2998748764,-83.6984987797,269.710113525,0.0001,0.0,0.0,0.0,0.000121,0.0,0.0,0.0,0.002916,2
1672947280152709492,79963,1672947280152493005,gps,2,1,42.2998749136,-83.6984987887,269.710601807,0.0001,0.0,0.0,0.0,0.000121,0.0,0.0,0.0,0.002916,2
1672947280162720780,79964,1672947280162509389,gps,2,1,42.2998749494,-83.6984987973,269.710723877,0.0001,0.0,0.0,0.0,0.000121,0.0,0.0,0.0,0.002916,2
1672947280172791811,79965,1672947280172572551,gps,2,1,42.2998749848,-83.698498806,269.710876465,0.0001,0.0,0.0,0.0,0.000121,0.0,0.0,0.0,0.002916,2
1672947280182718562,79966,1672947280182502576,gps,2,1,42.2998750225,-83.698498815,269.711364746,0.0001,0.0,0.0,0.0,0.000121,0.0,0.0,0.0,0.002916,2
1672947280192728538,79967,1672947280192520637,gps,2,1,42.2998750589,-83.6984988236,269.711486816,0.0001,0.0,0.0,0.0,0.000121,0.0,0.0,0.0,0.002916,2
1672947280202803300,79968,1672947280202596497,gps,2,1,42.2998750948,-83.6984988323,269.711608887,0.0001,0.0,0.0,0.0,0.000121,0.0,0.0,0.0,0.002916,2
1672947280212732749,79969,1672947280212509051,gps,2,1,42.299875133,-83.6984988413,269.71206665,0.0001,0.0,0.0,0.0,0.000121,0.0,0.0,0.0,0.002916,2
1672947280222720221,79970,1672947280222507230,gps,2,1,42.29987517,-83.69849885,269.712219238,0.0001,0.0,0.0,0.0,0.000121,0.0,0.0,0.0,0.002916,2
1672947280232856734,79971,1672947280232657424,gps,2,1,42.2998752066,-83.6984988587,269.712341309,0.0001,0.0,0.0,0.0,0.000121,0.0,0.0,0.0,0.002916,2
1672947280242707481,79972,1672947280242507026,gps,2,1,42.2998752454,-83.6984988678,269.712799072,0.0001,0.0,0.0,0.0,0.000121,0.0,0.0,0.0,0.002916,2
1672947280252717535,79973,1672947280252506855,gps,2,1,42.2998752831,-83.6984988767,269.712921143,0.0001,0.0,0.0,0.0,0.000121,0.0,0.0,0.0,0.002916,2
1672947280262802454,79974,1672947280262589331,gps,2,1,42.2998753202,-83.6984988856,269.713043213,0.0001,0.0,0.0,0.0,0.000121,0.0,0.0,0.0,0.002916,2
1672947280272724287,79975,1672947280272508475,gps,2,1,42.2998753596,-83.6984988949,269.713470459,0.0001,0.0,0.0,0.0,0.000121,0.0,0.0,0.0,0.002916,2
1672947280282730706,79976,1672947280282503791,gps,2,1,42.299875398,-83.6984989041,269.713592529,0.0001,0.0,0.0,0.0,0.000121,0.0,0.0,0.0,0.002916,2
1672947280292823040,79977,1672947280292584945,gps,2,1,42.2998754358,-83.698498913,269.713745117,0.0001,0.0,0.0,0.0,0.000121,0.0,0.0,0.0,0.002916,2
1672947280302805923,79978,1672947280302591388,gps,2,1,42.299875476,-83.6984989226,269.714141846,0.0001,0.0,0.0,0.0,0.000121,0.0,0.0,0.0,0.002916,2
1672947280312710374,79979,1672947280312493921,gps,2,1,42.2998755152,-83.6984989321,269.714294434,0.0001,0.0,0.0,0.0,0.000121,0.0,0.0,0.0,0.002916,2
1672947280322772452,79980,1672947280322565974,gps,2,1,42.2998755538,-83.6984989413,269.714416504,0.0001,0.0,0.0,0.0,0.000121,0.0,0.0,0.0,0.002916,2
1672947280332691599,79981,1672947280332488569,gps,2,1,42.2998755947,-83.6984989512,269.71484375,0.0001,0.0,0.0,0.0,0.000121,0.0,0.0,0.0,0.002916,2
1672947280342735198,79982,1672947280342519797,gps,2,1,42.2998756349,-83.6984989609,269.71496582,0.0001,0.0,0.0,0.0,0.000121,0.0,0.0,0.0,0.002916,2
1672947280352767782,79983,1672947280352565797,gps,2,1,42.2998756742,-83.6984989704,269.715118408,0.0001,0.0,0.0,0.0,0.000121,0.0,0.0,0.0,0.002916,2
1672947280362737050,79984,1672947280362512321,gps,2,1,42.2998757161,-83.6984989805,269.715515137,0.0001,0.0,0.0,0.0,0.000121,0.0,0.0,0.0,0.002916,2
1672947280372703983,79985,1672947280372501528,gps,2,1,42.2998757572,-83.6984989905,269.715698242,0.0001,0.0,0.0,0.0,0.000121,0.0,0.0,0.0,0.002916,2
1672947280382801541,79986,1672947280382592164,gps,2,1,42.2998757975,-83.6984990002,269.715820312,0.0001,0.0,0.0,0.0,0.000121,0.0,0.0,0.0,0.002916,2
1672947280392723186,79987,1672947280392506350,gps,2,1,42.2998758402,-83.6984990106,269.716217041,0.0001,0.0,0.0,0.0,0.000121,0.0,0.0,0.0,0.002916,2
1672947280402753130,79988,1672947280402536194,gps,2,1,42.2998758823,-83.6984990207,269.716400146,0.0001,0.0,0.0,0.0,0.000121,0.0,0.0,0.0,0.002916,2
1672947280412774279,79989,1672947280412581161,gps,2,1,42.2998759236,-83.6984990308,269.716552734,0.0001,0.0,0.0,0.0,0.000121,0.0,0.0,0.0,0.002916,2
1672947280422727480,79990,1672947280422510729,gps,2,1,42.2998759673,-83.6984990413,269.716949463,0.0001,0.0,0.0,0.0,0.000121,0.0,0.0,0.0,0.002916,2
1672947280432823996,79991,1672947280432598651,gps,2,1,42.2998760104,-83.6984990517,269.717132568,0.0001,0.0,0.0,0.0,0.000121,0.0,0.0,0.0,0.002916,2
1672947280442771210,79992,1672947280442556967,gps,2,1,42.2998760527,-83.6984990619,269.717285156,0.0001,0.0,0.0,0.0,0.000121,0.0,0.0,0.0,0.002916,2
1672947280452712337,79993,1672947280452495335,gps,2,1,42.2998760975,-83.6984990726,269.717681885,0.0001,0.0,0.0,0.0,0.000121,0.0,0.0,0.0,0.002916,2
1672947280462748943,79994,1672947280462518749,gps,2,1,42.2998761419,-83.6984990831,269.717834473,0.0001,0.0,0.0,0.0,0.000121,0.0,0.0,0.0,0.002916,2
1672947280472795533,79995,1672947280472580699,gps,2,1,42.2998761852,-83.6984990935,269.718017578,0.0001,0.0,0.0,0.0,0.000121,0.0,0.0,0.0,0.002916,2
1672947280482791518,79996,1672947280482590940,gps,2,1,42.2998762312,-83.6984991044,269.718414307,0.0001,0.0,0.0,0.0,0.000121,0.0,0.0,0.0,0.002916,2
1672947280492742045,79997,1672947280492516721,gps,2,1,42.2998762768,-83.6984991153,269.718597412,0.0001,0.0,0.0,0.0,0.000121,0.0,0.0,0.0,0.002916,2
1672947280502875972,79998,1672947280502661558,gps,2,1,42.2998763214,-83.698499126,269.718780518,0.0001,0.0,0.0,0.0,0.000121,0.0,0.0,0.0,0.002916,2
1672947280512749577,79999,1672947280512525975,gps,2,1,42.2998763678,-83.6984991372,269.719299316,0.0001,0.0,0.0,0.0,0.000121,0.0,0.0,0.0,0.002916,2
1672947280522778257,80000,1672947280522553247,gps,2,1,42.2998764146,-83.6984991485,269.719482422,0.0001,0.0,0.0,0.0,0.000121,0.0,0.0,0.0,0.002916,2
1672947280532848224,80001,1672947280532636756,gps,2,1,42.2998764604,-83.6984991595,269.719696045,0.000169,0.0,0.0,0.0,0.000196,0.0,0.0,0.0,0.003025,2
1672947280542741379,80002,1672947280542545255,gps,2,1,42.299876508,-83.6984991711,269.720214844,0.000169,0.0,0.0,0.0,0.000196,0.0,0.0,0.0,0.003025,2
1672947280552840884,80003,1672947280552625061,gps,2,1,42.2998765562,-83.6984991829,269.720397949,0.000169,0.0,0.0,0.0,0.000196,0.0,0.0,0.0,0.003025,2
1672947280562846363,80004,1672947280562646948,gps,2,1,42.2998766033,-83.6984991943,269.720581055,0.000169,0.0,0.0,0.0,0.000196,0.0,0.0,0.0,0.003025,2
1672947280572714559,80005,1672947280572496557,gps,2,1,42.2998766523,-83.6984992064,269.721099854,0.000169,0.0,0.0,0.0,0.000196,0.0,0.0,0.0,0.003025,2
1672947280582715297,80006,1672947280582486615,gps,2,1,42.2998767018,-83.6984992187,269.721282959,0.000169,0.0,0.0,0.0,0.000196,0.0,0.0,0.0,0.003025,2
1672947280592756870,80007,1672947280592560963,gps,2,1,42.2998767502,-83.6984992305,269.721466064,0.000169,0.0,0.0,0.0,0.000196,0.0,0.0,0.0,0.003025,2
1672947280602689755,80008,1672947280602482693,gps,2,1,42.2998768005,-83.6984992431,269.721984863,0.000169,0.0,0.0,0.0,0.000196,0.0,0.0,0.0,0.003025,2
1672947280612684084,80009,1672947280612486046,gps,2,1,42.2998768514,-83.6984992559,269.722167969,0.000169,0.0,0.0,0.0,0.000196,0.0,0.0,0.0,0.003025,2
1672947280622795402,80010,1672947280622581641,gps,2,1,42.2998769011,-83.6984992682,269.722381592,0.000169,0.0,0.0,0.0,0.000196,0.0,0.0,0.0,0.003025,2
1672947280632740377,80011,1672947280632540778,gps,2,1,42.2998769528,-83.6984992813,269.722869873,0.000169,0.0,0.0,0.0,0.000196,0.0,0.0,0.0,0.003025,2
1672947280642730205,80012,1672947280642519383,gps,2,1,42.2998770051,-83.6984992944,269.723083496,0.000169,0.0,0.0,0.0,0.000196,0.0,0.0,0.0,0.003025,2
1672947280652781564,80013,1672947280652566354,gps,2,1,42.2998770563,-83.6984993073,269.723266602,0.000169,0.0,0.0,0.0,0.000196,0.0,0.0,0.0,0.003025,2
1672947280662727637,80014,1672947280662516554,gps,2,1,42.2998771093,-83.6984993207,269.723754883,0.000169,0.0,0.0,0.0,0.000196,0.0,0.0,0.0,0.003025,2
1672947280672731328,80015,1672947280672520874,gps,2,1,42.2998771631,-83.6984993343,269.723968506,0.000169,0.0,0.0,0.0,0.000196,0.0,0.0,0.0,0.003025,2
1672947280682778660,80016,1672947280682561495,gps,2,1,42.2998772157,-83.6984993476,269.724151611,0.000169,0.0,0.0,0.0,0.000196,0.0,0.0,0.0,0.003025,2
1672947280692698741,80017,1672947280692499561,gps,2,1,42.2998772702,-83.6984993614,269.724639893,0.000169,0.0,0.0,0.0,0.000196,0.0,0.0,0.0,0.003025,2
1672947280702750604,80018,1672947280702529736,gps,2,1,42.2998773255,-83.6984993755,269.724853516,0.000169,0.0,0.0,0.0,0.000196,0.0,0.0,0.0,0.003025,2
1672947280712762189,80019,1672947280712557579,gps,2,1,42.2998773795,-83.6984993891,269.725067139,0.000169,0.0,0.0,0.0,0.000196,0.0,0.0,0.0,0.003025,2
1672947280722703822,80020,1672947280722499932,gps,2,1,42.2998774356,-83.6984994033,269.725524902,0.000169,0.0,0.0,0.0,0.000196,0.0,0.0,0.0,0.003025,2
1672947280732802065,80021,1672947280732595900,gps,2,1,42.2998774924,-83.6984994178,269.725738525,0.000169,0.0,0.0,0.0,0.000196,0.0,0.0,0.0,0.003025,2
1672947280742789704,80022,1672947280742580554,gps,2,1,42.299877548,-83.6984994319,269.725952148,0.000169,0.0,0.0,0.0,0.000196,0.0,0.0,0.0,0.003025,2
1672947280752786344,80023,1672947280752561147,gps,2,1,42.2998776055,-83.6984994466,269.72644043,0.000169,0.0,0.0,0.0,0.000196,0.0,0.0,0.0,0.003025,2
1672947280762774970,80024,1672947280762543153,gps,2,1,42.2998776639,-83.6984994614,269.726654053,0.000169,0.0,0.0,0.0,0.000196,0.0,0.0,0.0,0.003025,2
1672947280772781433,80025,1672947280772577064,gps,2,1,42.299877721,-83.6984994759,269.726867676,0.000169,0.0,0.0,0.0,0.000196,0.0,0.0,0.0,0.003025,2
1672947280782732727,80026,1672947280782528443,gps,2,1,42.2998777801,-83.698499491,269.727325439,0.000169,0.0,0.0,0.0,0.000196,0.0,0.0,0.0,0.003025,2
1672947280792724521,80027,1672947280792512996,gps,2,1,42.2998778402,-83.6984995063,269.72756958,0.000169,0.0,0.0,0.0,0.000196,0.0,0.0,0.0,0.003025,2
1672947280802881455,80028,1672947280802662509,gps,2,1,42.2998778988,-83.6984995211,269.727783203,0.000169,0.0,0.0,0.0,0.000196,0.0,0.0,0.0,0.003025,2
1672947280812707200,80029,1672947280812487400,gps,2,1,42.2998779595,-83.6984995367,269.728240967,0.000169,0.0,0.0,0.0,0.000196,0.0,0.0,0.0,0.003025,2
1672947280822747053,80030,1672947280822513890,gps,2,1,42.2998780212,-83.6984995523,269.728485107,0.000169,0.0,0.0,0.0,0.000196,0.0,0.0,0.0,0.003025,2
1672947280832773551,80031,1672947280832571577,gps,2,1,42.2998780815,-83.6984995677,269.728729248,0.000169,0.0,0.0,0.0,0.000196,0.0,0.0,0.0,0.003025,2
1672947280842708273,80032,1672947280842501381,gps,2,1,42.2998781438,-83.6984995836,269.729187012,0.000169,0.0,0.0,0.0,0.000196,0.0,0.0,0.0,0.003025,2
1672947280852741479,80033,1672947280852526448,gps,2,1,42.2998782071,-83.6984995997,269.729431152,0.000169,0.0,0.0,0.0,0.000196,0.0,0.0,0.0,0.003025,2
1672947280862760822,80034,1672947280862555221,gps,2,1,42.299878269,-83.6984996155,269.729644775,0.000169,0.0,0.0,0.0,0.000196,0.0,0.0,0.0,0.003025,2
1672947280872715493,80035,1672947280872497003,gps,2,1,42.299878333,-83.6984996318,269.730102539,0.000169,0.0,0.0,0.0,0.000196,0.0,0.0,0.0,0.003025,2
1672947280882698854,80036,1672947280882502603,gps,2,1,42.299878398,-83.6984996483,269.73034668,0.000169,0.0,0.0,0.0,0.000196,0.0,0.0,0.0,0.003025,2
1672947280892792197,80037,1672947280892570505,gps,2,1,42.2998784615,-83.6984996646,269.73059082,0.000169,0.0,0.0,0.0,0.000196,0.0,0.0,0.0,0.003025,2
1672947280902722907,80038,1672947280902500922,gps,2,1,42.2998785272,-83.6984996813,269.731048584,0.000169,0.0,0.0,0.0,0.000196,0.0,0.0,0.0,0.003025,2
1672947280912725153,80039,1672947280912519240,gps,2,1,42.2998785939,-83.6984996981,269.731292725,0.000169,0.0,0.0,0.0,0.000196,0.0,0.0,0.0,0.003025,2
1672947280922777309,80040,1672947280922558693,gps,2,1,42.2998786591,-83.6984997146,269.731536865,0.000169,0.0,0.0,0.0,0.000196,0.0,0.0,0.0,0.003025,2
1672947280932719433,80041,1672947280932500186,gps,2,1,42.2998787265,-83.6984997317,269.731964111,0.000169,0.0,0.0,0.0,0.000196,0.0,0.0,0.0,0.003025,2
1672947280942757762,80042,1672947280942487834,gps,2,1,42.2998787948,-83.6984997489,269.732208252,0.000169,0.0,0.0,0.0,0.000196,0.0,0.0,0.0,0.003025,2
1672947280952748580,80043,1672947280952536151,gps,2,1,42.2998788618,-83.6984997657,269.732452393,0.000169,0.0,0.0,0.0,0.000196,0.0,0.0,0.0,0.003025,2
1672947280962695728,80044,1672947280962478911,gps,2,1,42.2998789309,-83.6984997831,269.732910156,0.000169,0.0,0.0,0.0,0.000196,0.0,0.0,0.0,0.003025,2
1672947280972709574,80045,1672947280972491644,gps,2,1,42.299879001,-83.6984998006,269.733184814,0.000169,0.0,0.0,0.0,0.000196,0.0,0.0,0.0,0.003025,2
1672947280982840944,80046,1672947280982631974,gps,2,1,42.2998790697,-83.6984998179,269.733428955,0.000169,0.0,0.0,0.0,0.000196,0.0,0.0,0.0,0.003025,2
1672947280992680773,80047,1672947280992474533,gps,2,1,42.2998791406,-83.6984998357,269.733886719,0.000169,0.0,0.0,0.0,0.000196,0.0,0.0,0.0,0.003025,2
1672947281002766162,80048,1672947281002544295,gps,2,1,42.2998792126,-83.6984998536,269.734161377,0.000169,0.0,0.0,0.0,0.000196,0.0,0.0,0.0,0.003025,2
1672947281012814277,80049,1672947281012615779,gps,2,1,42.299879283,-83.6984998712,269.734436035,0.000169,0.0,0.0,0.0,0.000196,0.0,0.0,0.0,0.003025,2
1672947281022777893,80050,1672947281022550049,gps,2,1,42.2998793557,-83.6984998895,269.734893799,0.000169,0.0,0.0,0.0,0.000196,0.0,0.0,0.0,0.003025,2
1672947281032822892,80051,1672947281032603780,gps,2,1,42.2998794294,-83.6984999079,269.735198975,0.000169,0.0,0.0,0.0,0.000196,0.0,0.0,0.0,0.003025,2
1672947281042812821,80052,1672947281042540097,gps,2,1,42.2998795017,-83.6984999261,269.735473633,0.000169,0.0,0.0,0.0,0.000196,0.0,0.0,0.0,0.003025,2
1672947281052809112,80053,1672947281052601736,gps,2,1,42.2998795747,-83.6984999456,269.736175537,0.000169,0.0,0.0,0.0,0.000196,0.0,0.0,0.0,0.003025,2
1672947281062787153,80054,1672947281062581041,gps,2,1,42.2998796504,-83.6984999647,269.736480713,0.000169,0.0,0.0,0.0,0.000196,0.0,0.0,0.0,0.003025,2
1672947281072857554,80055,1672947281072643518,gps,2,1,42.2998797243,-83.6984999832,269.736785889,0.000169,0.0,0.0,0.0,0.000196,0.0,0.0,0.0,0.003025,2
1672947281082696428,80056,1672947281082507441,gps,2,1,42.2998797993,-83.6985000033,269.737487793,0.000169,0.0,0.0,0.0,0.000196,0.0,0.0,0.0,0.003025,2
1672947281092747998,80057,1672947281092540585,gps,2,1,42.2998798769,-83.698500023,269.737792969,0.000169,0.0,0.0,0.0,0.000196,0.0,0.0,0.0,0.003025,2
1672947281102714622,80058,1672947281102493624,gps,2,1,42.2998799528,-83.6985000422,269.738098145,0.000169,0.0,0.0,0.0,0.000196,0.0,0.0,0.0,0.003025,2
1672947281112680897,80059,1672947281112490905,gps,2,1,42.2998800298,-83.6985000629,269.738769531,0.000169,0.0,0.0,0.0,0.000196,0.0,0.0,0.0,0.003025,2
1672947281122712319,80060,1672947281122506038,gps,2,1,42.2998801095,-83.6985000832,269.739105225,0.000169,0.0,0.0,0.0,0.000196,0.0,0.0,0.0,0.003025,2
1672947281132739304,80061,1672947281132563085,gps,2,1,42.2998801873,-83.698500103,269.7394104,0.000169,0.0,0.0,0.0,0.000196,0.0,0.0,0.0,0.003025,2
1672947281142682016,80062,1672947281142471803,gps,2,1,42.2998802667,-83.6985001243,269.740112305,0.000169,0.0,0.0,0.0,0.000196,0.0,0.0,0.0,0.003025,2
1672947281152741326,80063,1672947281152544584,gps,2,1,42.2998803485,-83.6985001453,269.74041748,0.000169,0.0,0.0,0.0,0.000196,0.0,0.0,0.0,0.003025,2
1672947281162687084,80064,1672947281162478567,gps,2,1,42.2998804287,-83.6985001659,269.740722656,0.000169,0.0,0.0,0.0,0.000196,0.0,0.0,0.0,0.003025,2
1672947281172642411,80065,1672947281172465453,gps,2,1,42.2998805103,-83.6985001878,269.741424561,0.000169,0.0,0.0,0.0,0.000196,0.0,0.0,0.0,0.003025,2
1672947281182703162,80066,1672947281182490827,gps,2,1,42.2998805945,-83.6985002096,269.741729736,0.000169,0.0,0.0,0.0,0.000196,0.0,0.0,0.0,0.003025,2
1672947281192708344,80067,1672947281192544089,gps,2,1,42.2998806767,-83.6985002309,269.74206543,0.000169,0.0,0.0,0.0,0.000196,0.0,0.0,0.0,0.003025,2
1672947281202689614,80068,1672947281202488919,gps,2,1,42.2998807607,-83.6985002535,269.742736816,0.000169,0.0,0.0,0.0,0.000196,0.0,0.0,0.0,0.003025,2
1672947281212762641,80069,1672947281212544093,gps,2,1,42.2998808472,-83.698500276,269.743041992,0.000169,0.0,0.0,0.0,0.000196,0.0,0.0,0.0,0.003025,2
1672947281222639516,80070,1672947281222486442,gps,2,1,42.2998809318,-83.6985002979,269.743377686,0.000169,0.0,0.0,0.0,0.000196,0.0,0.0,0.0,0.003025,2
1672947281232805440,80071,1672947281232570713,gps,2,1,42.2998810181,-83.6985003213,269.744018555,0.000169,0.0,0.0,0.0,0.000196,0.0,0.0,0.0,0.003025,2
1672947281242730639,80072,1672947281242484864,gps,2,1,42.2998811071,-83.6985003445,269.744354248,0.000169,0.0,0.0,0.0,0.000196,0.0,0.0,0.0,0.003025,2
1672947281252767362,80073,1672947281252535769,gps,2,1,42.2998811939,-83.6985003671,269.744659424,0.000169,0.0,0.0,0.0,0.000196,0.0,0.0,0.0,0.003025,2
1672947281262724069,80074,1672947281262503052,gps,2,1,42.2998812827,-83.6985003911,269.745300293,0.000169,0.0,0.0,0.0,0.000196,0.0,0.0,0.0,0.003025,2
1672947281272707751,80075,1672947281272491050,gps,2,1,42.299881374,-83.6985004151,269.745635986,0.000169,0.0,0.0,0.0,0.000196,0.0,0.0,0.0,0.003025,2
1672947281282841096,80076,1672947281282631655,gps,2,1,42.2998814633,-83.6985004385,269.74597168,0.000169,0.0,0.0,0.0,0.000196,0.0,0.0,0.0,0.003025,2
1672947281292686549,80077,1672947281292480352,gps,2,1,42.2998815546,-83.6985004634,269.746612549,0.000169,0.0,0.0,0.0,0.000196,0.0,0.0,0.0,0.003025,2
1672947281302701200,80078,1672947281302486598,gps,2,1,42.2998816485,-83.6985004881,269.746948242,0.000169,0.0,0.0,0.0,0.000196,0.0,0.0,0.0,0.003025,2
1672947281312722657,80079,1672947281312533671,gps,2,1,42.2998817401,-83.6985005123,269.747283936,0.000169,0.0,0.0,0.0,0.000196,0.0,0.0,0.0,0.003025,2
1672947281322676333,80080,1672947281322476058,gps,2,1,42.2998818339,-83.6985005379,269.747894287,0.000169,0.0,0.0,0.0,0.000196,0.0,0.0,0.0,0.003025,2
1672947281332733350,80081,1672947281332535725,gps,2,1,42.2998819302,-83.6985005635,269.748260498,0.000169,0.0,0.0,0.0,0.000196,0.0,0.0,0.0,0.003025,2
1672947281342706110,80082,1672947281342493346,gps,2,1,42.2998820245,-83.6985005886,269.748596191,0.000169,0.0,0.0,0.0,0.000196,0.0,0.0,0.0,0.003025,2
1672947281352654932,80083,1672947281352479018,gps,2,1,42.2998821209,-83.6985006151,269.749206543,0.000169,0.0,0.0,0.0,0.000196,0.0,0.0,0.0,0.003025,2
1672947281362692732,80084,1672947281362480512,gps,2,1,42.2998822199,-83.6985006416,269.749542236,0.000169,0.0,0.0,0.0,0.000196,0.0,0.0,0.0,0.003025,2
1672947281372763755,80085,1672947281372557751,gps,2,1,42.2998823166,-83.6985006675,269.74987793,0.000169,0.0,0.0,0.0,0.000196,0.0,0.0,0.0,0.003025,2
1672947281382675129,80086,1672947281382475138,gps,2,1,42.2998824156,-83.6985006949,269.750488281,0.000169,0.0,0.0,0.0,0.000196,0.0,0.0,0.0,0.003025,2
1672947281392775201,80087,1672947281392526135,gps,2,1,42.2998825171,-83.6985007222,269.750854492,0.000169,0.0,0.0,0.0,0.000196,0.0,0.0,0.0,0.003025,2
1672947281402682549,80088,1672947281402481801,gps,2,1,42.2998826165,-83.6985007489,269.751190186,0.000169,0.0,0.0,0.0,0.000196,0.0,0.0,0.0,0.003025,2
1672947281412678236,80089,1672947281412485705,gps,2,1,42.2998827181,-83.6985007772,269.751800537,0.000169,0.0,0.0,0.0,0.000196,0.0,0.0,0.0,0.003025,2
1672947281422688843,80090,1672947281422464031,gps,2,1,42.2998828222,-83.6985008056,269.752166748,0.000169,0.0,0.0,0.0,0.000196,0.0,0.0,0.0,0.003025,2
1672947281432736406,80091,1672947281432563367,gps,2,1,42.2998829242,-83.6985008329,269.752532959,0.000169,0.0,0.0,0.0,0.000196,0.0,0.0,0.0,0.003025,2
1672947281442691112,80092,1672947281442489406,gps,2,1,42.2998830284,-83.6985008621,269.753112793,0.000169,0.0,0.0,0.0,0.000196,0.0,0.0,0.0,0.003025,2
1672947281452688763,80093,1672947281452461313,gps,2,1,42.2998831352,-83.6985008914,269.753479004,0.000169,0.0,0.0,0.0,0.000196,0.0,0.0,0.0,0.003025,2
1672947281462755249,80094,1672947281462554880,gps,2,1,42.2998832398,-83.6985009197,269.753845215,0.000169,0.0,0.0,0.0,0.000196,0.0,0.0,0.0,0.003025,2
1672947281472661959,80095,1672947281472464099,gps,2,1,42.2998833466,-83.6985009499,269.754455566,0.000169,0.0,0.0,0.0,0.000196,0.0,0.0,0.0,0.003025,2
1672947281482785442,80096,1672947281482570699,gps,2,1,42.2998834559,-83.6985009801,269.754821777,0.000169,0.0,0.0,0.0,0.000196,0.0,0.0,0.0,0.003025,2
1672947281492718237,80097,1672947281492520689,gps,2,1,42.2998835632,-83.6985010093,269.755218506,0.000169,0.0,0.0,0.0,0.000196,0.0,0.0,0.0,0.003025,2
1672947281502672896,80098,1672947281502474536,gps,2,1,42.2998836726,-83.6985010404,269.75579834,0.000169,0.0,0.0,0.0,0.000196,0.0,0.0,0.0,0.003025,2
1672947281512783466,80099,1672947281512570792,gps,2,1,42.2998837846,-83.6985010716,269.756195068,0.000169,0.0,0.0,0.0,0.000196,0.0,0.0,0.0,0.003025,2
1672947281522755361,80100,1672947281522559344,gps,2,1,42.2998838945,-83.6985011019,269.756591797,0.000169,0.0,0.0,0.0,0.000196,0.0,0.0,0.0,0.003025,2
1672947281532692074,80101,1672947281532481677,gps,2,1,42.2998840064,-83.6985011346,269.757354736,0.000169,0.0,0.0,0.0,0.000196,0.0,0.0,0.0,0.003025,2
1672947281542742756,80102,1672947281542557987,gps,2,1,42.2998841211,-83.6985011666,269.757781982,0.000169,0.0,0.0,0.0,0.000196,0.0,0.0,0.0,0.003025,2
1672947281552910894,80103,1672947281552697781,gps,2,1,42.2998842337,-83.6985011979,269.758209229,0.000169,0.0,0.0,0.0,0.000196,0.0,0.0,0.0,0.003025,2
1672947281562692165,80104,1672947281562494845,gps,2,1,42.2998843484,-83.6985012315,269.758972168,0.000169,0.0,0.0,0.0,0.000196,0.0,0.0,0.0,0.003025,2
1672947281572728592,80105,1672947281572539751,gps,2,1,42.2998844658,-83.698501264,269.759399414,0.000169,0.0,0.0,0.0,0.000196,0.0,0.0,0.0,0.003025,2
1672947281582673533,80106,1672947281582461289,gps,2,1,42.299884581,-83.6985012963,269.75982666,0.000169,0.0,0.0,0.0,0.000196,0.0,0.0,0.0,0.003025,2
1672947281592706362,80107,1672947281592526211,gps,2,1,42.2998846984,-83.6985013305,269.7605896,0.000169,0.0,0.0,0.0,0.000196,0.0,0.0,0.0,0.003025,2
1672947281602690594,80108,1672947281602482775,gps,2,1,42.2998848185,-83.698501364,269.761016846,0.000169,0.0,0.0,0.0,0.000196,0.0,0.0,0.0,0.003025,2
1672947281612741738,80109,1672947281612535161,gps,2,1,42.2998849364,-83.6985013968,269.761444092,0.000169,0.0,0.0,0.0,0.000196,0.0,0.0,0.0,0.003025,2
1672947281622689351,80110,1672947281622467944,gps,2,1,42.2998850566,-83.6985014316,269.762207031,0.000169,0.0,0.0,0.0,0.000196,0.0,0.0,0.0,0.003025,2
1672947281632669720,80111,1672947281632463929,gps,2,1,42.2998851794,-83.6985014658,269.762634277,0.000169,0.0,0.0,0.0,0.000196,0.0,0.0,0.0,0.003025,2
1672947281642741874,80112,1672947281642535825,gps,2,1,42.2998853001,-83.6985014992,269.763092041,0.000169,0.0,0.0,0.0,0.000196,0.0,0.0,0.0,0.003025,2
1672947281652650861,80113,1672947281652469129,gps,2,1,42.2998854228,-83.6985015348,269.763824463,0.000169,0.0,0.0,0.0,0.000196,0.0,0.0,0.0,0.003025,2
1672947281662636724,80114,1672947281662469277,gps,2,1,42.2998855485,-83.6985015696,269.764282227,0.000169,0.0,0.0,0.0,0.000196,0.0,0.0,0.0,0.003025,2
1672947281672748619,80115,1672947281672529353,gps,2,1,42.2998856718,-83.6985016037,269.76473999,0.000169,0.0,0.0,0.0,0.000196,0.0,0.0,0.0,0.003025,2
1672947281682704931,80116,1672947281682465188,gps,2,1,42.2998857973,-83.69850164,269.765472412,0.000169,0.0,0.0,0.0,0.000196,0.0,0.0,0.0,0.003025,2
1672947281692722565,80117,1672947281692515968,gps,2,1,42.2998859256,-83.6985016754,269.765960693,0.000169,0.0,0.0,0.0,0.000196,0.0,0.0,0.0,0.003025,2
1672947281702727477,80118,1672947281702509943,gps,2,1,42.2998860516,-83.6985017104,269.766387939,0.000169,0.0,0.0,0.0,0.000196,0.0,0.0,0.0,0.003025,2
1672947281712694080,80119,1672947281712484608,gps,2,1,42.2998861799,-83.6985017473,269.767120361,0.000169,0.0,0.0,0.0,0.000196,0.0,0.0,0.0,0.003025,2
1672947281722640670,80120,1672947281722451743,gps,2,1,42.2998863109,-83.6985017836,269.767578125,0.000169,0.0,0.0,0.0,0.000196,0.0,0.0,0.0,0.003025,2
1672947281732807728,80121,1672947281732598579,gps,2,1,42.2998864397,-83.6985018193,269.768035889,0.000169,0.0,0.0,0.0,0.000196,0.0,0.0,0.0,0.003025,2
1672947281742623542,80122,1672947281742430262,gps,2,1,42.2998865707,-83.6985018569,269.768737793,0.000169,0.0,0.0,0.0,0.000196,0.0,0.0,0.0,0.003025,2
1672947281752710346,80123,1672947281752516265,gps,2,1,42.2998867045,-83.6985018939,269.769226074,0.000169,0.0,0.0,0.0,0.000196,0.0,0.0,0.0,0.003025,2
1672947281762697767,80124,1672947281762495375,gps,2,1,42.2998868359,-83.6985019303,269.769683838,0.000169,0.0,0.0,0.0,0.000196,0.0,0.0,0.0,0.003025,2
1672947281772664111,80125,1672947281772464725,gps,2,1,42.2998869696,-83.6985019687,269.77041626,0.000169,0.0,0.0,0.0,0.000196,0.0,0.0,0.0,0.003025,2
1672947281782677937,80126,1672947281782464821,gps,2,1,42.299887106,-83.6985020066,269.770874023,0.000169,0.0,0.0,0.0,0.000196,0.0,0.0,0.0,0.003025,2
1672947281792709794,80127,1672947281792518459,gps,2,1,42.2998872402,-83.6985020437,269.771362305,0.000169,0.0,0.0,0.0,0.000196,0.0,0.0,0.0,0.003025,2
1672947281802677123,80128,1672947281802463795,gps,2,1,42.2998873767,-83.6985020828,269.772064209,0.000169,0.0,0.0,0.0,0.000196,0.0,0.0,0.0,0.003025,2
1672947281812723916,80129,1672947281812523082,gps,2,1,42.2998875157,-83.6985021216,269.772583008,0.000169,0.0,0.0,0.0,0.000196,0.0,0.0,0.0,0.003025,2
1672947281822647121,80130,1672947281822456093,gps,2,1,42.2998876526,-83.6985021595,269.773040771,0.000169,0.0,0.0,0.0,0.000196,0.0,0.0,0.0,0.003025,2
1672947281832666287,80131,1672947281832448428,gps,2,1,42.2998877917,-83.6985021995,269.773773193,0.000169,0.0,0.0,0.0,0.000196,0.0,0.0,0.0,0.003025,2
1672947281842694458,80132,1672947281842467716,gps,2,1,42.2998879336,-83.6985022393,269.774291992,0.000169,0.0,0.0,0.0,0.000196,0.0,0.0,0.0,0.003025,2
1672947281852684650,80133,1672947281852498422,gps,2,1,42.2998880732,-83.6985022778,269.774780273,0.000169,0.0,0.0,0.0,0.000196,0.0,0.0,0.0,0.003025,2
1672947281862664689,80134,1672947281862458633,gps,2,1,42.2998882151,-83.6985023189,269.775543213,0.000169,0.0,0.0,0.0,0.000196,0.0,0.0,0.0,0.003025,2
1672947281872716421,80135,1672947281872526570,gps,2,1,42.2998883599,-83.6985023595,269.776092529,0.000169,0.0,0.0,0.0,0.000196,0.0,0.0,0.0,0.003025,2
1672947281882659197,80136,1672947281882450709,gps,2,1,42.2998885021,-83.6985023994,269.776611328,0.000169,0.0,0.0,0.0,0.000196,0.0,0.0,0.0,0.003025,2
1672947281892676158,80137,1672947281892443286,gps,2,1,42.299888647,-83.6985024416,269.777374268,0.000169,0.0,0.0,0.0,0.000196,0.0,0.0,0.0,0.003025,2
1672947281902709857,80138,1672947281902448308,gps,2,1,42.2998887945,-83.6985024833,269.777923584,0.000169,0.0,0.0,0.0,0.000196,0.0,0.0,0.0,0.003025,2
1672947281912727537,80139,1672947281912514650,gps,2,1,42.2998889395,-83.6985025244,269.7784729,0.000169,0.0,0.0,0.0,0.000196,0.0,0.0,0.0,0.003025,2
1672947281922651686,80140,1672947281922448983,gps,2,1,42.2998890871,-83.6985025675,269.779266357,0.000169,0.0,0.0,0.0,0.000196,0.0,0.0,0.0,0.003025,2
1672947281932698059,80141,1672947281932501042,gps,2,1,42.2998892373,-83.6985026105,269.779846191,0.000169,0.0,0.0,0.0,0.000196,0.0,0.0,0.0,0.003025,2
1672947281942643834,80142,1672947281942452684,gps,2,1,42.2998893851,-83.6985026523,269.780395508,0.000169,0.0,0.0,0.0,0.000196,0.0,0.0,0.0,0.003025,2
1672947281952648651,80143,1672947281952444461,gps,2,1,42.2998895354,-83.6985026963,269.781188965,0.000169,0.0,0.0,0.0,0.000196,0.0,0.0,0.0,0.003025,2
1672947281962642244,80144,1672947281962446559,gps,2,1,42.2998896881,-83.69850274,269.781799316,0.000169,0.0,0.0,0.0,0.000196,0.0,0.0,0.0,0.003025,2
1672947281972706952,80145,1672947281972502544,gps,2,1,42.2998898387,-83.6985027827,269.78237915,0.000169,0.0,0.0,0.0,0.000196,0.0,0.0,0.0,0.003025,2
1672947281982748662,80146,1672947281982539364,gps,2,1,42.2998899916,-83.6985028275,269.783203125,0.000169,0.0,0.0,0.0,0.000196,0.0,0.0,0.0,0.003025,2
1672947281992699558,80147,1672947281992515330,gps,2,1,42.299890147,-83.6985028716,269.783813477,0.000169,0.0,0.0,0.0,0.000196,0.0,0.0,0.0,0.003025,2
1672947282002704148,80148,1672947282002513007,gps,2,1,42.2998903002,-83.6985029151,269.784423828,0.000169,0.0,0.0,0.0,0.000196,0.0,0.0,0.0,0.003025,2
1672947282012676946,80149,1672947282012467631,gps,2,1,42.2998904548,-83.6985029624,269.785095215,0.000169,0.0,0.0,0.0,0.000196,0.0,0.0,0.0,0.003025,2
1672947282022728482,80150,1672947282022507310,gps,2,1,42.2998906128,-83.6985030069,269.785736084,0.000169,0.0,0.0,0.0,0.000196,0.0,0.0,0.0,0.003025,2
1672947282032800772,80151,1672947282032576774,gps,2,1,42.2998907686,-83.6985030511,269.786376953,0.000169,0.0,0.0,0.0,0.000196,0.0,0.0,0.0,0.003025,2
1672947282042689092,80152,1672947282042461815,gps,2,1,42.2998909258,-83.6985030987,269.78704834,0.000169,0.0,0.0,0.0,0.000196,0.0,0.0,0.0,0.003025,2
1672947282052812302,80153,1672947282052600445,gps,2,1,42.2998910864,-83.6985031433,269.787689209,0.000169,0.0,0.0,0.0,0.000196,0.0,0.0,0.0,0.003025,2
1672947282062799974,80154,1672947282062567382,gps,2,1,42.2998912447,-83.6985031881,269.788330078,0.000169,0.0,0.0,0.0,0.000196,0.0,0.0,0.0,0.003025,2
1672947282072710192,80155,1672947282072451462,gps,2,1,42.2998914044,-83.6985032358,269.789031982,0.000169,0.0,0.0,0.0,0.000196,0.0,0.0,0.0,0.003025,2
1672947282082755077,80156,1672947282082501265,gps,2,1,42.2998915674,-83.698503281,269.789672852,0.000169,0.0,0.0,0.0,0.000196,0.0,0.0,0.0,0.003025,2
1672947282092782257,80157,1672947282092571116,gps,2,1,42.2998917285,-83.6985033261,269.790313721,0.000169,0.0,0.0,0.0,0.000196,0.0,0.0,0.0,0.003025,2
1672947282102659299,80158,1672947282102453318,gps,2,1,42.2998918908,-83.6985033742,269.790985107,0.000169,0.0,0.0,0.0,0.000196,0.0,0.0,0.0,0.003025,2
1672947282112678031,80159,1672947282112481878,gps,2,1,42.2998920563,-83.6985034201,269.791595459,0.000169,0.0,0.0,0.0,0.000196,0.0,0.0,0.0,0.003025,2
1672947282122779067,80160,1672947282122563146,gps,2,1,42.2998922197,-83.6985034656,269.792205811,0.000169,0.0,0.0,0.0,0.000196,0.0,0.0,0.0,0.003025,2
1672947282132687851,80161,1672947282132461306,gps,2,1,42.2998923846,-83.6985035143,269.79284668,0.000169,0.0,0.0,0.0,0.000196,0.0,0.0,0.0,0.003025,2
1672947282142729950,80162,1672947282142508309,gps,2,1,42.2998925526,-83.6985035609,269.793426514,0.000169,0.0,0.0,0.0,0.000196,0.0,0.0,0.0,0.003025,2
1672947282152792493,80163,1672947282152547473,gps,2,1,42.2998927186,-83.6985036066,269.794067383,0.000169,0.0,0.0,0.0,0.000196,0.0,0.0,0.0,0.003025,2
1672947282162647995,80164,1672947282162443572,gps,2,1,42.2998928861,-83.6985036559,269.794677734,0.000169,0.0,0.0,0.0,0.000196,0.0,0.0,0.0,0.003025,2
1672947282172707017,80165,1672947282172470885,gps,2,1,42.2998930567,-83.6985037032,269.795227051,0.000169,0.0,0.0,0.0,0.000196,0.0,0.0,0.0,0.003025,2
1672947282182839968,80166,1672947282182592025,gps,2,1,42.2998932251,-83.6985037499,269.795806885,0.000169,0.0,0.0,0.0,0.000196,0.0,0.0,0.0,0.003025,2
1672947282192690728,80167,1672947282192470041,gps,2,1,42.2998933952,-83.6985038,269.796386719,0.000169,0.0,0.0,0.0,0.000196,0.0,0.0,0.0,0.003025,2
1672947282202726596,80168,1672947282202468768,gps,2,1,42.2998935682,-83.6985038485,269.796966553,0.000169,0.0,0.0,0.0,0.000196,0.0,0.0,0.0,0.003025,2
1672947282212720121,80169,1672947282212498493,gps,2,1,42.2998937391,-83.6985038961,269.797515869,0.000169,0.0,0.0,0.0,0.000196,0.0,0.0,0.0,0.003025,2
1672947282222647891,80170,1672947282222432206,gps,2,1,42.2998939117,-83.6985039474,269.798126221,0.000169,0.0,0.0,0.0,0.000196,0.0,0.0,0.0,0.003025,2
1672947282232750953,80171,1672947282232539592,gps,2,1,42.2998940871,-83.6985039973,269.798736572,0.000169,0.0,0.0,0.0,0.000196,0.0,0.0,0.0,0.003025,2
1672947282242703701,80172,1672947282242502467,gps,2,1,42.2998942605,-83.6985040461,269.799285889,0.000169,0.0,0.0,0.0,0.000196,0.0,0.0,0.0,0.003025,2
1672947282252743035,80173,1672947282252504014,gps,2,1,42.2998944355,-83.6985040986,269.799957275,0.000169,0.0,0.0,0.0,0.000196,0.0,0.0,0.0,0.003025,2
1672947282262670594,80174,1672947282262455092,gps,2,1,42.2998946132,-83.6985041498,269.800567627,0.000169,0.0,0.0,0.0,0.000196,0.0,0.0,0.0,0.003025,2
1672947282272740628,80175,1672947282272491469,gps,2,1,42.299894789,-83.6985041997,269.801177979,0.000169,0.0,0.0,0.0,0.000196,0.0,0.0,0.0,0.003025,2
1672947282282627083,80176,1672947282282436512,gps,2,1,42.2998949664,-83.6985042534,269.801849365,0.000169,0.0,0.0,0.0,0.000196,0.0,0.0,0.0,0.003025,2
1672947282292710176,80177,1672947282292470228,gps,2,1,42.2998951465,-83.6985043056,269.80255127,0.000169,0.0,0.0,0.0,0.000196,0.0,0.0,0.0,0.003025,2
