%time,field.header.seq,field.header.stamp,field.header.frame_id,field.status.status,field.status.service,field.latitude,field.longitude,field.altitude,field.position_covariance0,field.position_covariance1,field.position_covariance2,field.position_covariance3,field.position_covariance4,field.position_covariance5,field.position_covariance6,field.position_covariance7,field.position_covariance8,field.position_covariance_type
1672947559342158110,284991,1672947559340868580,gps,2,1,42.3009706435,-83.6977429178,272.797821045,0.0009,0.0,0.0,0.0,0.0009,0.0,0.0,0.0,0.005184,2
1672947559362149756,284992,1672947559360955021,gps,2,1,42.3009706433,-83.6977429172,272.797912598,0.0009,0.0,0.0,0.0,0.0009,0.0,0.0,0.0,0.005184,2
1672947559382179439,284993,1672947559380965424,gps,2,1,42.3009706429,-83.6977429166,272.798034668,0.0009,0.0,0.0,0.0,0.0009,0.0,0.0,0.0,0.005184,2
1672947559402143438,284994,1672947559400908326,gps,2,1,42.300970643,-83.6977429161,272.798034668,0.0009,0.0,0.0,0.0,0.0009,0.0,0.0,0.0,0.005184,2
1672947559421974077,284995,1672947559420952884,gps,2,1,42.3009706426,-83.6977429155,272.798126221,0.0009,0.0,0.0,0.0,0.0009,0.0,0.0,0.0,0.005184,2
1672947559441878565,284996,1672947559440906380,gps,2,1,42.3009706422,-83.697742915,272.798248291,0.0009,0.0,0.0,0.0,0.0009,0.0,0.0,0.0,0.005184,2
1672947559462035883,284997,1672947559460969182,gps,2,1,42.3009706423,-83.6977429144,272.798248291,0.0009,0.0,0.0,0.0,0.0009,0.0,0.0,0.0,0.005184,2
1672947559482230029,284998,1672947559480963458,gps,2,1,42.3009706416,-83.6977429141,272.798370361,0.0009,0.0,0.0,0.0,0.0009,0.0,0.0,0.0,0.005184,2
1672947559502163124,284999,1672947559500977317,gps,2,1,42.300970641,-83.6977429138,272.798492432,0.0009,0.0,0.0,0.0,0.0009,0.0,0.0,0.0,0.005184,2
1672947559522180608,285000,1672947559521000279,gps,2,1,42.300970641,-83.6977429133,272.798492432,0.0009,0.0,0.0,0.0,0.0009,0.0,0.0,0.0,0.005184,2
1672947559542445945,285001,1672947559541060120,gps,2,1,42.3009706407,-83.6977429133,272.798736572,0.0009,0.0,0.0,0.0,0.0009,0.0,0.0,0.0,0.005184,2
1672947559562217877,285002,1672947559560915125,gps,2,1,42.3009706395,-83.6977429133,272.79888916,0.0009,0.0,0.0,0.0,0.0009,0.0,0.0,0.0,0.005184,2
1672947559581905743,285003,1672947559580878545,gps,2,1,42.3009706393,-83.6977429134,272.79888916,0.0009,0.0,0.0,0.0,0.0009,0.0,0.0,0.0,0.005184,2
1672947559601916404,285004,1672947559600976658,gps,2,1,42.3009706379,-83.6977429142,272.799041748,0.0009,0.0,0.0,0.0,0.0009,0.0,0.0,0.0,0.005184,2
1672947559622110818,285005,1672947559620847373,gps,2,1,42.3009706369,-83.6977429154,272.799194336,0.0009,0.0,0.0,0.0,0.0009,0.0,0.0,0.0,0.005184,2
1672947559642258699,285006,1672947559640911366,gps,2,1,42.3009706365,-83.6977429176,272.799163818,0.0009,0.0,0.0,0.0,0.0009,0.0,0.0,0.0,0.005184,2
1672947559662143847,285007,1672947559660844537,gps,2,1,42.3009706352,-83.6977429221,272.799285889,0.0009,0.0,0.0,0.0,0.0009,0.0,0.0,0.0,0.005184,2
1672947559681941011,285008,1672947559680870157,gps,2,1,42.300970634,-83.6977429267,272.799377441,0.0009,0.0,0.0,0.0,0.0009,0.0,0.0,0.0,0.005184,2
1672947559701850800,285009,1672947559700912449,gps,2,1,42.3009706335,-83.6977429332,272.799316406,0.0009,0.0,0.0,0.0,0.0009,0.0,0.0,0.0,0.005184,2
1672947559721906199,285010,1672947559720913835,gps,2,1,42.300970631,-83.6977429439,272.799224854,0.0009,0.0,0.0,0.0,0.0009,0.0,0.0,0.0,0.005184,2
1672947559741784697,285011,1672947559740884109,gps,2,1,42.3009706284,-83.6977429546,272.799133301,0.0009,0.0,0.0,0.0,0.0009,0.0,0.0,0.0,0.005184,2
1672947559762274162,285012,1672947559761034197,gps,2,1,42.3009706278,-83.6977429666,272.79901123,0.001089,0.0,0.0,0.0,0.001089,0.0,0.0,0.0,0.005625,2
1672947559782317761,285013,1672947559780910393,gps,2,1,42.300970625,-83.6977429828,272.79888916,0.001089,0.0,0.0,0.0,0.001089,0.0,0.0,0.0,0.005625,2
1672947559802149679,285014,1672947559800827560,gps,2,1,42.300970625,-83.6977429974,272.79888916,0.001089,0.0,0.0,0.0,0.001089,0.0,0.0,0.0,0.005625,2
1672947559822063033,285015,1672947559820857971,gps,2,1,42.300970624,-83.6977430156,272.798736572,0.001089,0.0,0.0,0.0,0.001089,0.0,0.0,0.0,0.005625,2
1672947559842326923,285016,1672947559840858810,gps,2,1,42.3009706237,-83.6977430368,272.798706055,0.001089,0.0,0.0,0.0,0.001089,0.0,0.0,0.0,0.005625,2
1672947559862083159,285017,1672947559860869461,gps,2,1,42.3009706232,-83.6977430582,272.798675537,0.001089,0.0,0.0,0.0,0.001089,0.0,0.0,0.0,0.005625,2
1672947559881898580,285018,1672947559880840668,gps,2,1,42.3009706218,-83.6977430838,272.798522949,0.001089,0.0,0.0,0.0,0.001089,0.0,0.0,0.0,0.005625,2
1672947559902163963,285019,1672947559900919592,gps,2,1,42.3009706208,-83.6977431134,272.798492432,0.001089,0.0,0.0,0.0,0.001089,0.0,0.0,0.0,0.005625,2
1672947559922242451,285020,1672947559920842346,gps,2,1,42.3009706198,-83.697743143,272.798431396,0.001089,0.0,0.0,0.0,0.001089,0.0,0.0,0.0,0.005625,2
1672947559942150920,285021,1672947559940954722,gps,2,1,42.300970618,-83.6977431769,272.798278809,0.001089,0.0,0.0,0.0,0.001089,0.0,0.0,0.0,0.005625,2
1672947559962063973,285022,1672947559960845931,gps,2,1,42.3009706166,-83.6977432151,272.798217773,0.001089,0.0,0.0,0.0,0.001089,0.0,0.0,0.0,0.005625,2
1672947559982011144,285023,1672947559980855949,gps,2,1,42.3009706136,-83.6977432556,272.798095703,0.001089,0.0,0.0,0.0,0.001089,0.0,0.0,0.0,0.005625,2
1672947560001886486,285024,1672947560000919745,gps,2,1,42.3009706115,-83.6977432983,272.797912598,0.001089,0.0,0.0,0.0,0.001089,0.0,0.0,0.0,0.005625,2
1672947560022297380,285025,1672947560021018069,gps,2,1,42.3009706084,-83.6977433474,272.797790527,0.001089,0.0,0.0,0.0,0.001089,0.0,0.0,0.0,0.005625,2
1672947560042301564,285026,1672947560040912832,gps,2,1,42.3009706053,-83.697743397,272.797637939,0.001089,0.0,0.0,0.0,0.001089,0.0,0.0,0.0,0.005625,2
1672947560062193551,285027,1672947560061011751,gps,2,1,42.3009706029,-83.6977434488,272.797485352,0.001089,0.0,0.0,0.0,0.001089,0.0,0.0,0.0,0.005625,2
1672947560082182400,285028,1672947560080931491,gps,2,1,42.3009705997,-83.6977435074,272.797363281,0.001089,0.0,0.0,0.0,0.001089,0.0,0.0,0.0,0.005625,2
1672947560102092374,285029,1672947560100848820,gps,2,1,42.3009705989,-83.6977435643,272.797363281,0.001089,0.0,0.0,0.0,0.001089,0.0,0.0,0.0,0.005625,2
1672947560122308319,285030,1672947560120976857,gps,2,1,42.3009705963,-83.6977436262,272.797180176,0.001089,0.0,0.0,0.0,0.001089,0.0,0.0,0.0,0.005625,2
1672947560142165858,285031,1672947560140896577,gps,2,1,42.3009705952,-83.6977436931,272.797180176,0.001089,0.0,0.0,0.0,0.001089,0.0,0.0,0.0,0.005625,2
1672947560162145574,285032,1672947560160917926,gps,2,1,42.300970594,-83.6977437602,272.797149658,0.001089,0.0,0.0,0.0,0.001089,0.0,0.0,0.0,0.005625,2
1672947560182139628,285033,1672947560180898292,gps,2,1,42.3009705912,-83.6977438323,272.796966553,0.001089,0.0,0.0,0.0,0.001089,0.0,0.0,0.0,0.005625,2
1672947560202203429,285034,1672947560200884182,gps,2,1,42.3009705863,-83.6977439118,272.796783447,0.001089,0.0,0.0,0.0,0.001089,0.0,0.0,0.0,0.005625,2
1672947560222050719,285035,1672947560220897489,gps,2,1,42.3009705816,-83.6977439918,272.796600342,0.001089,0.0,0.0,0.0,0.001089,0.0,0.0,0.0,0.005625,2
1672947560242157846,285036,1672947560240943176,gps,2,1,42.300970578,-83.6977440731,272.796447754,0.001089,0.0,0.0,0.0,0.001089,0.0,0.0,0.0,0.005625,2
1672947560262302520,285037,1672947560260973862,gps,2,1,42.3009705722,-83.6977441613,272.796325684,0.001089,0.0,0.0,0.0,0.001089,0.0,0.0,0.0,0.005625,2
1672947560281811045,285038,1672947560280910398,gps,2,1,42.3009705664,-83.6977442497,272.796173096,0.001089,0.0,0.0,0.0,0.001089,0.0,0.0,0.0,0.005625,2
1672947560302231568,285039,1672947560300944735,gps,2,1,42.3009705615,-83.6977443397,272.796051025,0.001089,0.0,0.0,0.0,0.001089,0.0,0.0,0.0,0.005625,2
1672947560322197843,285040,1672947560320871372,gps,2,1,42.3009705561,-83.6977444344,272.79598999,0.001089,0.0,0.0,0.0,0.001089,0.0,0.0,0.0,0.005625,2
1672947560341967906,285041,1672947560340865651,gps,2,1,42.3009705507,-83.6977445297,272.795928955,0.001089,0.0,0.0,0.0,0.001089,0.0,0.0,0.0,0.005625,2
1672947560362087996,285042,1672947560360943614,gps,2,1,42.3009705452,-83.6977446266,272.795806885,0.001089,0.0,0.0,0.0,0.001089,0.0,0.0,0.0,0.005625,2
1672947560381999069,285043,1672947560380876266,gps,2,1,42.3009705397,-83.6977447273,272.795806885,0.001089,0.0,0.0,0.0,0.001089,0.0,0.0,0.0,0.005625,2
1672947560402006513,285044,1672947560400860084,gps,2,1,42.3009705335,-83.6977448289,272.79574585,0.001089,0.0,0.0,0.0,0.001089,0.0,0.0,0.0,0.005625,2
1672947560421817953,285045,1672947560420944559,gps,2,1,42.3009705284,-83.6977449311,272.795715332,0.001089,0.0,0.0,0.0,0.001089,0.0,0.0,0.0,0.005625,2
1672947560441861340,285046,1672947560440868621,gps,2,1,42.300970523,-83.6977450369,272.795715332,0.001089,0.0,0.0,0.0,0.001089,0.0,0.0,0.0,0.005625,2
1672947560461723968,285047,1672947560460868796,gps,2,1,42.3009705177,-83.697745143,272.795715332,0.001089,0.0,0.0,0.0,0.001089,0.0,0.0,0.0,0.005625,2
1672947560482169226,285048,1672947560480922368,gps,2,1,42.3009705132,-83.6977452495,272.795684814,0.001089,0.0,0.0,0.0,0.001089,0.0,0.0,0.0,0.005625,2
1672947560501948478,285049,1672947560500948883,gps,2,1,42.3009705094,-83.6977453584,272.795715332,0.001089,0.0,0.0,0.0,0.001089,0.0,0.0,0.0,0.005625,2
1672947560522166009,285050,1672947560521023845,gps,2,1,42.3009705056,-83.6977454673,272.795715332,0.001089,0.0,0.0,0.0,0.001089,0.0,0.0,0.0,0.005625,2
1672947560541844294,285051,1672947560540968261,gps,2,1,42.3009705003,-83.6977455779,272.795654297,0.001089,0.0,0.0,0.0,0.001089,0.0,0.0,0.0,0.005625,2
1672947560561855917,285052,1672947560560963472,gps,2,1,42.3009704955,-83.6977456914,272.795593262,0.001089,0.0,0.0,0.0,0.001089,0.0,0.0,0.0,0.005625,2
1672947560581672472,285053,1672947560580804406,gps,2,1,42.3009704905,-83.6977458049,272.795562744,0.001089,0.0,0.0,0.0,0.001089,0.0,0.0,0.0,0.005625,2
1672947560602326619,285054,1672947560601067335,gps,2,1,42.3009704839,-83.69774592,272.795379639,0.001089,0.0,0.0,0.0,0.001089,0.0,0.0,0.0,0.005625,2
1672947560622130915,285055,1672947560620947103,gps,2,1,42.3009704777,-83.6977460381,272.795257568,0.001089,0.0,0.0,0.0,0.001089,0.0,0.0,0.0,0.005625,2
1672947560642106516,285056,1672947560640846526,gps,2,1,42.3009704724,-83.697746156,272.795227051,0.001089,0.0,0.0,0.0,0.001089,0.0,0.0,0.0,0.005625,2
1672947560662051904,285057,1672947560660939788,gps,2,1,42.300970465,-83.6977462765,272.795074463,0.001089,0.0,0.0,0.0,0.001089,0.0,0.0,0.0,0.005625,2
1672947560682168614,285058,1672947560680965435,gps,2,1,42.3009704593,-83.6977464005,272.79510498,0.001089,0.0,0.0,0.0,0.001089,0.0,0.0,0.0,0.005625,2
1672947560702137537,285059,1672947560700945840,gps,2,1,42.3009704528,-83.6977465255,272.795074463,0.001089,0.0,0.0,0.0,0.001089,0.0,0.0,0.0,0.005625,2
1672947560721930545,285060,1672947560720921378,gps,2,1,42.3009704454,-83.6977466533,272.794952393,0.001089,0.0,0.0,0.0,0.001089,0.0,0.0,0.0,0.005625,2
1672947560742125363,285061,1672947560740954161,gps,2,1,42.3009704392,-83.697746786,272.794952393,0.001089,0.0,0.0,0.0,0.001089,0.0,0.0,0.0,0.005625,2
1672947560762352891,285062,1672947560760929845,gps,2,1,42.3009704315,-83.6977469201,272.79473877,0.001089,0.0,0.0,0.0,0.001089,0.0,0.0,0.0,0.005625,2
1672947560782244893,285063,1672947560780952238,gps,2,1,42.3009704246,-83.6977470567,272.794616699,0.001089,0.0,0.0,0.0,0.001089,0.0,0.0,0.0,0.005625,2
1672947560802058767,285064,1672947560800879575,gps,2,1,42.3009704176,-83.6977471998,272.794372559,0.001089,0.0,0.0,0.0,0.001089,0.0,0.0,0.0,0.005625,2
1672947560821844573,285065,1672947560820849516,gps,2,1,42.3009704105,-83.6977473435,272.7940979,0.001089,0.0,0.0,0.0,0.001089,0.0,0.0,0.0,0.005625,2
1672947560842359695,285066,1672947560840914192,gps,2,1,42.3009704042,-83.6977474903,272.793884277,0.001089,0.0,0.0,0.0,0.001089,0.0,0.0,0.0,0.005625,2
1672947560861822578,285067,1672947560860823299,gps,2,1,42.3009703973,-83.6977476445,272.793487549,0.001089,0.0,0.0,0.0,0.001089,0.0,0.0,0.0,0.005625,2
1672947560882214487,285068,1672947560880842353,gps,2,1,42.3009703926,-83.6977477973,272.793212891,0.001089,0.0,0.0,0.0,0.001089,0.0,0.0,0.0,0.005625,2
1672947560902233810,285069,1672947560900893661,gps,2,1,42.3009703858,-83.6977479564,272.792816162,0.001089,0.0,0.0,0.0,0.001089,0.0,0.0,0.0,0.005625,2
1672947560922173268,285070,1672947560920870494,gps,2,1,42.30097038,-83.6977481221,272.792419434,0.001089,0.0,0.0,0.0,0.001089,0.0,0.0,0.0,0.005625,2
1672947560942174702,285071,1672947560940931364,gps,2,1,42.3009703742,-83.6977482885,272.79196167,0.001089,0.0,0.0,0.0,0.001089,0.0,0.0,0.0,0.005625,2
1672947560962036866,285072,1672947560960929773,gps,2,1,42.3009703662,-83.6977484619,272.791412354,0.001089,0.0,0.0,0.0,0.001089,0.0,0.0,0.0,0.005625,2
1672947560981841235,285073,1672947560980918124,gps,2,1,42.3009703591,-83.6977486432,272.790863037,0.001089,0.0,0.0,0.0,0.001089,0.0,0.0,0.0,0.005625,2
1672947561001779391,285074,1672947561000908010,gps,2,1,42.3009703505,-83.6977488267,272.79019165,0.001089,0.0,0.0,0.0,0.001089,0.0,0.0,0.0,0.005625,2
1672947561022235893,285075,1672947561020977528,gps,2,1,42.3009703414,-83.6977490166,272.789581299,0.001089,0.0,0.0,0.0,0.001089,0.0,0.0,0.0,0.005625,2
1672947561041954591,285076,1672947561040884534,gps,2,1,42.3009703318,-83.6977492169,272.788879395,0.001089,0.0,0.0,0.0,0.001089,0.0,0.0,0.0,0.005625,2
1672947561062189814,285077,1672947561061014432,gps,2,1,42.3009703221,-83.6977494181,272.78817749,0.001089,0.0,0.0,0.0,0.001089,0.0,0.0,0.0,0.005625,2
1672947561082095795,285078,1672947561080928511,gps,2,1,42.3009703118,-83.6977496264,272.787536621,0.001089,0.0,0.0,0.0,0.001089,0.0,0.0,0.0,0.005625,2
1672947561102252151,285079,1672947561100949113,gps,2,1,42.3009703031,-83.6977498454,272.78692627,0.001089,0.0,0.0,0.0,0.001089,0.0,0.0,0.0,0.005625,2
1672947561121789675,285080,1672947561120849670,gps,2,1,42.300970294,-83.6977500651,272.7862854,0.001089,0.0,0.0,0.0,0.001089,0.0,0.0,0.0,0.005625,2
1672947561141705966,285081,1672947561140797095,gps,2,1,42.3009702827,-83.6977502927,272.785675049,0.001089,0.0,0.0,0.0,0.001089,0.0,0.0,0.0,0.005625,2
1672947561161787739,285082,1672947561160858700,gps,2,1,42.3009702728,-83.6977505317,272.78503418,0.001089,0.0,0.0,0.0,0.001089,0.0,0.0,0.0,0.005625,2
1672947561182074389,285083,1672947561180855717,gps,2,1,42.3009702629,-83.6977507714,272.784423828,0.001089,0.0,0.0,0.0,0.001089,0.0,0.0,0.0,0.005625,2
1672947561202066445,285084,1672947561200856236,gps,2,1,42.3009702509,-83.6977510198,272.783752441,0.001089,0.0,0.0,0.0,0.001089,0.0,0.0,0.0,0.005625,2
1672947561222117717,285085,1672947561220885181,gps,2,1,42.3009702427,-83.6977512783,272.78314209,0.001089,0.0,0.0,0.0,0.001089,0.0,0.0,0.0,0.005625,2
1672947561241991853,285086,1672947561240849800,gps,2,1,42.3009702342,-83.6977515378,272.782501221,0.001089,0.0,0.0,0.0,0.001089,0.0,0.0,0.0,0.005625,2
1672947561262264026,285087,1672947561260987443,gps,2,1,42.3009702221,-83.6977518075,272.781829834,0.001089,0.0,0.0,0.0,0.001089,0.0,0.0,0.0,0.005625,2
1672947561281834812,285088,1672947561280823334,gps,2,1,42.300970211,-83.6977520909,272.781005859,0.001089,0.0,0.0,0.0,0.001089,0.0,0.0,0.0,0.005625,2
1672947561302208701,285089,1672947561300866475,gps,2,1,42.3009701999,-83.6977523744,272.78024292,0.001089,0.0,0.0,0.0,0.001089,0.0,0.0,0.0,0.005625,2
1672947561322072073,285090,1672947561320861472,gps,2,1,42.3009701876,-83.6977526653,272.77947998,0.001089,0.0,0.0,0.0,0.001089,0.0,0.0,0.0,0.005625,2
1672947561342135977,285091,1672947561340787536,gps,2,1,42.3009701761,-83.697752969,272.778656006,0.001089,0.0,0.0,0.0,0.001089,0.0,0.0,0.0,0.005625,2
1672947561362288296,285092,1672947561360903187,gps,2,1,42.300970164,-83.6977532742,272.777770996,0.001089,0.0,0.0,0.0,0.001089,0.0,0.0,0.0,0.005625,2
1672947561382116717,285093,1672947561380898892,gps,2,1,42.3009701509,-83.6977535853,272.776977539,0.001089,0.0,0.0,0.0,0.001089,0.0,0.0,0.0,0.005625,2
1672947561401850948,285094,1672947561400868650,gps,2,1,42.3009701391,-83.6977539093,272.776092529,0.001089,0.0,0.0,0.0,0.001089,0.0,0.0,0.0,0.005625,2
1672947561421781422,285095,1672947561420862501,gps,2,1,42.3009701273,-83.6977542333,272.775238037,0.001089,0.0,0.0,0.0,0.001089,0.0,0.0,0.0,0.005625,2
1672947561441830147,285096,1672947561440958424,gps,2,1,42.3009701127,-83.6977545657,272.774383545,0.001089,0.0,0.0,0.0,0.001089,0.0,0.0,0.0,0.005625,2
1672947561462201514,285097,1672947561460899507,gps,2,1,42.3009700993,-83.6977549097,272.773468018,0.001089,0.0,0.0,0.0,0.001089,0.0,0.0,0.0,0.005625,2
1672947561482071702,285098,1672947561480879689,gps,2,1,42.3009700854,-83.6977552546,272.772521973,0.001089,0.0,0.0,0.0,0.001089,0.0,0.0,0.0,0.005625,2
1672947561502291041,285099,1672947561500989481,gps,2,1,42.3009700695,-83.6977556065,272.77166748,0.001089,0.0,0.0,0.0,0.001089,0.0,0.0,0.0,0.005625,2
1672947561522040704,285100,1672947561520905082,gps,2,1,42.3009700526,-83.6977559724,272.770629883,0.001089,0.0,0.0,0.0,0.001089,0.0,0.0,0.0,0.005625,2
1672947561541712022,285101,1672947561540863339,gps,2,1,42.3009700362,-83.6977563381,272.769622803,0.001089,0.0,0.0,0.0,0.001089,0.0,0.0,0.0,0.005625,2
1672947561561869578,285102,1672947561560914773,gps,2,1,42.3009700187,-83.6977567104,272.768707275,0.001089,0.0,0.0,0.0,0.001089,0.0,0.0,0.0,0.005625,2
1672947561581684448,285103,1672947561580835761,gps,2,1,42.3009700046,-83.6977570938,272.767730713,0.001089,0.0,0.0,0.0,0.001089,0.0,0.0,0.0,0.005625,2
1672947561601711096,285104,1672947561600899155,gps,2,1,42.3009699905,-83.697757478,272.766784668,0.001089,0.0,0.0,0.0,0.001089,0.0,0.0,0.0,0.005625,2
1672947561622186996,285105,1672947561620941209,gps,2,1,42.3009699715,-83.6977578697,272.765808105,0.001089,0.0,0.0,0.0,0.001089,0.0,0.0,0.0,0.005625,2
1672947561641996147,285106,1672947561640823580,gps,2,1,42.3009699561,-83.6977582722,272.764770508,0.001089,0.0,0.0,0.0,0.001089,0.0,0.0,0.0,0.005625,2
1672947561662039980,285107,1672947561660868575,gps,2,1,42.3009699405,-83.6977586767,272.76373291,0.001089,0.0,0.0,0.0,0.001089,0.0,0.0,0.0,0.005625,2
1672947561681943365,285108,1672947561680897065,gps,2,1,42.3009699208,-83.6977590876,272.762695312,0.001089,0.0,0.0,0.0,0.001089,0.0,0.0,0.0,0.005625,2
1672947561702194518,285109,1672947561700838081,gps,2,1,42.3009699047,-83.69775951,272.76159668,0.001089,0.0,0.0,0.0,0.001089,0.0,0.0,0.0,0.005625,2
1672947561721699799,285110,1672947561720836144,gps,2,1,42.3009698885,-83.6977599333,272.760467529,0.001089,0.0,0.0,0.0,0.001089,0.0,0.0,0.0,0.005625,2
1672947561742197958,285111,1672947561740900947,gps,2,1,42.3009698686,-83.6977603629,272.759460449,0.001089,0.0,0.0,0.0,0.001089,0.0,0.0,0.0,0.005625,2
1672947561762202879,285112,1672947561760964252,gps,2,1,42.300969852,-83.697760804,272.758392334,0.001089,0.0,0.0,0.0,0.001089,0.0,0.0,0.0,0.005329,2
1672947561782142228,285113,1672947561780914553,gps,2,1,42.300969835,-83.6977612465,272.757263184,0.001089,0.0,0.0,0.0,0.001089,0.0,0.0,0.0,0.005329,2
1672947561801983113,285114,1672947561800991144,gps,2,1,42.3009698143,-83.6977616949,272.756286621,0.001089,0.0,0.0,0.0,0.001089,0.0,0.0,0.0,0.005329,2
1672947561822119177,285115,1672947561820832597,gps,2,1,42.3009697957,-83.6977621549,272.755279541,0.001089,0.0,0.0,0.0,0.001089,0.0,0.0,0.0,0.005329,2
1672947561842123824,285116,1672947561840869777,gps,2,1,42.3009697766,-83.6977626145,272.754211426,0.001089,0.0,0.0,0.0,0.001089,0.0,0.0,0.0,0.005329,2
1672947561862186322,285117,1672947561860941314,gps,2,1,42.3009697553,-83.6977630809,272.753234863,0.001089,0.0,0.0,0.0,0.001089,0.0,0.0,0.0,0.005329,2
1672947561882037178,285118,1672947561880845743,gps,2,1,42.3009697359,-83.697763558,272.752075195,0.001089,0.0,0.0,0.0,0.001089,0.0,0.0,0.0,0.005329,2
1672947561901690371,285119,1672947561900802633,gps,2,1,42.3009697152,-83.6977640389,272.750701904,0.001089,0.0,0.0,0.0,0.001089,0.0,0.0,0.0,0.005329,2
1672947561922032019,285120,1672947561920942623,gps,2,1,42.3009696936,-83.697764523,272.749481201,0.001089,0.0,0.0,0.0,0.001089,0.0,0.0,0.0,0.005329,2
1672947561941963152,285121,1672947561940974799,gps,2,1,42.300969673,-83.6977650202,272.747833252,0.001089,0.0,0.0,0.0,0.001089,0.0,0.0,0.0,0.005329,2
1672947561961892020,285122,1672947561960862511,gps,2,1,42.3009696522,-83.6977655188,272.746154785,0.001089,0.0,0.0,0.0,0.001089,0.0,0.0,0.0,0.005329,2
1672947561981980178,285123,1672947561980933733,gps,2,1,42.3009696307,-83.697766021,272.744567871,0.001089,0.0,0.0,0.0,0.001089,0.0,0.0,0.0,0.005329,2
1672947562001795462,285124,1672947562000901672,gps,2,1,42.3009696067,-83.6977665399,272.742523193,0.001089,0.0,0.0,0.0,0.001089,0.0,0.0,0.0,0.005329,2
1672947562022178283,285125,1672947562020988507,gps,2,1,42.3009695828,-83.6977670574,272.740356445,0.001089,0.0,0.0,0.0,0.001089,0.0,0.0,0.0,0.005329,2
1672947562042186192,285126,1672947562040967722,gps,2,1,42.3009695605,-83.6977675765,272.738830566,0.001089,0.0,0.0,0.0,0.001089,0.0,0.0,0.0,0.005329,2
1672947562062243855,285127,1672947562060910204,gps,2,1,42.3009695367,-83.6977681116,272.736724854,0.001089,0.0,0.0,0.0,0.001089,0.0,0.0,0.0,0.005329,2
1672947562081998869,285128,1672947562080963174,gps,2,1,42.3009695131,-83.6977686457,272.734558105,0.001089,0.0,0.0,0.0,0.001089,0.0,0.0,0.0,0.005329,2
1672947562102170122,285129,1672947562100959117,gps,2,1,42.3009694906,-83.6977691808,272.733306885,0.001089,0.0,0.0,0.0,0.001089,0.0,0.0,0.0,0.005329,2
1672947562122359495,285130,1672947562121043469,gps,2,1,42.3009694719,-83.6977697271,272.731781006,0.001089,0.0,0.0,0.0,0.001089,0.0,0.0,0.0,0.005329,2
1672947562142236964,285131,1672947562140928190,gps,2,1,42.3009694526,-83.6977702747,272.730194092,0.001089,0.0,0.0,0.0,0.001089,0.0,0.0,0.0,0.005329,2
1672947562161815774,285132,1672947562160948240,gps,2,1,42.3009694315,-83.6977708237,272.729187012,0.001089,0.0,0.0,0.0,0.001089,0.0,0.0,0.0,0.005329,2
1672947562182084096,285133,1672947562180974443,gps,2,1,42.3009694138,-83.6977713844,272.727966309,0.001089,0.0,0.0,0.0,0.001089,0.0,0.0,0.0,0.005329,2
1672947562202096740,285134,1672947562200860188,gps,2,1,42.3009693964,-83.6977719483,272.726745605,0.001089,0.0,0.0,0.0,0.001089,0.0,0.0,0.0,0.005329,2
1672947562222058982,285135,1672947562220915770,gps,2,1,42.3009693768,-83.6977725111,272.725921631,0.001089,0.0,0.0,0.0,0.001089,0.0,0.0,0.0,0.005329,2
1672947562241970134,285136,1672947562240842333,gps,2,1,42.3009693599,-83.697773088,272.724700928,0.001089,0.0,0.0,0.0,0.001089,0.0,0.0,0.0,0.005329,2
1672947562261951632,285137,1672947562260998112,gps,2,1,42.3009693429,-83.6977736638,272.723510742,0.001089,0.0,0.0,0.0,0.001089,0.0,0.0,0.0,0.005329,2
1672947562281886173,285138,1672947562280908664,gps,2,1,42.3009693241,-83.6977742404,272.722625732,0.001089,0.0,0.0,0.0,0.001089,0.0,0.0,0.0,0.005329,2
1672947562301883022,285139,1672947562300878418,gps,2,1,42.3009693117,-83.6977748287,272.721374512,0.001089,0.0,0.0,0.0,0.001089,0.0,0.0,0.0,0.005329,2
1672947562322197999,285140,1672947562320846244,gps,2,1,42.3009692989,-83.6977754192,272.720092773,0.001089,0.0,0.0,0.0,0.001089,0.0,0.0,0.0,0.005329,2
1672947562342121078,285141,1672947562340887084,gps,2,1,42.3009692818,-83.6977760079,272.719024658,0.001089,0.0,0.0,0.0,0.001089,0.0,0.0,0.0,0.005329,2
1672947562361977754,285142,1672947562360837492,gps,2,1,42.300969271,-83.6977766091,272.717681885,0.001089,0.0,0.0,0.0,0.001089,0.0,0.0,0.0,0.005329,2
1672947562381754345,285143,1672947562380865278,gps,2,1,42.3009692605,-83.6977772115,272.716430664,0.001089,0.0,0.0,0.0,0.001089,0.0,0.0,0.0,0.005329,2
1672947562402062383,285144,1672947562400896969,gps,2,1,42.3009692455,-83.6977778131,272.715301514,0.001089,0.0,0.0,0.0,0.001089,0.0,0.0,0.0,0.005329,2
1672947562421787151,285145,1672947562420829874,gps,2,1,42.3009692351,-83.6977784286,272.713775635,0.001089,0.0,0.0,0.0,0.001089,0.0,0.0,0.0,0.005329,2
1672947562441817473,285146,1672947562440889919,gps,2,1,42.3009692246,-83.6977790425,272.712127686,0.001089,0.0,0.0,0.0,0.001089,0.0,0.0,0.0,0.005329,2
1672947562462210339,285147,1672947562460931428,gps,2,1,42.300969212,-83.6977796565,272.711181641,0.001089,0.0,0.0,0.0,0.001089,0.0,0.0,0.0,0.005329,2
1672947562482043231,285148,1672947562480829983,gps,2,1,42.3009692029,-83.6977802807,272.709869385,0.001089,0.0,0.0,0.0,0.001089,0.0,0.0,0.0,0.005329,2
1672947562502096769,285149,1672947562500911501,gps,2,1,42.3009691959,-83.6977809058,272.708892822,0.001089,0.0,0.0,0.0,0.001089,0.0,0.0,0.0,0.005329,2
1672947562521871476,285150,1672947562520930238,gps,2,1,42.3009691838,-83.6977815281,272.708374023,0.001089,0.0,0.0,0.0,0.001089,0.0,0.0,0.0,0.005329,2
1672947562542273294,285151,1672947562540926495,gps,2,1,42.3009691772,-83.697782165,272.707885742,0.001089,0.0,0.0,0.0,0.001089,0.0,0.0,0.0,0.005329,2
1672947562562232025,285152,1672947562560944181,gps,2,1,42.3009691765,-83.6977827976,272.707519531,0.001089,0.0,0.0,0.0,0.001089,0.0,0.0,0.0,0.005329,2
1672947562582431116,285153,1672947562581099982,gps,2,1,42.3009691648,-83.6977834324,272.707183838,0.001089,0.0,0.0,0.0,0.001089,0.0,0.0,0.0,0.005329,2
1672947562602165947,285154,1672947562600876997,gps,2,1,42.3009691652,-83.6977840776,272.706420898,0.001089,0.0,0.0,0.0,0.001089,0.0,0.0,0.0,0.005329,2
1672947562622067094,285155,1672947562620872697,gps,2,1,42.300969165,-83.6977847229,272.705688477,0.001089,0.0,0.0,0.0,0.001089,0.0,0.0,0.0,0.005329,2
1672947562642088120,285156,1672947562640913274,gps,2,1,42.3009691527,-83.6977853706,272.704498291,0.001089,0.0,0.0,0.0,0.001089,0.0,0.0,0.0,0.005329,2
1672947562662180170,285157,1672947562660810366,gps,2,1,42.3009691519,-83.6977860282,272.703125,0.001089,0.0,0.0,0.0,0.001089,0.0,0.0,0.0,0.005329,2
1672947562681807009,285158,1672947562680844923,gps,2,1,42.3009691497,-83.6977866891,272.701446533,0.001089,0.0,0.0,0.0,0.001089,0.0,0.0,0.0,0.005329,2
1672947562701805519,285159,1672947562700873065,gps,2,1,42.3009691367,-83.6977873466,272.699798584,0.001089,0.0,0.0,0.0,0.001089,0.0,0.0,0.0,0.005329,2
1672947562721693395,285160,1672947562720820997,gps,2,1,42.300969133,-83.6977880186,272.697570801,0.001089,0.0,0.0,0.0,0.001089,0.0,0.0,0.0,0.005329,2
1672947562741998129,285161,1672947562740828772,gps,2,1,42.30096913,-83.6977886891,272.695587158,0.001089,0.0,0.0,0.0,0.001089,0.0,0.0,0.0,0.005329,2
1672947562762131040,285162,1672947562761031701,gps,2,1,42.300969116,-83.6977893612,272.693359375,0.001089,0.0,0.0,0.0,0.001089,0.0,0.0,0.0,0.005329,2
1672947562782106216,285163,1672947562780863994,gps,2,1,42.3009691116,-83.6977900452,272.690979004,0.001089,0.0,0.0,0.0,0.001089,0.0,0.0,0.0,0.005329,2
1672947562801998527,285164,1672947562800821496,gps,2,1,42.30096911,-83.6977907278,272.688323975,0.001089,0.0,0.0,0.0,0.001089,0.0,0.0,0.0,0.005329,2
1672947562821856502,285165,1672947562820923363,gps,2,1,42.3009690964,-83.6977914122,272.685821533,0.001089,0.0,0.0,0.0,0.001089,0.0,0.0,0.0,0.005329,2
1672947562842148755,285166,1672947562840829309,gps,2,1,42.3009690949,-83.6977921067,272.683441162,0.001089,0.0,0.0,0.0,0.001089,0.0,0.0,0.0,0.005329,2
1672947562861790746,285167,1672947562860834364,gps,2,1,42.3009690933,-83.6977928015,272.680908203,0.001089,0.0,0.0,0.0,0.001089,0.0,0.0,0.0,0.005329,2
1672947562882010739,285168,1672947562880879952,gps,2,1,42.3009690807,-83.6977934989,272.678741455,0.001089,0.0,0.0,0.0,0.001089,0.0,0.0,0.0,0.005329,2
1672947562902141174,285169,1672947562900798895,gps,2,1,42.3009690782,-83.69779421,272.676330566,0.001089,0.0,0.0,0.0,0.001089,0.0,0.0,0.0,0.005329,2
1672947562922236239,285170,1672947562920874041,gps,2,1,42.3009690771,-83.6977949211,272.674224854,0.001089,0.0,0.0,0.0,0.001089,0.0,0.0,0.0,0.005329,2
1672947562942333400,285171,1672947562940946907,gps,2,1,42.3009690647,-83.6977956319,272.672088623,0.001089,0.0,0.0,0.0,0.001089,0.0,0.0,0.0,0.005329,2
1672947562962002961,285172,1672947562960826417,gps,2,1,42.3009690641,-83.6977963566,272.66998291,0.001089,0.0,0.0,0.0,0.001089,0.0,0.0,0.0,0.005329,2
1672947562981867177,285173,1672947562980898270,gps,2,1,42.3009690608,-83.6977970803,272.667938232,0.001089,0.0,0.0,0.0,0.001089,0.0,0.0,0.0,0.005329,2
1672947563001856661,285174,1672947563000848481,gps,2,1,42.3009690503,-83.6977978045,272.665924072,0.001089,0.0,0.0,0.0,0.001089,0.0,0.0,0.0,0.005329,2
1672947563022116254,285175,1672947563020891864,gps,2,1,42.3009690589,-83.6977985377,272.664306641,0.001089,0.0,0.0,0.0,0.001089,0.0,0.0,0.0,0.005329,2
1672947563042274476,285176,1672947563040945435,gps,2,1,42.3009690661,-83.6977992718,272.66229248,0.001089,0.0,0.0,0.0,0.001089,0.0,0.0,0.0,0.005329,2
1672947563062119720,285177,1672947563061000564,gps,2,1,42.3009690584,-83.6978000102,272.660797119,0.001089,0.0,0.0,0.0,0.001089,0.0,0.0,0.0,0.005329,2
1672947563082191273,285178,1672947563080848432,gps,2,1,42.3009690648,-83.6978007575,272.659118652,0.001089,0.0,0.0,0.0,0.001089,0.0,0.0,0.0,0.005329,2
1672947563101854222,285179,1672947563100873654,gps,2,1,42.3009690784,-83.6978015068,272.657653809,0.001089,0.0,0.0,0.0,0.001089,0.0,0.0,0.0,0.005329,2
1672947563121977674,285180,1672947563120950003,gps,2,1,42.3009690709,-83.6978022596,272.656097412,0.001089,0.0,0.0,0.0,0.001089,0.0,0.0,0.0,0.005329,2
1672947563142186674,285181,1672947563140829097,gps,2,1,42.3009690808,-83.6978030221,272.654296875,0.001089,0.0,0.0,0.0,0.001089,0.0,0.0,0.0,0.005329,2
1672947563161775173,285182,1672947563160883449,gps,2,1,42.3009690923,-83.6978037889,272.652496338,0.001089,0.0,0.0,0.0,0.001089,0.0,0.0,0.0,0.005329,2
1672947563181916690,285183,1672947563180942031,gps,2,1,42.3009690851,-83.6978045571,272.650482178,0.001089,0.0,0.0,0.0,0.001089,0.0,0.0,0.0,0.005329,2
1672947563201961419,285184,1672947563200940363,gps,2,1,42.3009690941,-83.6978053369,272.6484375,0.001089,0.0,0.0,0.0,0.001089,0.0,0.0,0.0,0.005329,2
1672947563222062301,285185,1672947563220853359,gps,2,1,42.3009691038,-83.6978061211,272.646484375,0.001089,0.0,0.0,0.0,0.001089,0.0,0.0,0.0,0.005329,2
1672947563242265735,285186,1672947563240918673,gps,2,1,42.3009690968,-83.6978069034,272.644348145,0.001089,0.0,0.0,0.0,0.001089,0.0,0.0,0.0,0.005329,2
1672947563262347491,285187,1672947563261019262,gps,2,1,42.3009691061,-83.6978076969,272.642486572,0.001089,0.0,0.0,0.0,0.001089,0.0,0.0,0.0,0.005329,2
1672947563281840412,285188,1672947563280873062,gps,2,1,42.3009691175,-83.6978084882,272.64074707,0.001089,0.0,0.0,0.0,0.001089,0.0,0.0,0.0,0.005329,2
1672947563302276268,285189,1672947563300945259,gps,2,1,42.3009691107,-83.697809284,272.638824463,0.001089,0.0,0.0,0.0,0.001089,0.0,0.0,0.0,0.005329,2
1672947563322093712,285190,1672947563320822227,gps,2,1,42.3009691228,-83.6978100871,272.637359619,0.001089,0.0,0.0,0.0,0.001089,0.0,0.0,0.0,0.005329,2
1672947563342009186,285191,1672947563340835233,gps,2,1,42.3009691337,-83.6978108916,272.635864258,0.001089,0.0,0.0,0.0,0.001089,0.0,0.0,0.0,0.005329,2
1672947563362046069,285192,1672947563360881675,gps,2,1,42.3009691274,-83.6978116995,272.634094238,0.001089,0.0,0.0,0.0,0.001089,0.0,0.0,0.0,0.005329,2
1672947563381796693,285193,1672947563380877307,gps,2,1,42.3009691392,-83.6978125155,272.632843018,0.001089,0.0,0.0,0.0,0.001089,0.0,0.0,0.0,0.005329,2
1672947563401772384,285194,1672947563400835032,gps,2,1,42.3009691544,-83.6978133297,272.631347656,0.001089,0.0,0.0,0.0,0.001089,0.0,0.0,0.0,0.005329,2
1672947563422209285,285195,1672947563420879270,gps,2,1,42.3009691498,-83.6978141498,272.630004883,0.001089,0.0,0.0,0.0,0.001089,0.0,0.0,0.0,0.005329,2
1672947563441867130,285196,1672947563440921046,gps,2,1,42.3009691667,-83.697814975,272.628997803,0.001089,0.0,0.0,0.0,0.001089,0.0,0.0,0.0,0.005329,2
1672947563462204828,285197,1672947563460818685,gps,2,1,42.3009691823,-83.6978158057,272.628112793,0.001089,0.0,0.0,0.0,0.001089,0.0,0.0,0.0,0.005329,2
1672947563482139029,285198,1672947563480913631,gps,2,1,42.3009691785,-83.6978166388,272.626983643,0.001089,0.0,0.0,0.0,0.001089,0.0,0.0,0.0,0.005329,2
1672947563502046079,285199,1672947563500951798,gps,2,1,42.3009691944,-83.6978174811,272.626190186,0.001089,0.0,0.0,0.0,0.001089,0.0,0.0,0.0,0.005329,2
1672947563522181118,285200,1672947563520831107,gps,2,1,42.3009692153,-83.6978183242,272.625244141,0.001089,0.0,0.0,0.0,0.001089,0.0,0.0,0.0,0.005329,2
1672947563542304471,285201,1672947563540959322,gps,2,1,42.3009692116,-83.6978191725,272.624023438,0.001089,0.0,0.0,0.0,0.001089,0.0,0.0,0.0,0.005329,2
1672947563561878712,285202,1672947563560895908,gps,2,1,42.3009692325,-83.6978200279,272.62286377,0.001089,0.0,0.0,0.0,0.001089,0.0,0.0,0.0,0.005329,2
1672947563581744570,285203,1672947563580801475,gps,2,1,42.3009692543,-83.6978208871,272.621612549,0.001089,0.0,0.0,0.0,0.001089,0.0,0.0,0.0,0.005329,2
1672947563602290911,285204,1672947563600932290,gps,2,1,42.3009692486,-83.6978217469,272.620361328,0.001089,0.0,0.0,0.0,0.001089,0.0,0.0,0.0,0.005329,2
1672947563622150254,285205,1672947563620881348,gps,2,1,42.3009692694,-83.6978226143,272.619110107,0.001089,0.0,0.0,0.0,0.001089,0.0,0.0,0.0,0.005329,2
1672947563642122846,285206,1672947563640824408,gps,2,1,42.3009692879,-83.697823486,272.617950439,0.001089,0.0,0.0,0.0,0.001089,0.0,0.0,0.0,0.005329,2
1672947563662112016,285207,1672947563660876750,gps,2,1,42.3009692813,-83.697824358,272.616577148,0.001089,0.0,0.0,0.0,0.001089,0.0,0.0,0.0,0.005329,2
1672947563681926929,285208,1672947563680888965,gps,2,1,42.3009692994,-83.6978252392,272.615264893,0.001089,0.0,0.0,0.0,0.001089,0.0,0.0,0.0,0.005329,2
1672947563702234126,285209,1672947563700881257,gps,2,1,42.3009693198,-83.6978261163,272.614227295,0.001089,0.0,0.0,0.0,0.001089,0.0,0.0,0.0,0.005329,2
1672947563721841985,285210,1672947563720827490,gps,2,1,42.3009693141,-83.6978270017,272.612945557,0.001089,0.0,0.0,0.0,0.001089,0.0,0.0,0.0,0.005329,2
1672947563742184664,285211,1672947563740841435,gps,2,1,42.3009693363,-83.6978278908,272.611877441,0.001089,0.0,0.0,0.0,0.001089,0.0,0.0,0.0,0.005329,2
1672947563762154961,285212,1672947563760832622,gps,2,1,42.3009693602,-83.6978287803,272.610839844,0.0009,0.0,0.0,0.0,0.0009,0.0,0.0,0.0,0.005041,2
1672947563782001778,285213,1672947563780831359,gps,2,1,42.3009693574,-83.6978296762,272.609710693,0.0009,0.0,0.0,0.0,0.0009,0.0,0.0,0.0,0.005041,2
1672947563802077593,285214,1672947563800883182,gps,2,1,42.3009693841,-83.6978305755,272.608947754,0.0009,0.0,0.0,0.0,0.0009,0.0,0.0,0.0,0.005041,2
1672947563821835594,285215,1672947563820824266,gps,2,1,42.3009694093,-83.6978314757,272.608154297,0.0009,0.0,0.0,0.0,0.0009,0.0,0.0,0.0,0.005041,2
1672947563841945090,285216,1672947563840910292,gps,2,1,42.30096941,-83.6978323802,272.607269287,0.0009,0.0,0.0,0.0,0.0009,0.0,0.0,0.0,0.005041,2
1672947563861838693,285217,1672947563860815890,gps,2,1,42.3009694376,-83.6978332898,272.606628418,0.0009,0.0,0.0,0.0,0.0009,0.0,0.0,0.0,0.005041,2
1672947563882182778,285218,1672947563880842480,gps,2,1,42.3009694644,-83.6978342004,272.605926514,0.0009,0.0,0.0,0.0,0.0009,0.0,0.0,0.0,0.005041,2
1672947563902151954,285219,1672947563900889748,gps,2,1,42.3009694674,-83.697835116,272.605072021,0.0009,0.0,0.0,0.0,0.0009,0.0,0.0,0.0,0.005041,2
1672947563922073274,285220,1672947563920856604,gps,2,1,42.3009694916,-83.69783604,272.604156494,0.0009,0.0,0.0,0.0,0.0009,0.0,0.0,0.0,0.005041,2
1672947563942297868,285221,1672947563940950325,gps,2,1,42.3009695156,-83.6978369647,272.603271484,0.0009,0.0,0.0,0.0,0.0009,0.0,0.0,0.0,0.005041,2
1672947563961829229,285222,1672947563960917351,gps,2,1,42.3009695191,-83.6978378911,272.601837158,0.0009,0.0,0.0,0.0,0.0009,0.0,0.0,0.0,0.005041,2
1672947563981829253,285223,1672947563980872079,gps,2,1,42.3009695422,-83.697838828,272.600036621,0.0009,0.0,0.0,0.0,0.0009,0.0,0.0,0.0,0.005041,2
1672947564002136745,285224,1672947564000812505,gps,2,1,42.3009695702,-83.6978397581,272.598236084,0.0009,0.0,0.0,0.0,0.0009,0.0,0.0,0.0,0.005041,2
1672947564022243350,285225,1672947564020914343,gps,2,1,42.3009695759,-83.6978406958,272.596221924,0.0009,0.0,0.0,0.0,0.0009,0.0,0.0,0.0,0.005041,2
1672947564042365540,285226,1672947564040911994,gps,2,1,42.3009696137,-83.6978416358,272.594573975,0.0009,0.0,0.0,0.0,0.0009,0.0,0.0,0.0,0.005041,2
1672947564062100912,285227,1672947564060921577,gps,2,1,42.30096965,-83.6978425759,272.592895508,0.0009,0.0,0.0,0.0,0.0009,0.0,0.0,0.0,0.005041,2
1672947564081994001,285228,1672947564080892460,gps,2,1,42.3009696562,-83.6978435238,272.591552734,0.0009,0.0,0.0,0.0,0.0009,0.0,0.0,0.0,0.005041,2
1672947564102268559,285229,1672947564100885240,gps,2,1,42.3009696946,-83.6978444751,272.590759277,0.0009,0.0,0.0,0.0,0.0009,0.0,0.0,0.0,0.005041,2
1672947564121938212,285230,1672947564120940013,gps,2,1,42.3009697322,-83.6978454285,272.589935303,0.0009,0.0,0.0,0.0,0.0009,0.0,0.0,0.0,0.005041,2
1672947564142057893,285231,1672947564140786696,gps,2,1,42.3009697382,-83.6978463864,272.589385986,0.0009,0.0,0.0,0.0,0.0009,0.0,0.0,0.0,0.005041,2
1672947564161773833,285232,1672947564160884494,gps,2,1,42.3009697721,-83.6978473493,272.589355469,0.0009,0.0,0.0,0.0,0.0009,0.0,0.0,0.0,0.005041,2
1672947564182260652,285233,1672947564180924443,gps,2,1,42.3009698054,-83.6978483121,272.589385986,0.0009,0.0,0.0,0.0,0.0009,0.0,0.0,0.0,0.005041,2
1672947564202120103,285234,1672947564200839148,gps,2,1,42.3009698085,-83.6978492806,272.589477539,0.0009,0.0,0.0,0.0,0.0009,0.0,0.0,0.0,0.005041,2
1672947564222121029,285235,1672947564220872719,gps,2,1,42.3009698392,-83.6978502532,272.589813232,0.0009,0.0,0.0,0.0,0.0009,0.0,0.0,0.0,0.005041,2
1672947564241878423,285236,1672947564240808771,gps,2,1,42.3009698692,-83.697851226,272.590087891,0.0009,0.0,0.0,0.0,0.0009,0.0,0.0,0.0,0.005041,2
1672947564261796635,285237,1672947564260849234,gps,2,1,42.3009698712,-83.6978522035,272.590393066,0.0009,0.0,0.0,0.0,0.0009,0.0,0.0,0.0,0.005041,2
1672947564282128029,285238,1672947564280886215,gps,2,1,42.3009699056,-83.697853185,272.590698242,0.0009,0.0,0.0,0.0,0.0009,0.0,0.0,0.0,0.005041,2
1672947564302049708,285239,1672947564300878509,gps,2,1,42.3009699386,-83.697854168,272.591033936,0.0009,0.0,0.0,0.0,0.0009,0.0,0.0,0.0,0.005041,2
1672947564322162958,285240,1672947564320818856,gps,2,1,42.3009699411,-83.6978551538,272.59085083,0.0009,0.0,0.0,0.0,0.0009,0.0,0.0,0.0,0.005041,2
1672947564342234918,285241,1672947564340921421,gps,2,1,42.3009699745,-83.6978561424,272.59085083,0.0009,0.0,0.0,0.0,0.0009,0.0,0.0,0.0,0.005041,2
1672947564362027232,285242,1672947564360829410,gps,2,1,42.300970006,-83.6978571348,272.590393066,0.0009,0.0,0.0,0.0,0.0009,0.0,0.0,0.0,0.005041,2
1672947564381933649,285243,1672947564380914656,gps,2,1,42.3009700107,-83.6978581298,272.589935303,0.0009,0.0,0.0,0.0,0.0009,0.0,0.0,0.0,0.005041,2
1672947564402240700,285244,1672947564400838481,gps,2,1,42.3009700435,-83.6978591306,272.589416504,0.0009,0.0,0.0,0.0,0.0009,0.0,0.0,0.0,0.005041,2
1672947564421785060,285245,1672947564420867519,gps,2,1,42.3009700752,-83.6978601313,272.588867188,0.0009,0.0,0.0,0.0,0.0009,0.0,0.0,0.0,0.005041,2
1672947564442246704,285246,1672947564440962402,gps,2,1,42.3009700815,-83.697861134,272.588134766,0.0009,0.0,0.0,0.0,0.0009,0.0,0.0,0.0,0.005041,2
1672947564462232117,285247,1672947564460886461,gps,2,1,42.3009701151,-83.697862142,272.587371826,0.0009,0.0,0.0,0.0,0.0009,0.0,0.0,0.0,0.005041,2
1672947564481996360,285248,1672947564480911649,gps,2,1,42.3009701476,-83.6978631505,272.586639404,0.0009,0.0,0.0,0.0,0.0009,0.0,0.0,0.0,0.005041,2
1672947564502432295,285249,1672947564501034288,gps,2,1,42.3009701571,-83.6978641607,272.586029053,0.0009,0.0,0.0,0.0,0.0009,0.0,0.0,0.0,0.005041,2
1672947564521771562,285250,1672947564520868063,gps,2,1,42.3009701995,-83.6978651709,272.585632324,0.0009,0.0,0.0,0.0,0.0009,0.0,0.0,0.0,0.005041,2
1672947564541848503,285251,1672947564540894105,gps,2,1,42.3009702508,-83.6978661814,272.585083008,0.0009,0.0,0.0,0.0,0.0009,0.0,0.0,0.0,0.005041,2
1672947564561816004,285252,1672947564560907515,gps,2,1,42.3009702632,-83.6978671996,272.584899902,0.0009,0.0,0.0,0.0,0.0009,0.0,0.0,0.0,0.005041,2
1672947564581790892,285253,1672947564580903245,gps,2,1,42.300970315,-83.6978682186,272.584594727,0.0009,0.0,0.0,0.0,0.0009,0.0,0.0,0.0,0.005041,2
1672947564601876692,285254,1672947564600844982,gps,2,1,42.3009703627,-83.69786924,272.584197998,0.0009,0.0,0.0,0.0,0.0009,0.0,0.0,0.0,0.005041,2
1672947564622120405,285255,1672947564620913839,gps,2,1,42.3009703763,-83.6978702667,272.584014893,0.0009,0.0,0.0,0.0,0.0009,0.0,0.0,0.0,0.005041,2
1672947564642042289,285256,1672947564640881625,gps,2,1,42.3009704226,-83.6978712957,272.583465576,0.0009,0.0,0.0,0.0,0.0009,0.0,0.0,0.0,0.005041,2
1672947564661953188,285257,1672947564660826973,gps,2,1,42.3009704716,-83.6978723242,272.583129883,0.0009,0.0,0.0,0.0,0.0009,0.0,0.0,0.0,0.005041,2
1672947564681816226,285258,1672947564680869237,gps,2,1,42.3009704842,-83.6978733576,272.582824707,0.0009,0.0,0.0,0.0,0.0009,0.0,0.0,0.0,0.005041,2
1672947564702281000,285259,1672947564700878961,gps,2,1,42.3009705305,-83.6978743922,272.582366943,0.0009,0.0,0.0,0.0,0.0009,0.0,0.0,0.0,0.005041,2
1672947564722126472,285260,1672947564720788473,gps,2,1,42.3009705759,-83.6978754277,272.58190918,0.0009,0.0,0.0,0.0,0.0009,0.0,0.0,0.0,0.005041,2
1672947564742294447,285261,1672947564740907005,gps,2,1,42.3009705874,-83.6978764683,272.581481934,0.0009,0.0,0.0,0.0,0.0009,0.0,0.0,0.0,0.005041,2
1672947564762134166,285262,1672947564760910139,gps,2,1,42.3009706309,-83.6978775104,272.5809021,0.0009,0.0,0.0,0.0,0.0009,0.0,0.0,0.0,0.005041,2
1672947564782043776,285263,1672947564780856072,gps,2,1,42.3009706732,-83.6978785526,272.580322266,0.0009,0.0,0.0,0.0,0.0009,0.0,0.0,0.0,0.005041,2
1672947564802028307,285264,1672947564800898126,gps,2,1,42.3009706844,-83.6978796007,272.579742432,0.0009,0.0,0.0,0.0,0.0009,0.0,0.0,0.0,0.005041,2
1672947564821786789,285265,1672947564820826241,gps,2,1,42.3009707268,-83.6978806513,272.579101562,0.0009,0.0,0.0,0.0,0.0009,0.0,0.0,0.0,0.005041,2
1672947564842096160,285266,1672947564840826933,gps,2,1,42.300970768,-83.6978817017,272.578491211,0.0009,0.0,0.0,0.0,0.0009,0.0,0.0,0.0,0.005041,2
1672947564862231285,285267,1672947564860892447,gps,2,1,42.3009707787,-83.6978827577,272.577667236,0.0009,0.0,0.0,0.0,0.0009,0.0,0.0,0.0,0.005041,2
1672947564882102502,285268,1672947564880804882,gps,2,1,42.3009708181,-83.6978838165,272.576751709,0.0009,0.0,0.0,0.0,0.0009,0.0,0.0,0.0,0.005041,2
1672947564902059962,285269,1672947564900857537,gps,2,1,42.3009708607,-83.697884875,272.575714111,0.0009,0.0,0.0,0.0,0.0009,0.0,0.0,0.0,0.005041,2
1672947564922035256,285270,1672947564920880257,gps,2,1,42.3009708709,-83.6978859396,272.574523926,0.0009,0.0,0.0,0.0,0.0009,0.0,0.0,0.0,0.005041,2
1672947564942164031,285271,1672947564940898502,gps,2,1,42.3009709122,-83.6978870068,272.573059082,0.0009,0.0,0.0,0.0,0.0009,0.0,0.0,0.0,0.005041,2
1672947564961856890,285272,1672947564960844862,gps,2,1,42.3009709525,-83.6978880751,272.571563721,0.0009,0.0,0.0,0.0,0.0009,0.0,0.0,0.0,0.005041,2
1672947564982109875,285273,1672947564980900533,gps,2,1,42.3009709633,-83.697889148,272.569946289,0.0009,0.0,0.0,0.0,0.0009,0.0,0.0,0.0,0.005041,2
1672947565001874896,285274,1672947565000876684,gps,2,1,42.3009710057,-83.697890224,272.568206787,0.0009,0.0,0.0,0.0,0.0009,0.0,0.0,0.0,0.005041,2
1672947565022092447,285275,1672947565020849379,gps,2,1,42.3009710471,-83.6978913002,272.566467285,0.0009,0.0,0.0,0.0,0.0009,0.0,0.0,0.0,0.005041,2
1672947565042331233,285276,1672947565040973769,gps,2,1,42.3009710606,-83.6978923816,272.564819336,0.0009,0.0,0.0,0.0,0.0009,0.0,0.0,0.0,0.005041,2
1672947565062054029,285277,1672947565060885495,gps,2,1,42.3009711139,-83.6978934661,272.563262939,0.0009,0.0,0.0,0.0,0.0009,0.0,0.0,0.0,0.005041,2
1672947565082133649,285278,1672947565080877568,gps,2,1,42.3009711658,-83.6978945506,272.561767578,0.0009,0.0,0.0,0.0,0.0009,0.0,0.0,0.0,0.005041,2
1672947565102040519,285279,1672947565100948529,gps,2,1,42.3009711821,-83.6978956395,272.560333252,0.0009,0.0,0.0,0.0,0.0009,0.0,0.0,0.0,0.005041,2
1672947565121976330,285280,1672947565120842926,gps,2,1,42.3009712397,-83.6978967286,272.559143066,0.0009,0.0,0.0,0.0,0.0009,0.0,0.0,0.0,0.005041,2
1672947565141752866,285281,1672947565140821147,gps,2,1,42.3009712959,-83.697897818,272.557891846,0.0009,0.0,0.0,0.0,0.0009,0.0,0.0,0.0,0.005041,2
1672947565162114339,285282,1672947565160868299,gps,2,1,42.300971313,-83.6978989147,272.556732178,0.0009,0.0,0.0,0.0,0.0009,0.0,0.0,0.0,0.005041,2
1672947565182047266,285283,1672947565180781949,gps,2,1,42.3009713675,-83.6979000123,272.555725098,0.0009,0.0,0.0,0.0,0.0009,0.0,0.0,0.0,0.005041,2
1672947565201835492,285284,1672947565200802150,gps,2,1,42.3009714195,-83.6979011137,272.554626465,0.0009,0.0,0.0,0.0,0.0009,0.0,0.0,0.0,0.005041,2
1672947565221945195,285285,1672947565220882573,gps,2,1,42.3009714359,-83.6979022188,272.553588867,0.0009,0.0,0.0,0.0,0.0009,0.0,0.0,0.0,0.005041,2
1672947565241730124,285286,1672947565240802914,gps,2,1,42.3009714855,-83.6979033279,272.552520752,0.0009,0.0,0.0,0.0,0.0009,0.0,0.0,0.0,0.005041,2
1672947565261732610,285287,1672947565260850449,gps,2,1,42.3009715337,-83.6979044376,272.551483154,0.0009,0.0,0.0,0.0,0.0009,0.0,0.0,0.0,0.005041,2
1672947565281763066,285288,1672947565280940172,gps,2,1,42.3009715488,-83.6979055494,272.550445557,0.0009,0.0,0.0,0.0,0.0009,0.0,0.0,0.0,0.005041,2
1672947565302184996,285289,1672947565300873712,gps,2,1,42.3009715953,-83.6979066643,272.54977417,0.0009,0.0,0.0,0.0,0.0009,0.0,0.0,0.0,0.005041,2
1672947565322129415,285290,1672947565320870355,gps,2,1,42.3009716405,-83.6979077774,272.549072266,0.0009,0.0,0.0,0.0,0.0009,0.0,0.0,0.0,0.005041,2
1672947565342081987,285291,1672947565340932041,gps,2,1,42.3009716535,-83.6979088971,272.548217773,0.0009,0.0,0.0,0.0,0.0009,0.0,0.0,0.0,0.005041,2
1672947565361943274,285292,1672947565360941699,gps,2,1,42.3009716951,-83.6979100197,272.547637939,0.0009,0.0,0.0,0.0,0.0009,0.0,0.0,0.0,0.005041,2
1672947565381791143,285293,1672947565380906044,gps,2,1,42.3009717349,-83.6979111417,272.547027588,0.0009,0.0,0.0,0.0,0.0009,0.0,0.0,0.0,0.005041,2
1672947565402101635,285294,1672947565400825173,gps,2,1,42.3009717452,-83.6979122687,272.546112061,0.0009,0.0,0.0,0.0,0.0009,0.0,0.0,0.0,0.005041,2
1672947565421988783,285295,1672947565420783796,gps,2,1,42.300971784,-83.6979134008,272.545257568,0.0009,0.0,0.0,0.0,0.0009,0.0,0.0,0.0,0.005041,2
1672947565442175856,285296,1672947565440962000,gps,2,1,42.3009718229,-83.697914532,272.544403076,0.0009,0.0,0.0,0.0,0.0009,0.0,0.0,0.0,0.005041,2
1672947565462100193,285297,1672947565460920175,gps,2,1,42.3009718315,-83.6979156686,272.543121338,0.0009,0.0,0.0,0.0,0.0009,0.0,0.0,0.0,0.005041,2
1672947565482205882,285298,1672947565480832389,gps,2,1,42.3009718679,-83.6979168099,272.541717529,0.0009,0.0,0.0,0.0,0.0009,0.0,0.0,0.0,0.005041,2
1672947565502242779,285299,1672947565500883586,gps,2,1,42.3009719074,-83.6979179504,272.540374756,0.0009,0.0,0.0,0.0,0.0009,0.0,0.0,0.0,0.005041,2
1672947565521783814,285300,1672947565520940037,gps,2,1,42.3009719165,-83.6979190956,272.538604736,0.0009,0.0,0.0,0.0,0.0009,0.0,0.0,0.0,0.005041,2
1672947565541921817,285301,1672947565540989079,gps,2,1,42.3009719553,-83.6979202445,272.536773682,0.0009,0.0,0.0,0.0,0.0009,0.0,0.0,0.0,0.005041,2
1672947565561742764,285302,1672947565560851993,gps,2,1,42.3009720034,-83.6979213936,272.534973145,0.0009,0.0,0.0,0.0,0.0009,0.0,0.0,0.0,0.005041,2
1672947565582138059,285303,1672947565580926196,gps,2,1,42.3009720129,-83.6979225478,272.532775879,0.0009,0.0,0.0,0.0,0.0009,0.0,0.0,0.0,0.005041,2
1672947565602180187,285304,1672947565600873513,gps,2,1,42.3009720602,-83.6979237051,272.530517578,0.0009,0.0,0.0,0.0,0.0009,0.0,0.0,0.0,0.005041,2
1672947565622088843,285305,1672947565620858877,gps,2,1,42.3009721064,-83.6979248624,272.52822876,0.0009,0.0,0.0,0.0,0.0009,0.0,0.0,0.0,0.005041,2
1672947565641995783,285306,1672947565640922104,gps,2,1,42.3009721155,-83.6979260252,272.526062012,0.0009,0.0,0.0,0.0,0.0009,0.0,0.0,0.0,0.005041,2
1672947565662174533,285307,1672947565660862320,gps,2,1,42.3009721598,-83.6979271913,272.524078369,0.0009,0.0,0.0,0.0,0.0009,0.0,0.0,0.0,0.005041,2
1672947565681816548,285308,1672947565680866477,gps,2,1,42.3009722029,-83.6979283578,272.522094727,0.0009,0.0,0.0,0.0,0.0009,0.0,0.0,0.0,0.005041,2
1672947565701818550,285309,1672947565700893022,gps,2,1,42.300972212,-83.6979295293,272.520263672,0.0009,0.0,0.0,0.0,0.0009,0.0,0.0,0.0,0.005041,2
1672947565722285993,285310,1672947565720867262,gps,2,1,42.3009722571,-83.6979307052,272.518981934,0.0009,0.0,0.0,0.0,0.0009,0.0,0.0,0.0,0.005041,2
1672947565742162463,285311,1672947565740847107,gps,2,1,42.3009723009,-83.6979318816,272.517700195,0.0009,0.0,0.0,0.0,0.0009,0.0,0.0,0.0,0.005041,2
1672947565762132353,285312,1672947565760868454,gps,2,1,42.3009723106,-83.6979330616,272.516235352,0.001089,0.0,0.0,0.0,0.001089,0.0,0.0,0.0,0.005625,2
1672947565781949130,285313,1672947565780814985,gps,2,1,42.3009723537,-83.6979342461,272.515167236,0.001089,0.0,0.0,0.0,0.001089,0.0,0.0,0.0,0.005625,2
1672947565802087235,285314,1672947565800871990,gps,2,1,42.300972396,-83.6979354318,272.513885498,0.001089,0.0,0.0,0.0,0.001089,0.0,0.0,0.0,0.005625,2
1672947565821828473,285315,1672947565820907405,gps,2,1,42.3009724057,-83.6979366197,272.512451172,0.001089,0.0,0.0,0.0,0.001089,0.0,0.0,0.0,0.005625,2
1672947565842084361,285316,1672947565840802438,gps,2,1,42.3009724463,-83.6979378121,272.511077881,0.001089,0.0,0.0,0.0,0.001089,0.0,0.0,0.0,0.005625,2
1672947565862214468,285317,1672947565860869133,gps,2,1,42.3009724856,-83.6979390049,272.509674072,0.001089,0.0,0.0,0.0,0.001089,0.0,0.0,0.0,0.005625,2
1672947565882006561,285318,1672947565880817225,gps,2,1,42.3009724946,-83.6979401997,272.508209229,0.001089,0.0,0.0,0.0,0.001089,0.0,0.0,0.0,0.005625,2
1672947565902006511,285319,1672947565900812933,gps,2,1,42.300972536,-83.6979413963,272.506988525,0.001089,0.0,0.0,0.0,0.001089,0.0,0.0,0.0,0.005625,2
1672947565922066670,285320,1672947565920788749,gps,2,1,42.3009725762,-83.6979425915,272.505737305,0.001089,0.0,0.0,0.0,0.001089,0.0,0.0,0.0,0.005625,2
1672947565942255475,285321,1672947565940921160,gps,2,1,42.3009725837,-83.6979437931,272.504394531,0.001089,0.0,0.0,0.0,0.001089,0.0,0.0,0.0,0.005625,2
1672947565961743511,285322,1672947565960811531,gps,2,1,42.3009726211,-83.6979449962,272.503173828,0.001089,0.0,0.0,0.0,0.001089,0.0,0.0,0.0,0.005625,2
1672947565981713363,285323,1672947565980838471,gps,2,1,42.3009726569,-83.6979461989,272.502044678,0.001089,0.0,0.0,0.0,0.001089,0.0,0.0,0.0,0.005625,2
1672947566002241052,285324,1672947566000876473,gps,2,1,42.3009726628,-83.6979474077,272.500640869,0.001089,0.0,0.0,0.0,0.001089,0.0,0.0,0.0,0.005625,2
1672947566022209242,285325,1672947566020951922,gps,2,1,42.3009727038,-83.6979486186,272.499237061,0.001089,0.0,0.0,0.0,0.001089,0.0,0.0,0.0,0.005625,2
1672947566042135594,285326,1672947566040828049,gps,2,1,42.3009727441,-83.6979498303,272.49786377,0.001089,0.0,0.0,0.0,0.001089,0.0,0.0,0.0,0.005625,2
1672947566062041870,285327,1672947566060893521,gps,2,1,42.3009727496,-83.6979510458,272.496002197,0.001089,0.0,0.0,0.0,0.001089,0.0,0.0,0.0,0.005625,2
1672947566082018542,285328,1672947566080921237,gps,2,1,42.3009727907,-83.6979522623,272.493743896,0.001089,0.0,0.0,0.0,0.001089,0.0,0.0,0.0,0.005625,2
1672947566102395132,285329,1672947566100870684,gps,2,1,42.300972831,-83.6979534799,272.491516113,0.001089,0.0,0.0,0.0,0.001089,0.0,0.0,0.0,0.005625,2
1672947566122233911,285330,1672947566120839732,gps,2,1,42.3009728378,-83.6979547017,272.488922119,0.001089,0.0,0.0,0.0,0.001089,0.0,0.0,0.0,0.005625,2
1672947566141868801,285331,1672947566140848161,gps,2,1,42.3009728782,-83.697955925,272.486175537,0.001089,0.0,0.0,0.0,0.001089,0.0,0.0,0.0,0.005625,2
1672947566161754275,285332,1672947566160853664,gps,2,1,42.3009729201,-83.6979571467,272.483612061,0.001089,0.0,0.0,0.0,0.001089,0.0,0.0,0.0,0.005625,2
1672947566182139312,285333,1672947566180813642,gps,2,1,42.3009729287,-83.6979583741,272.480743408,0.001089,0.0,0.0,0.0,0.001089,0.0,0.0,0.0,0.005625,2
1672947566202086183,285334,1672947566200874667,gps,2,1,42.3009729706,-83.6979596009,272.478088379,0.001089,0.0,0.0,0.0,0.001089,0.0,0.0,0.0,0.005625,2
1672947566222056796,285335,1672947566220812867,gps,2,1,42.3009730116,-83.6979608286,272.475402832,0.001089,0.0,0.0,0.0,0.001089,0.0,0.0,0.0,0.005625,2
1672947566241804520,285336,1672947566240915099,gps,2,1,42.3009730215,-83.6979620612,272.472473145,0.001089,0.0,0.0,0.0,0.001089,0.0,0.0,0.0,0.005625,2
1672947566261603818,285337,1672947566260781651,gps,2,1,42.3009730625,-83.6979632934,272.469787598,0.001089,0.0,0.0,0.0,0.001089,0.0,0.0,0.0,0.005625,2
1672947566281907021,285338,1672947566280887637,gps,2,1,42.3009731021,-83.6979645266,272.467071533,0.001089,0.0,0.0,0.0,0.001089,0.0,0.0,0.0,0.005625,2
1672947566302182669,285339,1672947566300928495,gps,2,1,42.3009731129,-83.6979657642,272.464141846,0.001089,0.0,0.0,0.0,0.001089,0.0,0.0,0.0,0.005625,2
1672947566322207341,285340,1672947566320841876,gps,2,1,42.3009731538,-83.6979670035,272.461364746,0.001089,0.0,0.0,0.0,0.001089,0.0,0.0,0.0,0.005625,2
1672947566342258771,285341,1672947566340848742,gps,2,1,42.3009731937,-83.6979682434,272.458618164,0.001089,0.0,0.0,0.0,0.001089,0.0,0.0,0.0,0.005625,2
1672947566361997252,285342,1672947566360840815,gps,2,1,42.300973206,-83.697969485,272.455810547,0.001089,0.0,0.0,0.0,0.001089,0.0,0.0,0.0,0.005625,2
1672947566381887739,285343,1672947566380888621,gps,2,1,42.300973246,-83.6979707287,272.453308105,0.001089,0.0,0.0,0.0,0.001089,0.0,0.0,0.0,0.005625,2
1672947566401772073,285344,1672947566400833420,gps,2,1,42.3009732874,-83.6979719704,272.450744629,0.001089,0.0,0.0,0.0,0.001089,0.0,0.0,0.0,0.005625,2
1672947566421909408,285345,1672947566420948283,gps,2,1,42.3009733002,-83.6979732164,272.448150635,0.001089,0.0,0.0,0.0,0.001089,0.0,0.0,0.0,0.005625,2
1672947566442070598,285346,1672947566440963874,gps,2,1,42.30097334,-83.697974464,272.445800781,0.001089,0.0,0.0,0.0,0.001089,0.0,0.0,0.0,0.005625,2
1672947566462195207,285347,1672947566460806823,gps,2,1,42.3009733799,-83.6979757122,272.443603516,0.001089,0.0,0.0,0.0,0.001089,0.0,0.0,0.0,0.005625,2
1672947566482055818,285348,1672947566480881277,gps,2,1,42.3009733919,-83.6979769614,272.441375732,0.001089,0.0,0.0,0.0,0.001089,0.0,0.0,0.0,0.005625,2
1672947566502303398,285349,1672947566500947477,gps,2,1,42.3009734288,-83.6979782144,272.439575195,0.001089,0.0,0.0,0.0,0.001089,0.0,0.0,0.0,0.005625,2
1672947566521724885,285350,1672947566520821177,gps,2,1,42.3009734752,-83.6979794662,272.437744141,0.001089,0.0,0.0,0.0,0.001089,0.0,0.0,0.0,0.005625,2
1672947566542084987,285351,1672947566540984791,gps,2,1,42.300973486,-83.6979807211,272.435699463,0.001089,0.0,0.0,0.0,0.001089,0.0,0.0,0.0,0.005625,2
1672947566562274593,285352,1672947566560907019,gps,2,1,42.3009735293,-83.6979819797,272.433807373,0.001089,0.0,0.0,0.0,0.001089,0.0,0.0,0.0,0.005625,2
1672947566582013454,285353,1672947566580807493,gps,2,1,42.3009735728,-83.6979832386,272.43182373,0.001089,0.0,0.0,0.0,0.001089,0.0,0.0,0.0,0.005625,2
1672947566602188623,285354,1672947566600919388,gps,2,1,42.3009735828,-83.697984499,272.429504395,0.001089,0.0,0.0,0.0,0.001089,0.0,0.0,0.0,0.005625,2
1672947566621934958,285355,1672947566620930832,gps,2,1,42.3009736247,-83.6979857637,272.427062988,0.001089,0.0,0.0,0.0,0.001089,0.0,0.0,0.0,0.005625,2
1672947566642032056,285356,1672947566640796191,gps,2,1,42.3009736652,-83.6979870288,272.424591064,0.001089,0.0,0.0,0.0,0.001089,0.0,0.0,0.0,0.005625,2
1672947566662113450,285357,1672947566660855399,gps,2,1,42.3009736747,-83.6979882947,272.42175293,0.001089,0.0,0.0,0.0,0.001089,0.0,0.0,0.0,0.005625,2
1672947566682165114,285358,1672947566680879456,gps,2,1,42.3009737117,-83.6979895637,272.419219971,0.001089,0.0,0.0,0.0,0.001089,0.0,0.0,0.0,0.005625,2
1672947566701836177,285359,1672947566700784955,gps,2,1,42.3009737478,-83.6979908334,272.416656494,0.001089,0.0,0.0,0.0,0.001089,0.0,0.0,0.0,0.005625,2
1672947566722080861,285360,1672947566720814160,gps,2,1,42.3009737576,-83.6979921043,272.413452148,0.001089,0.0,0.0,0.0,0.001089,0.0,0.0,0.0,0.005625,2
1672947566742149916,285361,1672947566740851354,gps,2,1,42.3009737939,-83.6979933788,272.410766602,0.001089,0.0,0.0,0.0,0.001089,0.0,0.0,0.0,0.005625,2
1672947566762198499,285362,1672947566760800308,gps,2,1,42.3009738306,-83.6979946558,272.40802002,0.001089,0.0,0.0,0.0,0.001089,0.0,0.0,0.0,0.005625,2
1672947566782053267,285363,1672947566780881307,gps,2,1,42.3009738419,-83.6979959325,272.404907227,0.001089,0.0,0.0,0.0,0.001089,0.0,0.0,0.0,0.005625,2
1672947566801967715,285364,1672947566800876854,gps,2,1,42.3009738797,-83.6979972145,272.402404785,0.001089,0.0,0.0,0.0,0.001089,0.0,0.0,0.0,0.005625,2
1672947566821752618,285365,1672947566820843831,gps,2,1,42.3009739165,-83.6979984965,272.399871826,0.001089,0.0,0.0,0.0,0.001089,0.0,0.0,0.0,0.005625,2
1672947566841815839,285366,1672947566840848496,gps,2,1,42.3009739297,-83.6979997781,272.397094727,0.001089,0.0,0.0,0.0,0.001089,0.0,0.0,0.0,0.005625,2
1672947566862187273,285367,1672947566860833221,gps,2,1,42.3009739672,-83.6980010651,272.394989014,0.001089,0.0,0.0,0.0,0.001089,0.0,0.0,0.0,0.005625,2
1672947566882204061,285368,1672947566880826230,gps,2,1,42.3009740036,-83.698002352,272.392852783,0.001089,0.0,0.0,0.0,0.001089,0.0,0.0,0.0,0.005625,2
1672947566902312725,285369,1672947566900890444,gps,2,1,42.3009740176,-83.6980036385,272.390411377,0.001089,0.0,0.0,0.0,0.001089,0.0,0.0,0.0,0.005625,2
1672947566921996690,285370,1672947566920862973,gps,2,1,42.300974053,-83.6980049307,272.388458252,0.001089,0.0,0.0,0.0,0.001089,0.0,0.0,0.0,0.005625,2
1672947566942340717,285371,1672947566940955899,gps,2,1,42.3009740875,-83.6980062233,272.386505127,0.001089,0.0,0.0,0.0,0.001089,0.0,0.0,0.0,0.005625,2
1672947566961856723,285372,1672947566960915146,gps,2,1,42.3009741018,-83.6980075139,272.384307861,0.001089,0.0,0.0,0.0,0.001089,0.0,0.0,0.0,0.005625,2
1672947566981772586,285373,1672947566980849522,gps,2,1,42.3009741354,-83.6980088102,272.382385254,0.001089,0.0,0.0,0.0,0.001089,0.0,0.0,0.0,0.005625,2
1672947567002278671,285374,1672947567000885146,gps,2,1,42.3009741738,-83.6980101031,272.380584717,0.001089,0.0,0.0,0.0,0.001089,0.0,0.0,0.0,0.005625,2
1672947567022189800,285375,1672947567020950428,gps,2,1,42.3009741879,-83.6980113969,272.378540039,0.001089,0.0,0.0,0.0,0.001089,0.0,0.0,0.0,0.005625,2
1672947567041973481,285376,1672947567040877024,gps,2,1,42.3009742336,-83.6980126928,272.377227783,0.001089,0.0,0.0,0.0,0.001089,0.0,0.0,0.0,0.005625,2
1672947567062308046,285377,1672947567060920777,gps,2,1,42.3009742784,-83.6980139886,272.375701904,0.001089,0.0,0.0,0.0,0.001089,0.0,0.0,0.0,0.005625,2
1672947567082236658,285378,1672947567080902015,gps,2,1,42.3009742899,-83.6980152863,272.373809814,0.001089,0.0,0.0,0.0,0.001089,0.0,0.0,0.0,0.005625,2
1672947567102319456,285379,1672947567100888483,gps,2,1,42.3009743286,-83.6980165871,272.37210083,0.001089,0.0,0.0,0.0,0.001089,0.0,0.0,0.0,0.005625,2
1672947567122188354,285380,1672947567120936223,gps,2,1,42.3009743667,-83.6980178886,272.370361328,0.001089,0.0,0.0,0.0,0.001089,0.0,0.0,0.0,0.005625,2
1672947567142286321,285381,1672947567140815592,gps,2,1,42.3009743744,-83.6980191884,272.367889404,0.001089,0.0,0.0,0.0,0.001089,0.0,0.0,0.0,0.005625,2
1672947567162145981,285382,1672947567160885810,gps,2,1,42.3009744076,-83.6980204927,272.365447998,0.001089,0.0,0.0,0.0,0.001089,0.0,0.0,0.0,0.005625,2
1672947567181996109,285383,1672947567180922764,gps,2,1,42.3009744401,-83.6980217961,272.362976074,0.001089,0.0,0.0,0.0,0.001089,0.0,0.0,0.0,0.005625,2
1672947567201951740,285384,1672947567200835083,gps,2,1,42.3009744452,-83.6980230994,272.359863281,0.001089,0.0,0.0,0.0,0.001089,0.0,0.0,0.0,0.005625,2
1672947567221906491,285385,1672947567220799523,gps,2,1,42.3009744763,-83.6980244051,272.356719971,0.001089,0.0,0.0,0.0,0.001089,0.0,0.0,0.0,0.005625,2
1672947567242074791,285386,1672947567240800539,gps,2,1,42.3009745064,-83.6980257105,272.353546143,0.001089,0.0,0.0,0.0,0.001089,0.0,0.0,0.0,0.005625,2
1672947567262117020,285387,1672947567260832762,gps,2,1,42.3009745115,-83.6980270177,272.349945068,0.001089,0.0,0.0,0.0,0.001089,0.0,0.0,0.0,0.005625,2
1672947567281924595,285388,1672947567280793657,gps,2,1,42.3009745432,-83.6980283304,272.346313477,0.001089,0.0,0.0,0.0,0.001089,0.0,0.0,0.0,0.005625,2
