%time,field.header.seq,field.header.stamp,field.header.frame_id,field.twist.twist.linear.x,field.twist.twist.linear.y,field.twist.twist.linear.z,field.twist.twist.angular.x,field.twist.twist.angular.y,field.twist.twist.angular.z,field.twist.covariance0,field.twist.covariance1,field.twist.covariance2,field.twist.covariance3,field.twist.covariance4,field.twist.covariance5,field.twist.covariance6,field.twist.covariance7,field.twist.covariance8,field.twist.covariance9,field.twist.covariance10,field.twist.covariance11,field.twist.covariance12,field.twist.covariance13,field.twist.covariance14,field.twist.covariance15,field.twist.covariance16,field.twist.covariance17,field.twist.covariance18,field.twist.covariance19,field.twist.covariance20,field.twist.covariance21,field.twist.covariance22,field.twist.covariance23,field.twist.covariance24,field.twist.covariance25,field.twist.covariance26,field.twist.covariance27,field.twist.covariance28,field.twist.covariance29,field.twist.covariance30,field.twist.covariance31,field.twist.covariance32,field.twist.covariance33,field.twist.covariance34,field.twist.covariance35
1672945164366548712,165242,1672945164398474914,enu,-0.0287,0.086,-0.0005,0.0,0.0,0.0,0.000169,0.0,0.0,0.0,0.0,0.0,0.0,0.000169,0.0,0.0,0.0,0.0,0.0,0.0,0.0001,0.0,0.0,0.0,0.0,0.0,0.0,0.0,0.0,0.0,0.0,0.0,0.0,0.0,0.0,0.0,0.0,0.0,0.0,0.0,0.0,0.0
1672945164386763508,165243,1672945164418518734,enu,-0.0325,0.0975,-0.0006,0.0,0.0,0.0,0.000169,0.0,0.0,0.0,0.0,0.0,0.0,0.000169,0.0,0.0,0.0,0.0,0.0,0.0,0.0001,0.0,0.0,0.0,0.0,0.0,0.0,0.0,0.0,0.0,0.0,0.0,0.0,0.0,0.0,0.0,0.0,0.0,0.0,0.0,0.0,0.0
1672945164406361676,165244,1672945164438596656,enu,-0.0393,0.1128,-0.0003,0.0,0.0,0.0,0.000169,0.0,0.0,0.0,0.0,0.0,0.0,0.000169,0.0,0.0,0.0,0.0,0.0,0.0,0.0001,0.0,0.0,0.0,0.0,0.0,0.0,0.0,0.0,0.0,0.0,0.0,0.0,0.0,0.0,0.0,0.0,0.0,0.0,0.0,0.0,0.0
1672945164426546624,165245,1672945164458521857,enu,-0.0463,0.1291,0.0002,0.0,0.0,0.0,0.000169,0.0,0.0,0.0,0.0,0.0,0.0,0.000169,0.0,0.0,0.0,0.0,0.0,0.0,0.0001,0.0,0.0,0.0,0.0,0.0,0.0,0.0,0.0,0.0,0.0,0.0,0.0,0.0,0.0,0.0,0.0,0.0,0.0,0.0,0.0,0.0
1672945164446758896,165246,1672945164478484729,enu,-0.0502,0.1397,0.0004,0.0,0.0,0.0,0.000169,0.0,0.0,0.0,0.0,0.0,0.0,0.000169,0.0,0.0,0.0,0.0,0.0,0.0,0.0001,0.0,0.0,0.0,0.0,0.0,0.0,0.0,0.0,0.0,0.0,0.0,0.0,0.0,0.0,0.0,0.0,0.0,0.0,0.0,0.0,0.0
1672945164466895213,165247,1672945164498586075,enu,-0.0546,0.1505,0.0016,0.0,0.0,0.0,0.000169,0.0,0.0,0.0,0.0,0.0,0.0,0.000169,0.0,0.0,0.0,0.0,0.0,0.0,0.0001,0.0,0.0,0.0,0.0,0.0,0.0,0.0,0.0,0.0,0.0,0.0,0.0,0.0,0.0,0.0,0.0,0.0,0.0,0.0,0.0,0.0
1672945164486740469,165248,1672945164518573980,enu,-0.0644,0.1726,0.0032,0.0,0.0,0.0,0.000169,0.0,0.0,0.0,0.0,0.0,0.0,0.000169,0.0,0.0,0.0,0.0,0.0,0.0,0.0001,0.0,0.0,0.0,0.0,0.0,0.0,0.0,0.0,0.0,0.0,0.0,0.0,0.0,0.0,0.0,0.0,0.0,0.0,0.0,0.0,0.0
1672945164507013861,165249,1672945164538730797,enu,-0.0703,0.1885,0.0036,0.0,0.0,0.0,0.000169,0.0,0.0,0.0,0.0,0.0,0.0,0.000169,0.0,0.0,0.0,0.0,0.0,0.0,0.0001,0.0,0.0,0.0,0.0,0.0,0.0,0.0,0.0,0.0,0.0,0.0,0.0,0.0,0.0,0.0,0.0,0.0,0.0,0.0,0.0,0.0
1672945164526804075,165250,1672945164558621961,enu,-0.0763,0.2012,0.0049,0.0,0.0,0.0,0.000169,0.0,0.0,0.0,0.0,0.0,0.0,0.000169,0.0,0.0,0.0,0.0,0.0,0.0,0.0001,0.0,0.0,0.0,0.0,0.0,0.0,0.0,0.0,0.0,0.0,0.0,0.0,0.0,0.0,0.0,0.0,0.0,0.0,0.0,0.0,0.0
1672945164546382834,165251,1672945164578586656,enu,-0.0842,0.2229,0.0043,0.0,0.0,0.0,0.000169,0.0,0.0,0.0,0.0,0.0,0.0,0.000169,0.0,0.0,0.0,0.0,0.0,0.0,0.0001,0.0,0.0,0.0,0.0,0.0,0.0,0.0,0.0,0.0,0.0,0.0,0.0,0.0,0.0,0.0,0.0,0.0,0.0,0.0,0.0,0.0
1672945164566527125,165252,1672945164598592373,enu,-0.088,0.2356,0.0074,0.0,0.0,0.0,0.000169,0.0,0.0,0.0,0.0,0.0,0.0,0.000169,0.0,0.0,0.0,0.0,0.0,0.0,0.0001,0.0,0.0,0.0,0.0,0.0,0.0,0.0,0.0,0.0,0.0,0.0,0.0,0.0,0.0,0.0,0.0,0.0,0.0,0.0,0.0,0.0
1672945164586882699,165253,1672945164618573349,enu,-0.0988,0.2628,0.0058,0.0,0.0,0.0,0.000169,0.0,0.0,0.0,0.0,0.0,0.0,0.000169,0.0,0.0,0.0,0.0,0.0,0.0,0.0001,0.0,0.0,0.0,0.0,0.0,0.0,0.0,0.0,0.0,0.0,0.0,0.0,0.0,0.0,0.0,0.0,0.0,0.0,0.0,0.0,0.0
1672945164606803351,165254,1672945164638611035,enu,-0.1055,0.2799,0.0093,0.0,0.0,0.0,0.000169,0.0,0.0,0.0,0.0,0.0,0.0,0.000169,0.0,0.0,0.0,0.0,0.0,0.0,0.0001,0.0,0.0,0.0,0.0,0.0,0.0,0.0,0.0,0.0,0.0,0.0,0.0,0.0,0.0,0.0,0.0,0.0,0.0,0.0,0.0,0.0
1672945164626806237,165255,1672945164658640538,enu,-0.1152,0.3067,0.0075,0.0,0.0,0.0,0.000169,0.0,0.0,0.0,0.0,0.0,0.0,0.000169,0.0,0.0,0.0,0.0,0.0,0.0,0.0001,0.0,0.0,0.0,0.0,0.0,0.0,0.0,0.0,0.0,0.0,0.0,0.0,0.0,0.0,0.0,0.0,0.0,0.0,0.0,0.0,0.0
1672945164646683491,165256,1672945164678555718,enu,-0.1208,0.3212,0.0117,0.0,0.0,0.0,0.000169,0.0,0.0,0.0,0.0,0.0,0.0,0.000169,0.0,0.0,0.0,0.0,0.0,0.0,0.0001,0.0,0.0,0.0,0.0,0.0,0.0,0.0,0.0,0.0,0.0,0.0,0.0,0.0,0.0,0.0,0.0,0.0,0.0,0.0,0.0,0.0
1672945164666514772,165257,1672945164698549128,enu,-0.1279,0.3429,0.0105,0.0,0.0,0.0,0.000169,0.0,0.0,0.0,0.0,0.0,0.0,0.000169,0.0,0.0,0.0,0.0,0.0,0.0,0.0001,0.0,0.0,0.0,0.0,0.0,0.0,0.0,0.0,0.0,0.0,0.0,0.0,0.0,0.0,0.0,0.0,0.0,0.0,0.0,0.0,0.0
1672945164686700848,165258,1672945164718761006,enu,-0.1378,0.3642,0.0121,0.0,0.0,0.0,0.000169,0.0,0.0,0.0,0.0,0.0,0.0,0.000169,0.0,0.0,0.0,0.0,0.0,0.0,0.0001,0.0,0.0,0.0,0.0,0.0,0.0,0.0,0.0,0.0,0.0,0.0,0.0,0.0,0.0,0.0,0.0,0.0,0.0,0.0,0.0,0.0
1672945164706325955,165259,1672945164738574379,enu,-0.1455,0.3915,0.0164,0.0,0.0,0.0,0.000169,0.0,0.0,0.0,0.0,0.0,0.0,0.000169,0.0,0.0,0.0,0.0,0.0,0.0,0.0001,0.0,0.0,0.0,0.0,0.0,0.0,0.0,0.0,0.0,0.0,0.0,0.0,0.0,0.0,0.0,0.0,0.0,0.0,0.0,0.0,0.0
1672945164726674409,165260,1672945164758516999,enu,-0.1573,0.4152,0.014,0.0,0.0,0.0,0.000169,0.0,0.0,0.0,0.0,0.0,0.0,0.000169,0.0,0.0,0.0,0.0,0.0,0.0,0.0001,0.0,0.0,0.0,0.0,0.0,0.0,0.0,0.0,0.0,0.0,0.0,0.0,0.0,0.0,0.0,0.0,0.0,0.0,0.0,0.0,0.0
1672945164746261470,165261,1672945164778538734,enu,-0.1622,0.436,0.0152,0.0,0.0,0.0,0.000169,0.0,0.0,0.0,0.0,0.0,0.0,0.000169,0.0,0.0,0.0,0.0,0.0,0.0,0.0001,0.0,0.0,0.0,0.0,0.0,0.0,0.0,0.0,0.0,0.0,0.0,0.0,0.0,0.0,0.0,0.0,0.0,0.0,0.0,0.0,0.0
1672945164766899079,165262,1672945164798663653,enu,-0.1729,0.4611,0.0193,0.0,0.0,0.0,0.000169,0.0,0.0,0.0,0.0,0.0,0.0,0.000169,0.0,0.0,0.0,0.0,0.0,0.0,0.0001,0.0,0.0,0.0,0.0,0.0,0.0,0.0,0.0,0.0,0.0,0.0,0.0,0.0,0.0,0.0,0.0,0.0,0.0,0.0,0.0,0.0
1672945164786560644,165263,1672945164818611238,enu,-0.1827,0.487,0.02,0.0,0.0,0.0,0.000169,0.0,0.0,0.0,0.0,0.0,0.0,0.000169,0.0,0.0,0.0,0.0,0.0,0.0,0.0001,0.0,0.0,0.0,0.0,0.0,0.0,0.0,0.0,0.0,0.0,0.0,0.0,0.0,0.0,0.0,0.0,0.0,0.0,0.0,0.0,0.0
1672945164806804800,165264,1672945164838634045,enu,-0.1929,0.5162,0.0188,0.0,0.0,0.0,0.000169,0.0,0.0,0.0,0.0,0.0,0.0,0.000169,0.0,0.0,0.0,0.0,0.0,0.0,0.0001,0.0,0.0,0.0,0.0,0.0,0.0,0.0,0.0,0.0,0.0,0.0,0.0,0.0,0.0,0.0,0.0,0.0,0.0,0.0,0.0,0.0
1672945164826360621,165265,1672945164858533765,enu,-0.201,0.543,0.0211,0.0,0.0,0.0,0.000169,0.0,0.0,0.0,0.0,0.0,0.0,0.000169,0.0,0.0,0.0,0.0,0.0,0.0,0.0001,0.0,0.0,0.0,0.0,0.0,0.0,0.0,0.0,0.0,0.0,0.0,0.0,0.0,0.0,0.0,0.0,0.0,0.0,0.0,0.0,0.0
1672945164846716004,165266,1672945164878526517,enu,-0.211,0.5675,0.024,0.0,0.0,0.0,0.000169,0.0,0.0,0.0,0.0,0.0,0.0,0.000169,0.0,0.0,0.0,0.0,0.0,0.0,0.0001,0.0,0.0,0.0,0.0,0.0,0.0,0.0,0.0,0.0,0.0,0.0,0.0,0.0,0.0,0.0,0.0,0.0,0.0,0.0,0.0,0.0
1672945164866317686,165267,1672945164898572238,enu,-0.2219,0.5954,0.0245,0.0,0.0,0.0,0.000169,0.0,0.0,0.0,0.0,0.0,0.0,0.000169,0.0,0.0,0.0,0.0,0.0,0.0,0.0001,0.0,0.0,0.0,0.0,0.0,0.0,0.0,0.0,0.0,0.0,0.0,0.0,0.0,0.0,0.0,0.0,0.0,0.0,0.0,0.0,0.0
1672945164886593594,165268,1672945164918553281,enu,-0.2305,0.6254,0.0255,0.0,0.0,0.0,0.000169,0.0,0.0,0.0,0.0,0.0,0.0,0.000169,0.0,0.0,0.0,0.0,0.0,0.0,0.0001,0.0,0.0,0.0,0.0,0.0,0.0,0.0,0.0,0.0,0.0,0.0,0.0,0.0,0.0,0.0,0.0,0.0,0.0,0.0,0.0,0.0
1672945164906923616,165269,1672945164938627525,enu,-0.2403,0.6563,0.0264,0.0,0.0,0.0,0.000169,0.0,0.0,0.0,0.0,0.0,0.0,0.000169,0.0,0.0,0.0,0.0,0.0,0.0,0.0001,0.0,0.0,0.0,0.0,0.0,0.0,0.0,0.0,0.0,0.0,0.0,0.0,0.0,0.0,0.0,0.0,0.0,0.0,0.0,0.0,0.0
1672945164926610871,165270,1672945164958626519,enu,-0.2499,0.6823,0.0291,0.0,0.0,0.0,0.000169,0.0,0.0,0.0,0.0,0.0,0.0,0.000169,0.0,0.0,0.0,0.0,0.0,0.0,0.0001,0.0,0.0,0.0,0.0,0.0,0.0,0.0,0.0,0.0,0.0,0.0,0.0,0.0,0.0,0.0,0.0,0.0,0.0,0.0,0.0,0.0
1672945164946364386,165271,1672945164978539258,enu,-0.2598,0.7106,0.0301,0.0,0.0,0.0,0.000169,0.0,0.0,0.0,0.0,0.0,0.0,0.000169,0.0,0.0,0.0,0.0,0.0,0.0,0.0001,0.0,0.0,0.0,0.0,0.0,0.0,0.0,0.0,0.0,0.0,0.0,0.0,0.0,0.0,0.0,0.0,0.0,0.0,0.0,0.0,0.0
1672945164966755743,165272,1672945164998512579,enu,-0.2687,0.74,0.0321,0.0,0.0,0.0,0.000169,0.0,0.0,0.0,0.0,0.0,0.0,0.000169,0.0,0.0,0.0,0.0,0.0,0.0,0.0001,0.0,0.0,0.0,0.0,0.0,0.0,0.0,0.0,0.0,0.0,0.0,0.0,0.0,0.0,0.0,0.0,0.0,0.0,0.0,0.0,0.0
1672945164987016546,165273,1672945165018564520,enu,-0.2777,0.7716,0.0334,0.0,0.0,0.0,0.000169,0.0,0.0,0.0,0.0,0.0,0.0,0.000169,0.0,0.0,0.0,0.0,0.0,0.0,0.0001,0.0,0.0,0.0,0.0,0.0,0.0,0.0,0.0,0.0,0.0,0.0,0.0,0.0,0.0,0.0,0.0,0.0,0.0,0.0,0.0,0.0
1672945165007012174,165274,1672945165038710362,enu,-0.2872,0.8023,0.0349,0.0,0.0,0.0,0.000169,0.0,0.0,0.0,0.0,0.0,0.0,0.000169,0.0,0.0,0.0,0.0,0.0,0.0,0.0001,0.0,0.0,0.0,0.0,0.0,0.0,0.0,0.0,0.0,0.0,0.0,0.0,0.0,0.0,0.0,0.0,0.0,0.0,0.0,0.0,0.0
1672945165026291162,165275,1672945165058579817,enu,-0.2962,0.8326,0.0358,0.0,0.0,0.0,0.000169,0.0,0.0,0.0,0.0,0.0,0.0,0.000169,0.0,0.0,0.0,0.0,0.0,0.0,0.0001,0.0,0.0,0.0,0.0,0.0,0.0,0.0,0.0,0.0,0.0,0.0,0.0,0.0,0.0,0.0,0.0,0.0,0.0,0.0,0.0,0.0
1672945165047199769,165276,1672945165078664597,enu,-0.3063,0.8657,0.0365,0.0,0.0,0.0,0.000169,0.0,0.0,0.0,0.0,0.0,0.0,0.000169,0.0,0.0,0.0,0.0,0.0,0.0,0.0001,0.0,0.0,0.0,0.0,0.0,0.0,0.0,0.0,0.0,0.0,0.0,0.0,0.0,0.0,0.0,0.0,0.0,0.0,0.0,0.0,0.0
1672945165066911885,165277,1672945165098564884,enu,-0.3155,0.8977,0.0375,0.0,0.0,0.0,0.000169,0.0,0.0,0.0,0.0,0.0,0.0,0.000169,0.0,0.0,0.0,0.0,0.0,0.0,0.0001,0.0,0.0,0.0,0.0,0.0,0.0,0.0,0.0,0.0,0.0,0.0,0.0,0.0,0.0,0.0,0.0,0.0,0.0,0.0,0.0,0.0
1672945165086640909,165278,1672945165118612521,enu,-0.3255,0.9306,0.0379,0.0,0.0,0.0,0.000169,0.0,0.0,0.0,0.0,0.0,0.0,0.000169,0.0,0.0,0.0,0.0,0.0,0.0,0.0001,0.0,0.0,0.0,0.0,0.0,0.0,0.0,0.0,0.0,0.0,0.0,0.0,0.0,0.0,0.0,0.0,0.0,0.0,0.0,0.0,0.0
1672945165106401778,165279,1672945165138675346,enu,-0.3351,0.962,0.0381,0.0,0.0,0.0,0.000169,0.0,0.0,0.0,0.0,0.0,0.0,0.000169,0.0,0.0,0.0,0.0,0.0,0.0,0.0001,0.0,0.0,0.0,0.0,0.0,0.0,0.0,0.0,0.0,0.0,0.0,0.0,0.0,0.0,0.0,0.0,0.0,0.0,0.0,0.0,0.0
1672945165126959001,165280,1672945165158601119,enu,-0.3451,0.9956,0.0388,0.0,0.0,0.0,0.000169,0.0,0.0,0.0,0.0,0.0,0.0,0.000169,0.0,0.0,0.0,0.0,0.0,0.0,0.0001,0.0,0.0,0.0,0.0,0.0,0.0,0.0,0.0,0.0,0.0,0.0,0.0,0.0,0.0,0.0,0.0,0.0,0.0,0.0,0.0,0.0
1672945165146247047,165281,1672945165178532568,enu,-0.356,1.0294,0.0387,0.0,0.0,0.0,0.000169,0.0,0.0,0.0,0.0,0.0,0.0,0.000169,0.0,0.0,0.0,0.0,0.0,0.0,0.0001,0.0,0.0,0.0,0.0,0.0,0.0,0.0,0.0,0.0,0.0,0.0,0.0,0.0,0.0,0.0,0.0,0.0,0.0,0.0,0.0,0.0
1672945165166648323,165282,1672945165198563029,enu,-0.3656,1.0624,0.039,0.0,0.0,0.0,0.000169,0.0,0.0,0.0,0.0,0.0,0.0,0.000169,0.0,0.0,0.0,0.0,0.0,0.0,0.0001,0.0,0.0,0.0,0.0,0.0,0.0,0.0,0.0,0.0,0.0,0.0,0.0,0.0,0.0,0.0,0.0,0.0,0.0,0.0,0.0,0.0
1672945165186836754,165283,1672945165218623063,enu,-0.3761,1.0954,0.039,0.0,0.0,0.0,0.000169,0.0,0.0,0.0,0.0,0.0,0.0,0.000169,0.0,0.0,0.0,0.0,0.0,0.0,0.0001,0.0,0.0,0.0,0.0,0.0,0.0,0.0,0.0,0.0,0.0,0.0,0.0,0.0,0.0,0.0,0.0,0.0,0.0,0.0,0.0,0.0
1672945165206777057,165284,1672945165238522414,enu,-0.3865,1.1306,0.0398,0.0,0.0,0.0,0.000169,0.0,0.0,0.0,0.0,0.0,0.0,0.000169,0.0,0.0,0.0,0.0,0.0,0.0,0.0001,0.0,0.0,0.0,0.0,0.0,0.0,0.0,0.0,0.0,0.0,0.0,0.0,0.0,0.0,0.0,0.0,0.0,0.0,0.0,0.0,0.0
1672945165226798092,165285,1672945165258607019,enu,-0.3966,1.1631,0.0403,0.0,0.0,0.0,0.000169,0.0,0.0,0.0,0.0,0.0,0.0,0.000169,0.0,0.0,0.0,0.0,0.0,0.0,0.0001,0.0,0.0,0.0,0.0,0.0,0.0,0.0,0.0,0.0,0.0,0.0,0.0,0.0,0.0,0.0,0.0,0.0,0.0,0.0,0.0,0.0
1672945165246325465,165286,1672945165278524510,enu,-0.4063,1.1992,0.0412,0.0,0.0,0.0,0.000169,0.0,0.0,0.0,0.0,0.0,0.0,0.000169,0.0,0.0,0.0,0.0,0.0,0.0,0.0001,0.0,0.0,0.0,0.0,0.0,0.0,0.0,0.0,0.0,0.0,0.0,0.0,0.0,0.0,0.0,0.0,0.0,0.0,0.0,0.0,0.0
1672945165266973667,165287,1672945165298549946,enu,-0.4164,1.2325,0.0417,0.0,0.0,0.0,0.000169,0.0,0.0,0.0,0.0,0.0,0.0,0.000169,0.0,0.0,0.0,0.0,0.0,0.0,0.0001,0.0,0.0,0.0,0.0,0.0,0.0,0.0,0.0,0.0,0.0,0.0,0.0,0.0,0.0,0.0,0.0,0.0,0.0,0.0,0.0,0.0
1672945165286770068,165288,1672945165318579074,enu,-0.4255,1.2687,0.0429,0.0,0.0,0.0,0.000169,0.0,0.0,0.0,0.0,0.0,0.0,0.000169,0.0,0.0,0.0,0.0,0.0,0.0,0.0001,0.0,0.0,0.0,0.0,0.0,0.0,0.0,0.0,0.0,0.0,0.0,0.0,0.0,0.0,0.0,0.0,0.0,0.0,0.0,0.0,0.0
1672945165306560677,165289,1672945165338530375,enu,-0.4354,1.3028,0.0442,0.0,0.0,0.0,0.000169,0.0,0.0,0.0,0.0,0.0,0.0,0.000169,0.0,0.0,0.0,0.0,0.0,0.0,0.0001,0.0,0.0,0.0,0.0,0.0,0.0,0.0,0.0,0.0,0.0,0.0,0.0,0.0,0.0,0.0,0.0,0.0,0.0,0.0,0.0,0.0
1672945165326578765,165290,1672945165358568538,enu,-0.4443,1.3386,0.0454,0.0,0.0,0.0,0.000169,0.0,0.0,0.0,0.0,0.0,0.0,0.000169,0.0,0.0,0.0,0.0,0.0,0.0,0.0001,0.0,0.0,0.0,0.0,0.0,0.0,0.0,0.0,0.0,0.0,0.0,0.0,0.0,0.0,0.0,0.0,0.0,0.0,0.0,0.0,0.0
1672945165346512967,165291,1672945165378610980,enu,-0.4535,1.3736,0.0465,0.0,0.0,0.0,0.000169,0.0,0.0,0.0,0.0,0.0,0.0,0.000169,0.0,0.0,0.0,0.0,0.0,0.0,0.0001,0.0,0.0,0.0,0.0,0.0,0.0,0.0,0.0,0.0,0.0,0.0,0.0,0.0,0.0,0.0,0.0,0.0,0.0,0.0,0.0,0.0
1672945165366830427,165292,1672945165398488792,enu,-0.4621,1.4098,0.0486,0.0,0.0,0.0,0.000169,0.0,0.0,0.0,0.0,0.0,0.0,0.000169,0.0,0.0,0.0,0.0,0.0,0.0,0.0001,0.0,0.0,0.0,0.0,0.0,0.0,0.0,0.0,0.0,0.0,0.0,0.0,0.0,0.0,0.0,0.0,0.0,0.0,0.0,0.0,0.0
1672945165386335972,165293,1672945165418589419,enu,-0.4709,1.4447,0.0502,0.0,0.0,0.0,0.000169,0.0,0.0,0.0,0.0,0.0,0.0,0.000169,0.0,0.0,0.0,0.0,0.0,0.0,0.0001,0.0,0.0,0.0,0.0,0.0,0.0,0.0,0.0,0.0,0.0,0.0,0.0,0.0,0.0,0.0,0.0,0.0,0.0,0.0,0.0,0.0
1672945165406663586,165294,1672945165438634098,enu,-0.4796,1.4806,0.0516,0.0,0.0,0.0,0.000169,0.0,0.0,0.0,0.0,0.0,0.0,0.000169,0.0,0.0,0.0,0.0,0.0,0.0,0.0001,0.0,0.0,0.0,0.0,0.0,0.0,0.0,0.0,0.0,0.0,0.0,0.0,0.0,0.0,0.0,0.0,0.0,0.0,0.0,0.0,0.0
1672945165426576429,165295,1672945165458514328,enu,-0.4877,1.5155,0.0534,0.0,0.0,0.0,0.000169,0.0,0.0,0.0,0.0,0.0,0.0,0.000169,0.0,0.0,0.0,0.0,0.0,0.0,0.0001,0.0,0.0,0.0,0.0,0.0,0.0,0.0,0.0,0.0,0.0,0.0,0.0,0.0,0.0,0.0,0.0,0.0,0.0,0.0,0.0,0.0
1672945165446305245,165296,1672945165478522294,enu,-0.4963,1.5514,0.0554,0.0,0.0,0.0,0.000169,0.0,0.0,0.0,0.0,0.0,0.0,0.000169,0.0,0.0,0.0,0.0,0.0,0.0,0.0001,0.0,0.0,0.0,0.0,0.0,0.0,0.0,0.0,0.0,0.0,0.0,0.0,0.0,0.0,0.0,0.0,0.0,0.0,0.0,0.0,0.0
1672945165466723372,165297,1672945165498711863,enu,-0.5044,1.5868,0.0581,0.0,0.0,0.0,0.000169,0.0,0.0,0.0,0.0,0.0,0.0,0.000169,0.0,0.0,0.0,0.0,0.0,0.0,0.0001,0.0,0.0,0.0,0.0,0.0,0.0,0.0,0.0,0.0,0.0,0.0,0.0,0.0,0.0,0.0,0.0,0.0,0.0,0.0,0.0,0.0
1672945165486610964,165298,1672945165518570604,enu,-0.5124,1.6222,0.0603,0.0,0.0,0.0,0.000169,0.0,0.0,0.0,0.0,0.0,0.0,0.000169,0.0,0.0,0.0,0.0,0.0,0.0,0.0001,0.0,0.0,0.0,0.0,0.0,0.0,0.0,0.0,0.0,0.0,0.0,0.0,0.0,0.0,0.0,0.0,0.0,0.0,0.0,0.0,0.0
1672945165507039524,165299,1672945165538688318,enu,-0.5208,1.6575,0.0628,0.0,0.0,0.0,0.000169,0.0,0.0,0.0,0.0,0.0,0.0,0.000169,0.0,0.0,0.0,0.0,0.0,0.0,0.0001,0.0,0.0,0.0,0.0,0.0,0.0,0.0,0.0,0.0,0.0,0.0,0.0,0.0,0.0,0.0,0.0,0.0,0.0,0.0,0.0,0.0
1672945165526998077,165300,1672945165558633687,enu,-0.5289,1.6929,0.0648,0.0,0.0,0.0,0.000169,0.0,0.0,0.0,0.0,0.0,0.0,0.000169,0.0,0.0,0.0,0.0,0.0,0.0,0.0001,0.0,0.0,0.0,0.0,0.0,0.0,0.0,0.0,0.0,0.0,0.0,0.0,0.0,0.0,0.0,0.0,0.0,0.0,0.0,0.0,0.0
1672945165546833361,165301,1672945165578732609,enu,-0.5376,1.7305,0.0661,0.0,0.0,0.0,0.000169,0.0,0.0,0.0,0.0,0.0,0.0,0.000169,0.0,0.0,0.0,0.0,0.0,0.0,0.0001,0.0,0.0,0.0,0.0,0.0,0.0,0.0,0.0,0.0,0.0,0.0,0.0,0.0,0.0,0.0,0.0,0.0,0.0,0.0,0.0,0.0
1672945165566322067,165302,1672945165598606934,enu,-0.5455,1.7657,0.0671,0.0,0.0,0.0,0.000169,0.0,0.0,0.0,0.0,0.0,0.0,0.000169,0.0,0.0,0.0,0.0,0.0,0.0,0.0001,0.0,0.0,0.0,0.0,0.0,0.0,0.0,0.0,0.0,0.0,0.0,0.0,0.0,0.0,0.0,0.0,0.0,0.0,0.0,0.0,0.0
1672945165586883374,165303,1672945165618668560,enu,-0.5543,1.8021,0.0683,0.0,0.0,0.0,0.000169,0.0,0.0,0.0,0.0,0.0,0.0,0.000169,0.0,0.0,0.0,0.0,0.0,0.0,0.0001,0.0,0.0,0.0,0.0,0.0,0.0,0.0,0.0,0.0,0.0,0.0,0.0,0.0,0.0,0.0,0.0,0.0,0.0,0.0,0.0,0.0
1672945165606684580,165304,1672945165638576735,enu,-0.5631,1.8379,0.0695,0.0,0.0,0.0,0.000169,0.0,0.0,0.0,0.0,0.0,0.0,0.000169,0.0,0.0,0.0,0.0,0.0,0.0,0.0001,0.0,0.0,0.0,0.0,0.0,0.0,0.0,0.0,0.0,0.0,0.0,0.0,0.0,0.0,0.0,0.0,0.0,0.0,0.0,0.0,0.0
1672945165626804577,165305,1672945165658536133,enu,-0.5708,1.8741,0.0705,0.0,0.0,0.0,0.000169,0.0,0.0,0.0,0.0,0.0,0.0,0.000169,0.0,0.0,0.0,0.0,0.0,0.0,0.0001,0.0,0.0,0.0,0.0,0.0,0.0,0.0,0.0,0.0,0.0,0.0,0.0,0.0,0.0,0.0,0.0,0.0,0.0,0.0,0.0,0.0
1672945165646852612,165306,1672945165678629158,enu,-0.5793,1.9093,0.071,0.0,0.0,0.0,0.000169,0.0,0.0,0.0,0.0,0.0,0.0,0.000169,0.0,0.0,0.0,0.0,0.0,0.0,0.0001,0.0,0.0,0.0,0.0,0.0,0.0,0.0,0.0,0.0,0.0,0.0,0.0,0.0,0.0,0.0,0.0,0.0,0.0,0.0,0.0,0.0
1672945165666815018,165307,1672945165698485248,enu,-0.5868,1.9458,0.0714,0.0,0.0,0.0,0.000169,0.0,0.0,0.0,0.0,0.0,0.0,0.000169,0.0,0.0,0.0,0.0,0.0,0.0,0.0001,0.0,0.0,0.0,0.0,0.0,0.0,0.0,0.0,0.0,0.0,0.0,0.0,0.0,0.0,0.0,0.0,0.0,0.0,0.0,0.0,0.0
1672945165687004405,165308,1672945165718705757,enu,-0.5945,1.9818,0.0708,0.0,0.0,0.0,0.000169,0.0,0.0,0.0,0.0,0.0,0.0,0.000169,0.0,0.0,0.0,0.0,0.0,0.0,0.0001,0.0,0.0,0.0,0.0,0.0,0.0,0.0,0.0,0.0,0.0,0.0,0.0,0.0,0.0,0.0,0.0,0.0,0.0,0.0,0.0,0.0
1672945165706890505,165309,1672945165738590242,enu,-0.6011,2.0192,0.0708,0.0,0.0,0.0,0.000169,0.0,0.0,0.0,0.0,0.0,0.0,0.000169,0.0,0.0,0.0,0.0,0.0,0.0,0.0001,0.0,0.0,0.0,0.0,0.0,0.0,0.0,0.0,0.0,0.0,0.0,0.0,0.0,0.0,0.0,0.0,0.0,0.0,0.0,0.0,0.0
1672945165726859446,165310,1672945165758567230,enu,-0.6079,2.0549,0.0703,0.0,0.0,0.0,0.000169,0.0,0.0,0.0,0.0,0.0,0.0,0.000169,0.0,0.0,0.0,0.0,0.0,0.0,0.0001,0.0,0.0,0.0,0.0,0.0,0.0,0.0,0.0,0.0,0.0,0.0,0.0,0.0,0.0,0.0,0.0,0.0,0.0,0.0,0.0,0.0
1672945165746913935,165311,1672945165778475554,enu,-0.6137,2.0919,0.0704,0.0,0.0,0.0,0.000169,0.0,0.0,0.0,0.0,0.0,0.0,0.000169,0.0,0.0,0.0,0.0,0.0,0.0,0.0001,0.0,0.0,0.0,0.0,0.0,0.0,0.0,0.0,0.0,0.0,0.0,0.0,0.0,0.0,0.0,0.0,0.0,0.0,0.0,0.0,0.0
1672945165766594181,165312,1672945165798562576,enu,-0.6193,2.1281,0.0703,0.0,0.0,0.0,0.000169,0.0,0.0,0.0,0.0,0.0,0.0,0.000169,0.0,0.0,0.0,0.0,0.0,0.0,0.0001,0.0,0.0,0.0,0.0,0.0,0.0,0.0,0.0,0.0,0.0,0.0,0.0,0.0,0.0,0.0,0.0,0.0,0.0,0.0,0.0,0.0
1672945165786581831,165313,1672945165818591319,enu,-0.6241,2.1646,0.0713,0.0,0.0,0.0,0.000196,0.0,0.0,0.0,0.0,0.0,0.0,0.000196,0.0,0.0,0.0,0.0,0.0,0.0,0.0001,0.0,0.0,0.0,0.0,0.0,0.0,0.0,0.0,0.0,0.0,0.0,0.0,0.0,0.0,0.0,0.0,0.0,0.0,0.0,0.0,0.0
1672945165806740001,165314,1672945165838494881,enu,-0.6289,2.2004,0.0728,0.0,0.0,0.0,0.000196,0.0,0.0,0.0,0.0,0.0,0.0,0.000196,0.0,0.0,0.0,0.0,0.0,0.0,0.0001,0.0,0.0,0.0,0.0,0.0,0.0,0.0,0.0,0.0,0.0,0.0,0.0,0.0,0.0,0.0,0.0,0.0,0.0,0.0,0.0,0.0
1672945165826835664,165315,1672945165858605789,enu,-0.6327,2.237,0.0751,0.0,0.0,0.0,0.000196,0.0,0.0,0.0,0.0,0.0,0.0,0.000196,0.0,0.0,0.0,0.0,0.0,0.0,0.0001,0.0,0.0,0.0,0.0,0.0,0.0,0.0,0.0,0.0,0.0,0.0,0.0,0.0,0.0,0.0,0.0,0.0,0.0,0.0,0.0,0.0
1672945165846709187,165316,1672945165878486792,enu,-0.638,2.2733,0.076,0.0,0.0,0.0,0.000196,0.0,0.0,0.0,0.0,0.0,0.0,0.000196,0.0,0.0,0.0,0.0,0.0,0.0,0.0001,0.0,0.0,0.0,0.0,0.0,0.0,0.0,0.0,0.0,0.0,0.0,0.0,0.0,0.0,0.0,0.0,0.0,0.0,0.0,0.0,0.0
1672945165866585552,165317,1672945165898540683,enu,-0.6414,2.3093,0.0788,0.0,0.0,0.0,0.000196,0.0,0.0,0.0,0.0,0.0,0.0,0.000196,0.0,0.0,0.0,0.0,0.0,0.0,0.0001,0.0,0.0,0.0,0.0,0.0,0.0,0.0,0.0,0.0,0.0,0.0,0.0,0.0,0.0,0.0,0.0,0.0,0.0,0.0,0.0,0.0
1672945165886315178,165318,1672945165918517043,enu,-0.6461,2.344,0.081,0.0,0.0,0.0,0.000196,0.0,0.0,0.0,0.0,0.0,0.0,0.000196,0.0,0.0,0.0,0.0,0.0,0.0,0.0001,0.0,0.0,0.0,0.0,0.0,0.0,0.0,0.0,0.0,0.0,0.0,0.0,0.0,0.0,0.0,0.0,0.0,0.0,0.0,0.0,0.0
1672945165906642055,165319,1672945165938565669,enu,-0.6518,2.3799,0.0824,0.0,0.0,0.0,0.000196,0.0,0.0,0.0,0.0,0.0,0.0,0.000196,0.0,0.0,0.0,0.0,0.0,0.0,0.0001,0.0,0.0,0.0,0.0,0.0,0.0,0.0,0.0,0.0,0.0,0.0,0.0,0.0,0.0,0.0,0.0,0.0,0.0,0.0,0.0,0.0
1672945165926540127,165320,1672945165958577024,enu,-0.6579,2.4147,0.084,0.0,0.0,0.0,0.000196,0.0,0.0,0.0,0.0,0.0,0.0,0.000196,0.0,0.0,0.0,0.0,0.0,0.0,0.0001,0.0,0.0,0.0,0.0,0.0,0.0,0.0,0.0,0.0,0.0,0.0,0.0,0.0,0.0,0.0,0.0,0.0,0.0,0.0,0.0,0.0
1672945165946697658,165321,1672945165978555425,enu,-0.6643,2.4483,0.0848,0.0,0.0,0.0,0.000196,0.0,0.0,0.0,0.0,0.0,0.0,0.000196,0.0,0.0,0.0,0.0,0.0,0.0,0.0001,0.0,0.0,0.0,0.0,0.0,0.0,0.0,0.0,0.0,0.0,0.0,0.0,0.0,0.0,0.0,0.0,0.0,0.0,0.0,0.0,0.0
1672945165966496286,165322,1672945165998541119,enu,-0.6715,2.4825,0.0848,0.0,0.0,0.0,0.000196,0.0,0.0,0.0,0.0,0.0,0.0,0.000196,0.0,0.0,0.0,0.0,0.0,0.0,0.0001,0.0,0.0,0.0,0.0,0.0,0.0,0.0,0.0,0.0,0.0,0.0,0.0,0.0,0.0,0.0,0.0,0.0,0.0,0.0,0.0,0.0
1672945165986752647,165323,1672945166018597835,enu,-0.6779,2.5153,0.0852,0.0,0.0,0.0,0.000196,0.0,0.0,0.0,0.0,0.0,0.0,0.000196,0.0,0.0,0.0,0.0,0.0,0.0,0.0001,0.0,0.0,0.0,0.0,0.0,0.0,0.0,0.0,0.0,0.0,0.0,0.0,0.0,0.0,0.0,0.0,0.0,0.0,0.0,0.0,0.0
1672945166007303291,165324,1672945166038717141,enu,-0.6847,2.5492,0.0833,0.0,0.0,0.0,0.000196,0.0,0.0,0.0,0.0,0.0,0.0,0.000196,0.0,0.0,0.0,0.0,0.0,0.0,0.0001,0.0,0.0,0.0,0.0,0.0,0.0,0.0,0.0,0.0,0.0,0.0,0.0,0.0,0.0,0.0,0.0,0.0,0.0,0.0,0.0,0.0
1672945166026896417,165325,1672945166058689578,enu,-0.6915,2.5826,0.0818,0.0,0.0,0.0,0.000196,0.0,0.0,0.0,0.0,0.0,0.0,0.000196,0.0,0.0,0.0,0.0,0.0,0.0,0.0001,0.0,0.0,0.0,0.0,0.0,0.0,0.0,0.0,0.0,0.0,0.0,0.0,0.0,0.0,0.0,0.0,0.0,0.0,0.0,0.0,0.0
1672945166046917696,165326,1672945166078631997,enu,-0.6978,2.6155,0.081,0.0,0.0,0.0,0.000196,0.0,0.0,0.0,0.0,0.0,0.0,0.000196,0.0,0.0,0.0,0.0,0.0,0.0,0.0001,0.0,0.0,0.0,0.0,0.0,0.0,0.0,0.0,0.0,0.0,0.0,0.0,0.0,0.0,0.0,0.0,0.0,0.0,0.0,0.0,0.0
1672945166066845296,165327,1672945166098669236,enu,-0.7047,2.6467,0.0804,0.0,0.0,0.0,0.000196,0.0,0.0,0.0,0.0,0.0,0.0,0.000196,0.0,0.0,0.0,0.0,0.0,0.0,0.0001,0.0,0.0,0.0,0.0,0.0,0.0,0.0,0.0,0.0,0.0,0.0,0.0,0.0,0.0,0.0,0.0,0.0,0.0,0.0,0.0,0.0
1672945166086528193,165328,1672945166118656261,enu,-0.7105,2.679,0.0825,0.0,0.0,0.0,0.000196,0.0,0.0,0.0,0.0,0.0,0.0,0.000196,0.0,0.0,0.0,0.0,0.0,0.0,0.0001,0.0,0.0,0.0,0.0,0.0,0.0,0.0,0.0,0.0,0.0,0.0,0.0,0.0,0.0,0.0,0.0,0.0,0.0,0.0,0.0,0.0
1672945166106778753,165329,1672945166138596604,enu,-0.7177,2.7108,0.0853,0.0,0.0,0.0,0.000196,0.0,0.0,0.0,0.0,0.0,0.0,0.000196,0.0,0.0,0.0,0.0,0.0,0.0,0.0001,0.0,0.0,0.0,0.0,0.0,0.0,0.0,0.0,0.0,0.0,0.0,0.0,0.0,0.0,0.0,0.0,0.0,0.0,0.0,0.0,0.0
1672945166127073257,165330,1672945166158663300,enu,-0.7241,2.7415,0.0891,0.0,0.0,0.0,0.000196,0.0,0.0,0.0,0.0,0.0,0.0,0.000196,0.0,0.0,0.0,0.0,0.0,0.0,0.0001,0.0,0.0,0.0,0.0,0.0,0.0,0.0,0.0,0.0,0.0,0.0,0.0,0.0,0.0,0.0,0.0,0.0,0.0,0.0,0.0,0.0
1672945166146622297,165331,1672945166178611952,enu,-0.7312,2.7722,0.093,0.0,0.0,0.0,0.000196,0.0,0.0,0.0,0.0,0.0,0.0,0.000196,0.0,0.0,0.0,0.0,0.0,0.0,0.0001,0.0,0.0,0.0,0.0,0.0,0.0,0.0,0.0,0.0,0.0,0.0,0.0,0.0,0.0,0.0,0.0,0.0,0.0,0.0,0.0,0.0
1672945166166550203,165332,1672945166198581978,enu,-0.7375,2.8026,0.0957,0.0,0.0,0.0,0.000196,0.0,0.0,0.0,0.0,0.0,0.0,0.000196,0.0,0.0,0.0,0.0,0.0,0.0,0.0001,0.0,0.0,0.0,0.0,0.0,0.0,0.0,0.0,0.0,0.0,0.0,0.0,0.0,0.0,0.0,0.0,0.0,0.0,0.0,0.0,0.0
1672945166186546640,165333,1672945166218688275,enu,-0.745,2.8325,0.0988,0.0,0.0,0.0,0.000196,0.0,0.0,0.0,0.0,0.0,0.0,0.000196,0.0,0.0,0.0,0.0,0.0,0.0,0.0001,0.0,0.0,0.0,0.0,0.0,0.0,0.0,0.0,0.0,0.0,0.0,0.0,0.0,0.0,0.0,0.0,0.0,0.0,0.0,0.0,0.0
1672945166206761226,165334,1672945166238568956,enu,-0.7501,2.8622,0.1008,0.0,0.0,0.0,0.000196,0.0,0.0,0.0,0.0,0.0,0.0,0.000196,0.0,0.0,0.0,0.0,0.0,0.0,0.0001,0.0,0.0,0.0,0.0,0.0,0.0,0.0,0.0,0.0,0.0,0.0,0.0,0.0,0.0,0.0,0.0,0.0,0.0,0.0,0.0,0.0
1672945166226599154,165335,1672945166258574671,enu,-0.7561,2.8928,0.1032,0.0,0.0,0.0,0.000196,0.0,0.0,0.0,0.0,0.0,0.0,0.000196,0.0,0.0,0.0,0.0,0.0,0.0,0.0001,0.0,0.0,0.0,0.0,0.0,0.0,0.0,0.0,0.0,0.0,0.0,0.0,0.0,0.0,0.0,0.0,0.0,0.0,0.0,0.0,0.0
1672945166246354126,165336,1672945166278611303,enu,-0.7597,2.9231,0.1043,0.0,0.0,0.0,0.000196,0.0,0.0,0.0,0.0,0.0,0.0,0.000196,0.0,0.0,0.0,0.0,0.0,0.0,0.0001,0.0,0.0,0.0,0.0,0.0,0.0,0.0,0.0,0.0,0.0,0.0,0.0,0.0,0.0,0.0,0.0,0.0,0.0,0.0,0.0,0.0
1672945166266657231,165337,1672945166298593275,enu,-0.7627,2.9531,0.1049,0.0,0.0,0.0,0.000196,0.0,0.0,0.0,0.0,0.0,0.0,0.000196,0.0,0.0,0.0,0.0,0.0,0.0,0.0001,0.0,0.0,0.0,0.0,0.0,0.0,0.0,0.0,0.0,0.0,0.0,0.0,0.0,0.0,0.0,0.0,0.0,0.0,0.0,0.0,0.0
1672945166286656546,165338,1672945166318555967,enu,-0.7658,2.9838,0.1059,0.0,0.0,0.0,0.000196,0.0,0.0,0.0,0.0,0.0,0.0,0.000196,0.0,0.0,0.0,0.0,0.0,0.0,0.0001,0.0,0.0,0.0,0.0,0.0,0.0,0.0,0.0,0.0,0.0,0.0,0.0,0.0,0.0,0.0,0.0,0.0,0.0,0.0,0.0,0.0
1672945166306282848,165339,1672945166338586698,enu,-0.7687,3.0152,0.1067,0.0,0.0,0.0,0.000196,0.0,0.0,0.0,0.0,0.0,0.0,0.000196,0.0,0.0,0.0,0.0,0.0,0.0,0.0001,0.0,0.0,0.0,0.0,0.0,0.0,0.0,0.0,0.0,0.0,0.0,0.0,0.0,0.0,0.0,0.0,0.0,0.0,0.0,0.0,0.0
1672945166326701746,165340,1672945166358632458,enu,-0.7724,3.0447,0.1067,0.0,0.0,0.0,0.000196,0.0,0.0,0.0,0.0,0.0,0.0,0.000196,0.0,0.0,0.0,0.0,0.0,0.0,0.0001,0.0,0.0,0.0,0.0,0.0,0.0,0.0,0.0,0.0,0.0,0.0,0.0,0.0,0.0,0.0,0.0,0.0,0.0,0.0,0.0,0.0
1672945166346674341,165341,1672945166378560600,enu,-0.7751,3.0745,0.1057,0.0,0.0,0.0,0.000196,0.0,0.0,0.0,0.0,0.0,0.0,0.000196,0.0,0.0,0.0,0.0,0.0,0.0,0.0001,0.0,0.0,0.0,0.0,0.0,0.0,0.0,0.0,0.0,0.0,0.0,0.0,0.0,0.0,0.0,0.0,0.0,0.0,0.0,0.0,0.0
1672945166366510539,165342,1672945166398632139,enu,-0.7786,3.1037,0.1062,0.0,0.0,0.0,0.000196,0.0,0.0,0.0,0.0,0.0,0.0,0.000196,0.0,0.0,0.0,0.0,0.0,0.0,0.0001,0.0,0.0,0.0,0.0,0.0,0.0,0.0,0.0,0.0,0.0,0.0,0.0,0.0,0.0,0.0,0.0,0.0,0.0,0.0,0.0,0.0
1672945166386853403,165343,1672945166418622286,enu,-0.7824,3.1326,0.1041,0.0,0.0,0.0,0.000196,0.0,0.0,0.0,0.0,0.0,0.0,0.000196,0.0,0.0,0.0,0.0,0.0,0.0,0.0001,0.0,0.0,0.0,0.0,0.0,0.0,0.0,0.0,0.0,0.0,0.0,0.0,0.0,0.0,0.0,0.0,0.0,0.0,0.0,0.0,0.0
1672945166406759351,165344,1672945166438585324,enu,-0.7868,3.1621,0.1034,0.0,0.0,0.0,0.000196,0.0,0.0,0.0,0.0,0.0,0.0,0.000196,0.0,0.0,0.0,0.0,0.0,0.0,0.0001,0.0,0.0,0.0,0.0,0.0,0.0,0.0,0.0,0.0,0.0,0.0,0.0,0.0,0.0,0.0,0.0,0.0,0.0,0.0,0.0,0.0
1672945166426692600,165345,1672945166458628667,enu,-0.7908,3.1908,0.1016,0.0,0.0,0.0,0.000196,0.0,0.0,0.0,0.0,0.0,0.0,0.000196,0.0,0.0,0.0,0.0,0.0,0.0,0.0001,0.0,0.0,0.0,0.0,0.0,0.0,0.0,0.0,0.0,0.0,0.0,0.0,0.0,0.0,0.0,0.0,0.0,0.0,0.0,0.0,0.0
1672945166446662923,165346,1672945166478635578,enu,-0.7934,3.2182,0.1008,0.0,0.0,0.0,0.000196,0.0,0.0,0.0,0.0,0.0,0.0,0.000196,0.0,0.0,0.0,0.0,0.0,0.0,0.0001,0.0,0.0,0.0,0.0,0.0,0.0,0.0,0.0,0.0,0.0,0.0,0.0,0.0,0.0,0.0,0.0,0.0,0.0,0.0,0.0,0.0
1672945166466219984,165347,1672945166498527234,enu,-0.7957,3.2457,0.1012,0.0,0.0,0.0,0.000196,0.0,0.0,0.0,0.0,0.0,0.0,0.000196,0.0,0.0,0.0,0.0,0.0,0.0,0.0001,0.0,0.0,0.0,0.0,0.0,0.0,0.0,0.0,0.0,0.0,0.0,0.0,0.0,0.0,0.0,0.0,0.0,0.0,0.0,0.0,0.0
1672945166486905804,165348,1672945166518601144,enu,-0.7982,3.2755,0.102,0.0,0.0,0.0,0.000196,0.0,0.0,0.0,0.0,0.0,0.0,0.000196,0.0,0.0,0.0,0.0,0.0,0.0,0.0001,0.0,0.0,0.0,0.0,0.0,0.0,0.0,0.0,0.0,0.0,0.0,0.0,0.0,0.0,0.0,0.0,0.0,0.0,0.0,0.0,0.0
1672945166506966479,165349,1672945166538755045,enu,-0.7994,3.3032,0.1048,0.0,0.0,0.0,0.000196,0.0,0.0,0.0,0.0,0.0,0.0,0.000196,0.0,0.0,0.0,0.0,0.0,0.0,0.0001,0.0,0.0,0.0,0.0,0.0,0.0,0.0,0.0,0.0,0.0,0.0,0.0,0.0,0.0,0.0,0.0,0.0,0.0,0.0,0.0,0.0
1672945166526323666,165350,1672945166558641126,enu,-0.8004,3.3297,0.1081,0.0,0.0,0.0,0.000196,0.0,0.0,0.0,0.0,0.0,0.0,0.000196,0.0,0.0,0.0,0.0,0.0,0.0,0.0001,0.0,0.0,0.0,0.0,0.0,0.0,0.0,0.0,0.0,0.0,0.0,0.0,0.0,0.0,0.0,0.0,0.0,0.0,0.0,0.0,0.0
1672945166546972597,165351,1672945166578757802,enu,-0.8036,3.3581,0.1114,0.0,0.0,0.0,0.000196,0.0,0.0,0.0,0.0,0.0,0.0,0.000196,0.0,0.0,0.0,0.0,0.0,0.0,0.0001,0.0,0.0,0.0,0.0,0.0,0.0,0.0,0.0,0.0,0.0,0.0,0.0,0.0,0.0,0.0,0.0,0.0,0.0,0.0,0.0,0.0
1672945166566855985,165352,1672945166598619872,enu,-0.8053,3.3831,0.1153,0.0,0.0,0.0,0.000196,0.0,0.0,0.0,0.0,0.0,0.0,0.000196,0.0,0.0,0.0,0.0,0.0,0.0,0.0001,0.0,0.0,0.0,0.0,0.0,0.0,0.0,0.0,0.0,0.0,0.0,0.0,0.0,0.0,0.0,0.0,0.0,0.0,0.0,0.0,0.0
1672945166586684789,165353,1672945166618602137,enu,-0.8082,3.4093,0.1189,0.0,0.0,0.0,0.000196,0.0,0.0,0.0,0.0,0.0,0.0,0.000196,0.0,0.0,0.0,0.0,0.0,0.0,0.0001,0.0,0.0,0.0,0.0,0.0,0.0,0.0,0.0,0.0,0.0,0.0,0.0,0.0,0.0,0.0,0.0,0.0,0.0,0.0,0.0,0.0
1672945166606535961,165354,1672945166638639544,enu,-0.8117,3.4351,0.1206,0.0,0.0,0.0,0.000196,0.0,0.0,0.0,0.0,0.0,0.0,0.000196,0.0,0.0,0.0,0.0,0.0,0.0,0.0001,0.0,0.0,0.0,0.0,0.0,0.0,0.0,0.0,0.0,0.0,0.0,0.0,0.0,0.0,0.0,0.0,0.0,0.0,0.0,0.0,0.0
1672945166626602219,165355,1672945166658585612,enu,-0.8148,3.4596,0.1221,0.0,0.0,0.0,0.000196,0.0,0.0,0.0,0.0,0.0,0.0,0.000196,0.0,0.0,0.0,0.0,0.0,0.0,0.0001,0.0,0.0,0.0,0.0,0.0,0.0,0.0,0.0,0.0,0.0,0.0,0.0,0.0,0.0,0.0,0.0,0.0,0.0,0.0,0.0,0.0
1672945166646490907,165356,1672945166678555922,enu,-0.8184,3.4844,0.1231,0.0,0.0,0.0,0.000196,0.0,0.0,0.0,0.0,0.0,0.0,0.000196,0.0,0.0,0.0,0.0,0.0,0.0,0.0001,0.0,0.0,0.0,0.0,0.0,0.0,0.0,0.0,0.0,0.0,0.0,0.0,0.0,0.0,0.0,0.0,0.0,0.0,0.0,0.0,0.0
1672945166666371555,165357,1672945166698607187,enu,-0.8224,3.508,0.1238,0.0,0.0,0.0,0.000196,0.0,0.0,0.0,0.0,0.0,0.0,0.000196,0.0,0.0,0.0,0.0,0.0,0.0,0.0001,0.0,0.0,0.0,0.0,0.0,0.0,0.0,0.0,0.0,0.0,0.0,0.0,0.0,0.0,0.0,0.0,0.0,0.0,0.0,0.0,0.0
1672945166686952556,165358,1672945166718740716,enu,-0.8264,3.5322,0.1233,0.0,0.0,0.0,0.000196,0.0,0.0,0.0,0.0,0.0,0.0,0.000196,0.0,0.0,0.0,0.0,0.0,0.0,0.0001,0.0,0.0,0.0,0.0,0.0,0.0,0.0,0.0,0.0,0.0,0.0,0.0,0.0,0.0,0.0,0.0,0.0,0.0,0.0,0.0,0.0
1672945166706312330,165359,1672945166738524615,enu,-0.83,3.5564,0.1244,0.0,0.0,0.0,0.000196,0.0,0.0,0.0,0.0,0.0,0.0,0.000196,0.0,0.0,0.0,0.0,0.0,0.0,0.0001,0.0,0.0,0.0,0.0,0.0,0.0,0.0,0.0,0.0,0.0,0.0,0.0,0.0,0.0,0.0,0.0,0.0,0.0,0.0,0.0,0.0
1672945166726656468,165360,1672945166758591875,enu,-0.8342,3.5786,0.1253,0.0,0.0,0.0,0.000196,0.0,0.0,0.0,0.0,0.0,0.0,0.000196,0.0,0.0,0.0,0.0,0.0,0.0,0.0001,0.0,0.0,0.0,0.0,0.0,0.0,0.0,0.0,0.0,0.0,0.0,0.0,0.0,0.0,0.0,0.0,0.0,0.0,0.0,0.0,0.0
1672945166746830880,165361,1672945166778586505,enu,-0.84,3.6026,0.1267,0.0,0.0,0.0,0.000196,0.0,0.0,0.0,0.0,0.0,0.0,0.000196,0.0,0.0,0.0,0.0,0.0,0.0,0.0001,0.0,0.0,0.0,0.0,0.0,0.0,0.0,0.0,0.0,0.0,0.0,0.0,0.0,0.0,0.0,0.0,0.0,0.0,0.0,0.0,0.0
1672945166767093345,165362,1672945166798618156,enu,-0.8442,3.6276,0.1273,0.0,0.0,0.0,0.000196,0.0,0.0,0.0,0.0,0.0,0.0,0.000196,0.0,0.0,0.0,0.0,0.0,0.0,0.0001,0.0,0.0,0.0,0.0,0.0,0.0,0.0,0.0,0.0,0.0,0.0,0.0,0.0,0.0,0.0,0.0,0.0,0.0,0.0,0.0,0.0
1672945166786414529,165363,1672945166818601091,enu,-0.85,3.6496,0.1265,0.0,0.0,0.0,0.000196,0.0,0.0,0.0,0.0,0.0,0.0,0.000196,0.0,0.0,0.0,0.0,0.0,0.0,0.0001,0.0,0.0,0.0,0.0,0.0,0.0,0.0,0.0,0.0,0.0,0.0,0.0,0.0,0.0,0.0,0.0,0.0,0.0,0.0,0.0,0.0
1672945166806981002,165364,1672945166838591240,enu,-0.8556,3.6727,0.1253,0.0,0.0,0.0,0.000196,0.0,0.0,0.0,0.0,0.0,0.0,0.000196,0.0,0.0,0.0,0.0,0.0,0.0,0.0001,0.0,0.0,0.0,0.0,0.0,0.0,0.0,0.0,0.0,0.0,0.0,0.0,0.0,0.0,0.0,0.0,0.0,0.0,0.0,0.0,0.0
1672945166826843463,165365,1672945166858525062,enu,-0.8614,3.6967,0.1233,0.0,0.0,0.0,0.000196,0.0,0.0,0.0,0.0,0.0,0.0,0.000196,0.0,0.0,0.0,0.0,0.0,0.0,0.0001,0.0,0.0,0.0,0.0,0.0,0.0,0.0,0.0,0.0,0.0,0.0,0.0,0.0,0.0,0.0,0.0,0.0,0.0,0.0,0.0,0.0
1672945166846739889,165366,1672945166878577748,enu,-0.8659,3.7208,0.1211,0.0,0.0,0.0,0.000196,0.0,0.0,0.0,0.0,0.0,0.0,0.000196,0.0,0.0,0.0,0.0,0.0,0.0,0.0001,0.0,0.0,0.0,0.0,0.0,0.0,0.0,0.0,0.0,0.0,0.0,0.0,0.0,0.0,0.0,0.0,0.0,0.0,0.0,0.0,0.0
1672945166866225266,165367,1672945166898507006,enu,-0.8693,3.7437,0.1177,0.0,0.0,0.0,0.000196,0.0,0.0,0.0,0.0,0.0,0.0,0.000196,0.0,0.0,0.0,0.0,0.0,0.0,0.0001,0.0,0.0,0.0,0.0,0.0,0.0,0.0,0.0,0.0,0.0,0.0,0.0,0.0,0.0,0.0,0.0,0.0,0.0,0.0,0.0,0.0
1672945166886534878,165368,1672945166918515269,enu,-0.8726,3.7666,0.1162,0.0,0.0,0.0,0.000196,0.0,0.0,0.0,0.0,0.0,0.0,0.000196,0.0,0.0,0.0,0.0,0.0,0.0,0.0001,0.0,0.0,0.0,0.0,0.0,0.0,0.0,0.0,0.0,0.0,0.0,0.0,0.0,0.0,0.0,0.0,0.0,0.0,0.0,0.0,0.0
1672945166906739059,165369,1672945166938589204,enu,-0.8748,3.7903,0.1155,0.0,0.0,0.0,0.000196,0.0,0.0,0.0,0.0,0.0,0.0,0.000196,0.0,0.0,0.0,0.0,0.0,0.0,0.0001,0.0,0.0,0.0,0.0,0.0,0.0,0.0,0.0,0.0,0.0,0.0,0.0,0.0,0.0,0.0,0.0,0.0,0.0,0.0,0.0,0.0
1672945166926641852,165370,1672945166958594274,enu,-0.8766,3.8129,0.1143,0.0,0.0,0.0,0.000196,0.0,0.0,0.0,0.0,0.0,0.0,0.000196,0.0,0.0,0.0,0.0,0.0,0.0,0.0001,0.0,0.0,0.0,0.0,0.0,0.0,0.0,0.0,0.0,0.0,0.0,0.0,0.0,0.0,0.0,0.0,0.0,0.0,0.0,0.0,0.0
1672945166946667898,165371,1672945166978541112,enu,-0.878,3.8366,0.1149,0.0,0.0,0.0,0.000196,0.0,0.0,0.0,0.0,0.0,0.0,0.000196,0.0,0.0,0.0,0.0,0.0,0.0,0.0001,0.0,0.0,0.0,0.0,0.0,0.0,0.0,0.0,0.0,0.0,0.0,0.0,0.0,0.0,0.0,0.0,0.0,0.0,0.0,0.0,0.0
1672945166966313004,165372,1672945166998589116,enu,-0.8796,3.859,0.1172,0.0,0.0,0.0,0.000196,0.0,0.0,0.0,0.0,0.0,0.0,0.000196,0.0,0.0,0.0,0.0,0.0,0.0,0.0001,0.0,0.0,0.0,0.0,0.0,0.0,0.0,0.0,0.0,0.0,0.0,0.0,0.0,0.0,0.0,0.0,0.0,0.0,0.0,0.0,0.0
1672945166986617332,165373,1672945167018619675,enu,-0.881,3.8811,0.1202,0.0,0.0,0.0,0.000196,0.0,0.0,0.0,0.0,0.0,0.0,0.000196,0.0,0.0,0.0,0.0,0.0,0.0,0.0001,0.0,0.0,0.0,0.0,0.0,0.0,0.0,0.0,0.0,0.0,0.0,0.0,0.0,0.0,0.0,0.0,0.0,0.0,0.0,0.0,0.0
1672945167006571302,165374,1672945167038597089,enu,-0.882,3.9038,0.123,0.0,0.0,0.0,0.000196,0.0,0.0,0.0,0.0,0.0,0.0,0.000196,0.0,0.0,0.0,0.0,0.0,0.0,0.0001,0.0,0.0,0.0,0.0,0.0,0.0,0.0,0.0,0.0,0.0,0.0,0.0,0.0,0.0,0.0,0.0,0.0,0.0,0.0,0.0,0.0
1672945167026791969,165375,1672945167058633712,enu,-0.8832,3.9253,0.1252,0.0,0.0,0.0,0.000196,0.0,0.0,0.0,0.0,0.0,0.0,0.000196,0.0,0.0,0.0,0.0,0.0,0.0,0.0001,0.0,0.0,0.0,0.0,0.0,0.0,0.0,0.0,0.0,0.0,0.0,0.0,0.0,0.0,0.0,0.0,0.0,0.0,0.0,0.0,0.0
1672945167046800271,165376,1672945167078678299,enu,-0.8842,3.9486,0.1266,0.0,0.0,0.0,0.000196,0.0,0.0,0.0,0.0,0.0,0.0,0.000196,0.0,0.0,0.0,0.0,0.0,0.0,0.0001,0.0,0.0,0.0,0.0,0.0,0.0,0.0,0.0,0.0,0.0,0.0,0.0,0.0,0.0,0.0,0.0,0.0,0.0,0.0,0.0,0.0
1672945167066508116,165377,1672945167098666303,enu,-0.8854,3.9704,0.1254,0.0,0.0,0.0,0.000196,0.0,0.0,0.0,0.0,0.0,0.0,0.000196,0.0,0.0,0.0,0.0,0.0,0.0,0.0001,0.0,0.0,0.0,0.0,0.0,0.0,0.0,0.0,0.0,0.0,0.0,0.0,0.0,0.0,0.0,0.0,0.0,0.0,0.0,0.0,0.0
1672945167086905898,165378,1672945167118585814,enu,-0.8862,3.9922,0.1239,0.0,0.0,0.0,0.000196,0.0,0.0,0.0,0.0,0.0,0.0,0.000196,0.0,0.0,0.0,0.0,0.0,0.0,0.0001,0.0,0.0,0.0,0.0,0.0,0.0,0.0,0.0,0.0,0.0,0.0,0.0,0.0,0.0,0.0,0.0,0.0,0.0,0.0,0.0,0.0
1672945167106839505,165379,1672945167138664470,enu,-0.8877,4.0123,0.1222,0.0,0.0,0.0,0.000196,0.0,0.0,0.0,0.0,0.0,0.0,0.000196,0.0,0.0,0.0,0.0,0.0,0.0,0.0001,0.0,0.0,0.0,0.0,0.0,0.0,0.0,0.0,0.0,0.0,0.0,0.0,0.0,0.0,0.0,0.0,0.0,0.0,0.0,0.0,0.0
1672945167126366323,165380,1672945167158636738,enu,-0.8896,4.0342,0.1183,0.0,0.0,0.0,0.000196,0.0,0.0,0.0,0.0,0.0,0.0,0.000196,0.0,0.0,0.0,0.0,0.0,0.0,0.0001,0.0,0.0,0.0,0.0,0.0,0.0,0.0,0.0,0.0,0.0,0.0,0.0,0.0,0.0,0.0,0.0,0.0,0.0,0.0,0.0,0.0
1672945167146629260,165381,1672945167178647897,enu,-0.8898,4.0547,0.116,0.0,0.0,0.0,0.000196,0.0,0.0,0.0,0.0,0.0,0.0,0.000196,0.0,0.0,0.0,0.0,0.0,0.0,0.0001,0.0,0.0,0.0,0.0,0.0,0.0,0.0,0.0,0.0,0.0,0.0,0.0,0.0,0.0,0.0,0.0,0.0,0.0,0.0,0.0,0.0
1672945167166616416,165382,1672945167198647458,enu,-0.8916,4.0744,0.1158,0.0,0.0,0.0,0.000196,0.0,0.0,0.0,0.0,0.0,0.0,0.000196,0.0,0.0,0.0,0.0,0.0,0.0,0.0001,0.0,0.0,0.0,0.0,0.0,0.0,0.0,0.0,0.0,0.0,0.0,0.0,0.0,0.0,0.0,0.0,0.0,0.0,0.0,0.0,0.0
1672945167186785644,165383,1672945167218721373,enu,-0.8949,4.0941,0.1139,0.0,0.0,0.0,0.000196,0.0,0.0,0.0,0.0,0.0,0.0,0.000196,0.0,0.0,0.0,0.0,0.0,0.0,0.0001,0.0,0.0,0.0,0.0,0.0,0.0,0.0,0.0,0.0,0.0,0.0,0.0,0.0,0.0,0.0,0.0,0.0,0.0,0.0,0.0,0.0
1672945167206832100,165384,1672945167238601700,enu,-0.8975,4.1119,0.1129,0.0,0.0,0.0,0.000196,0.0,0.0,0.0,0.0,0.0,0.0,0.000196,0.0,0.0,0.0,0.0,0.0,0.0,0.0001,0.0,0.0,0.0,0.0,0.0,0.0,0.0,0.0,0.0,0.0,0.0,0.0,0.0,0.0,0.0,0.0,0.0,0.0,0.0,0.0,0.0
1672945167226496306,165385,1672945167258572992,enu,-0.9004,4.131,0.1152,0.0,0.0,0.0,0.000196,0.0,0.0,0.0,0.0,0.0,0.0,0.000196,0.0,0.0,0.0,0.0,0.0,0.0,0.0001,0.0,0.0,0.0,0.0,0.0,0.0,0.0,0.0,0.0,0.0,0.0,0.0,0.0,0.0,0.0,0.0,0.0,0.0,0.0,0.0,0.0
1672945167246707595,165386,1672945167278554494,enu,-0.904,4.1476,0.1168,0.0,0.0,0.0,0.000196,0.0,0.0,0.0,0.0,0.0,0.0,0.000196,0.0,0.0,0.0,0.0,0.0,0.0,0.0001,0.0,0.0,0.0,0.0,0.0,0.0,0.0,0.0,0.0,0.0,0.0,0.0,0.0,0.0,0.0,0.0,0.0,0.0,0.0,0.0,0.0
1672945167266610328,165387,1672945167298605132,enu,-0.9082,4.1671,0.1189,0.0,0.0,0.0,0.000196,0.0,0.0,0.0,0.0,0.0,0.0,0.000196,0.0,0.0,0.0,0.0,0.0,0.0,0.0001,0.0,0.0,0.0,0.0,0.0,0.0,0.0,0.0,0.0,0.0,0.0,0.0,0.0,0.0,0.0,0.0,0.0,0.0,0.0,0.0,0.0
1672945167286555114,165388,1672945167318576207,enu,-0.9122,4.1827,0.1234,0.0,0.0,0.0,0.000196,0.0,0.0,0.0,0.0,0.0,0.0,0.000196,0.0,0.0,0.0,0.0,0.0,0.0,0.0001,0.0,0.0,0.0,0.0,0.0,0.0,0.0,0.0,0.0,0.0,0.0,0.0,0.0,0.0,0.0,0.0,0.0,0.0,0.0,0.0,0.0
1672945167306201920,165389,1672945167338564939,enu,-0.918,4.1976,0.1283,0.0,0.0,0.0,0.000196,0.0,0.0,0.0,0.0,0.0,0.0,0.000196,0.0,0.0,0.0,0.0,0.0,0.0,0.0001,0.0,0.0,0.0,0.0,0.0,0.0,0.0,0.0,0.0,0.0,0.0,0.0,0.0,0.0,0.0,0.0,0.0,0.0,0.0,0.0,0.0
1672945167326527893,165390,1672945167358613525,enu,-0.9225,4.213,0.134,0.0,0.0,0.0,0.000196,0.0,0.0,0.0,0.0,0.0,0.0,0.000196,0.0,0.0,0.0,0.0,0.0,0.0,0.0001,0.0,0.0,0.0,0.0,0.0,0.0,0.0,0.0,0.0,0.0,0.0,0.0,0.0,0.0,0.0,0.0,0.0,0.0,0.0,0.0,0.0
1672945167346325246,165391,1672945167378562565,enu,-0.9277,4.2288,0.1395,0.0,0.0,0.0,0.000196,0.0,0.0,0.0,0.0,0.0,0.0,0.000196,0.0,0.0,0.0,0.0,0.0,0.0,0.0001,0.0,0.0,0.0,0.0,0.0,0.0,0.0,0.0,0.0,0.0,0.0,0.0,0.0,0.0,0.0,0.0,0.0,0.0,0.0,0.0,0.0
1672945167366606525,165392,1672945167398585802,enu,-0.9319,4.2434,0.1455,0.0,0.0,0.0,0.000196,0.0,0.0,0.0,0.0,0.0,0.0,0.000196,0.0,0.0,0.0,0.0,0.0,0.0,0.0001,0.0,0.0,0.0,0.0,0.0,0.0,0.0,0.0,0.0,0.0,0.0,0.0,0.0,0.0,0.0,0.0,0.0,0.0,0.0,0.0,0.0
1672945167386652062,165393,1672945167418632250,enu,-0.9361,4.2571,0.1505,0.0,0.0,0.0,0.000196,0.0,0.0,0.0,0.0,0.0,0.0,0.000196,0.0,0.0,0.0,0.0,0.0,0.0,0.0001,0.0,0.0,0.0,0.0,0.0,0.0,0.0,0.0,0.0,0.0,0.0,0.0,0.0,0.0,0.0,0.0,0.0,0.0,0.0,0.0,0.0
1672945167406757061,165394,1672945167438610878,enu,-0.9408,4.2713,0.1545,0.0,0.0,0.0,0.000196,0.0,0.0,0.0,0.0,0.0,0.0,0.000196,0.0,0.0,0.0,0.0,0.0,0.0,0.0001,0.0,0.0,0.0,0.0,0.0,0.0,0.0,0.0,0.0,0.0,0.0,0.0,0.0,0.0,0.0,0.0,0.0,0.0,0.0,0.0,0.0
1672945167426242709,165395,1672945167458558259,enu,-0.9431,4.2835,0.1547,0.0,0.0,0.0,0.000196,0.0,0.0,0.0,0.0,0.0,0.0,0.000196,0.0,0.0,0.0,0.0,0.0,0.0,0.0001,0.0,0.0,0.0,0.0,0.0,0.0,0.0,0.0,0.0,0.0,0.0,0.0,0.0,0.0,0.0,0.0,0.0,0.0,0.0,0.0,0.0
1672945167446284318,165396,1672945167478556308,enu,-0.9447,4.2982,0.156,0.0,0.0,0.0,0.000196,0.0,0.0,0.0,0.0,0.0,0.0,0.000196,0.0,0.0,0.0,0.0,0.0,0.0,0.0001,0.0,0.0,0.0,0.0,0.0,0.0,0.0,0.0,0.0,0.0,0.0,0.0,0.0,0.0,0.0,0.0,0.0,0.0,0.0,0.0,0.0
1672945167467099490,165397,1672945167498605829,enu,-0.9468,4.3103,0.1558,0.0,0.0,0.0,0.000196,0.0,0.0,0.0,0.0,0.0,0.0,0.000196,0.0,0.0,0.0,0.0,0.0,0.0,0.0001,0.0,0.0,0.0,0.0,0.0,0.0,0.0,0.0,0.0,0.0,0.0,0.0,0.0,0.0,0.0,0.0,0.0,0.0,0.0,0.0,0.0
1672945167486722282,165398,1672945167518595539,enu,-0.948,4.3238,0.1549,0.0,0.0,0.0,0.000196,0.0,0.0,0.0,0.0,0.0,0.0,0.000196,0.0,0.0,0.0,0.0,0.0,0.0,0.0001,0.0,0.0,0.0,0.0,0.0,0.0,0.0,0.0,0.0,0.0,0.0,0.0,0.0,0.0,0.0,0.0,0.0,0.0,0.0,0.0,0.0
1672945167506777541,165399,1672945167538816907,enu,-0.9465,4.3355,0.1534,0.0,0.0,0.0,0.000196,0.0,0.0,0.0,0.0,0.0,0.0,0.000196,0.0,0.0,0.0,0.0,0.0,0.0,0.0001,0.0,0.0,0.0,0.0,0.0,0.0,0.0,0.0,0.0,0.0,0.0,0.0,0.0,0.0,0.0,0.0,0.0,0.0,0.0,0.0,0.0
1672945167526339322,165400,1672945167558546522,enu,-0.9454,4.3476,0.1515,0.0,0.0,0.0,0.000196,0.0,0.0,0.0,0.0,0.0,0.0,0.000196,0.0,0.0,0.0,0.0,0.0,0.0,0.0001,0.0,0.0,0.0,0.0,0.0,0.0,0.0,0.0,0.0,0.0,0.0,0.0,0.0,0.0,0.0,0.0,0.0,0.0,0.0,0.0,0.0
1672945167546612088,165401,1672945167578701846,enu,-0.9459,4.3604,0.1491,0.0,0.0,0.0,0.000196,0.0,0.0,0.0,0.0,0.0,0.0,0.000196,0.0,0.0,0.0,0.0,0.0,0.0,0.0001,0.0,0.0,0.0,0.0,0.0,0.0,0.0,0.0,0.0,0.0,0.0,0.0,0.0,0.0,0.0,0.0,0.0,0.0,0.0,0.0,0.0
1672945167566983920,165402,1672945167598703209,enu,-0.9443,4.3713,0.1476,0.0,0.0,0.0,0.000196,0.0,0.0,0.0,0.0,0.0,0.0,0.000196,0.0,0.0,0.0,0.0,0.0,0.0,0.0001,0.0,0.0,0.0,0.0,0.0,0.0,0.0,0.0,0.0,0.0,0.0,0.0,0.0,0.0,0.0,0.0,0.0,0.0,0.0,0.0,0.0
1672945167586506891,165403,1672945167618530399,enu,-0.9436,4.3823,0.1442,0.0,0.0,0.0,0.000196,0.0,0.0,0.0,0.0,0.0,0.0,0.000196,0.0,0.0,0.0,0.0,0.0,0.0,0.0001,0.0,0.0,0.0,0.0,0.0,0.0,0.0,0.0,0.0,0.0,0.0,0.0,0.0,0.0,0.0,0.0,0.0,0.0,0.0,0.0,0.0
1672945167606855952,165404,1672945167638596459,enu,-0.9422,4.3939,0.1406,0.0,0.0,0.0,0.000196,0.0,0.0,0.0,0.0,0.0,0.0,0.000196,0.0,0.0,0.0,0.0,0.0,0.0,0.0001,0.0,0.0,0.0,0.0,0.0,0.0,0.0,0.0,0.0,0.0,0.0,0.0,0.0,0.0,0.0,0.0,0.0,0.0,0.0,0.0,0.0
1672945167626557780,165405,1672945167658614382,enu,-0.9408,4.404,0.1375,0.0,0.0,0.0,0.000196,0.0,0.0,0.0,0.0,0.0,0.0,0.000196,0.0,0.0,0.0,0.0,0.0,0.0,0.0001,0.0,0.0,0.0,0.0,0.0,0.0,0.0,0.0,0.0,0.0,0.0,0.0,0.0,0.0,0.0,0.0,0.0,0.0,0.0,0.0,0.0
1672945167646454528,165406,1672945167678558117,enu,-0.9403,4.4156,0.1334,0.0,0.0,0.0,0.000196,0.0,0.0,0.0,0.0,0.0,0.0,0.000196,0.0,0.0,0.0,0.0,0.0,0.0,0.0001,0.0,0.0,0.0,0.0,0.0,0.0,0.0,0.0,0.0,0.0,0.0,0.0,0.0,0.0,0.0,0.0,0.0,0.0,0.0,0.0,0.0
1672945167666883121,165407,1672945167698629494,enu,-0.9399,4.4278,0.1306,0.0,0.0,0.0,0.000196,0.0,0.0,0.0,0.0,0.0,0.0,0.000196,0.0,0.0,0.0,0.0,0.0,0.0,0.0001,0.0,0.0,0.0,0.0,0.0,0.0,0.0,0.0,0.0,0.0,0.0,0.0,0.0,0.0,0.0,0.0,0.0,0.0,0.0,0.0,0.0
1672945167686767090,165408,1672945167718663284,enu,-0.9387,4.4375,0.1267,0.0,0.0,0.0,0.000196,0.0,0.0,0.0,0.0,0.0,0.0,0.000196,0.0,0.0,0.0,0.0,0.0,0.0,0.0001,0.0,0.0,0.0,0.0,0.0,0.0,0.0,0.0,0.0,0.0,0.0,0.0,0.0,0.0,0.0,0.0,0.0,0.0,0.0,0.0,0.0
1672945167706996943,165409,1672945167738606612,enu,-0.9362,4.4487,0.1246,0.0,0.0,0.0,0.000196,0.0,0.0,0.0,0.0,0.0,0.0,0.000196,0.0,0.0,0.0,0.0,0.0,0.0,0.0001,0.0,0.0,0.0,0.0,0.0,0.0,0.0,0.0,0.0,0.0,0.0,0.0,0.0,0.0,0.0,0.0,0.0,0.0,0.0,0.0,0.0
1672945167726684260,165410,1672945167758585789,enu,-0.9351,4.4605,0.1236,0.0,0.0,0.0,0.000196,0.0,0.0,0.0,0.0,0.0,0.0,0.000196,0.0,0.0,0.0,0.0,0.0,0.0,0.0001,0.0,0.0,0.0,0.0,0.0,0.0,0.0,0.0,0.0,0.0,0.0,0.0,0.0,0.0,0.0,0.0,0.0,0.0,0.0,0.0,0.0
1672945167746572051,165411,1672945167778621274,enu,-0.9358,4.4715,0.1224,0.0,0.0,0.0,0.000196,0.0,0.0,0.0,0.0,0.0,0.0,0.000196,0.0,0.0,0.0,0.0,0.0,0.0,0.0001,0.0,0.0,0.0,0.0,0.0,0.0,0.0,0.0,0.0,0.0,0.0,0.0,0.0,0.0,0.0,0.0,0.0,0.0,0.0,0.0,0.0
1672945167766483142,165412,1672945167798585361,enu,-0.9381,4.4829,0.1211,0.0,0.0,0.0,0.000196,0.0,0.0,0.0,0.0,0.0,0.0,0.000196,0.0,0.0,0.0,0.0,0.0,0.0,0.0001,0.0,0.0,0.0,0.0,0.0,0.0,0.0,0.0,0.0,0.0,0.0,0.0,0.0,0.0,0.0,0.0,0.0,0.0,0.0,0.0,0.0
1672945167786394672,165413,1672945167818646023,enu,-0.9401,4.4942,0.1212,0.0,0.0,0.0,0.000225,0.0,0.0,0.0,0.0,0.0,0.0,0.000196,0.0,0.0,0.0,0.0,0.0,0.0,0.0001,0.0,0.0,0.0,0.0,0.0,0.0,0.0,0.0,0.0,0.0,0.0,0.0,0.0,0.0,0.0,0.0,0.0,0.0,0.0,0.0,0.0
1672945167806657182,165414,1672945167838721610,enu,-0.9418,4.5047,0.1208,0.0,0.0,0.0,0.000225,0.0,0.0,0.0,0.0,0.0,0.0,0.000196,0.0,0.0,0.0,0.0,0.0,0.0,0.0001,0.0,0.0,0.0,0.0,0.0,0.0,0.0,0.0,0.0,0.0,0.0,0.0,0.0,0.0,0.0,0.0,0.0,0.0,0.0,0.0,0.0
1672945167826532039,165415,1672945167858582603,enu,-0.9436,4.5162,0.1214,0.0,0.0,0.0,0.000225,0.0,0.0,0.0,0.0,0.0,0.0,0.000196,0.0,0.0,0.0,0.0,0.0,0.0,0.0001,0.0,0.0,0.0,0.0,0.0,0.0,0.0,0.0,0.0,0.0,0.0,0.0,0.0,0.0,0.0,0.0,0.0,0.0,0.0,0.0,0.0
1672945167846597280,165416,1672945167878548393,enu,-0.9484,4.5272,0.1237,0.0,0.0,0.0,0.000225,0.0,0.0,0.0,0.0,0.0,0.0,0.000196,0.0,0.0,0.0,0.0,0.0,0.0,0.0001,0.0,0.0,0.0,0.0,0.0,0.0,0.0,0.0,0.0,0.0,0.0,0.0,0.0,0.0,0.0,0.0,0.0,0.0,0.0,0.0,0.0
1672945167866258238,165417,1672945167898623550,enu,-0.9521,4.5368,0.126,0.0,0.0,0.0,0.000225,0.0,0.0,0.0,0.0,0.0,0.0,0.000196,0.0,0.0,0.0,0.0,0.0,0.0,0.0001,0.0,0.0,0.0,0.0,0.0,0.0,0.0,0.0,0.0,0.0,0.0,0.0,0.0,0.0,0.0,0.0,0.0,0.0,0.0,0.0,0.0
1672945167886494469,165418,1672945167918523337,enu,-0.9572,4.5463,0.1283,0.0,0.0,0.0,0.000225,0.0,0.0,0.0,0.0,0.0,0.0,0.000196,0.0,0.0,0.0,0.0,0.0,0.0,0.0001,0.0,0.0,0.0,0.0,0.0,0.0,0.0,0.0,0.0,0.0,0.0,0.0,0.0,0.0,0.0,0.0,0.0,0.0,0.0,0.0,0.0
1672945167906713272,165419,1672945167938547895,enu,-0.9618,4.5565,0.1309,0.0,0.0,0.0,0.000225,0.0,0.0,0.0,0.0,0.0,0.0,0.000196,0.0,0.0,0.0,0.0,0.0,0.0,0.0001,0.0,0.0,0.0,0.0,0.0,0.0,0.0,0.0,0.0,0.0,0.0,0.0,0.0,0.0,0.0,0.0,0.0,0.0,0.0,0.0,0.0
1672945167926985159,165420,1672945167958609952,enu,-0.9662,4.5645,0.1323,0.0,0.0,0.0,0.000225,0.0,0.0,0.0,0.0,0.0,0.0,0.000196,0.0,0.0,0.0,0.0,0.0,0.0,0.0001,0.0,0.0,0.0,0.0,0.0,0.0,0.0,0.0,0.0,0.0,0.0,0.0,0.0,0.0,0.0,0.0,0.0,0.0,0.0,0.0,0.0
1672945167946733253,165421,1672945167978574261,enu,-0.9687,4.5752,0.1366,0.0,0.0,0.0,0.000225,0.0,0.0,0.0,0.0,0.0,0.0,0.000196,0.0,0.0,0.0,0.0,0.0,0.0,0.0001,0.0,0.0,0.0,0.0,0.0,0.0,0.0,0.0,0.0,0.0,0.0,0.0,0.0,0.0,0.0,0.0,0.0,0.0,0.0,0.0,0.0
1672945167966774083,165422,1672945167998604058,enu,-0.9711,4.5841,0.137,0.0,0.0,0.0,0.000225,0.0,0.0,0.0,0.0,0.0,0.0,0.000196,0.0,0.0,0.0,0.0,0.0,0.0,0.0001,0.0,0.0,0.0,0.0,0.0,0.0,0.0,0.0,0.0,0.0,0.0,0.0,0.0,0.0,0.0,0.0,0.0,0.0,0.0,0.0,0.0
1672945167986344423,165423,1672945168018635840,enu,-0.9727,4.593,0.1394,0.0,0.0,0.0,0.000225,0.0,0.0,0.0,0.0,0.0,0.0,0.000196,0.0,0.0,0.0,0.0,0.0,0.0,0.0001,0.0,0.0,0.0,0.0,0.0,0.0,0.0,0.0,0.0,0.0,0.0,0.0,0.0,0.0,0.0,0.0,0.0,0.0,0.0,0.0,0.0
1672945168006853367,165424,1672945168038591732,enu,-0.9741,4.603,0.1415,0.0,0.0,0.0,0.000225,0.0,0.0,0.0,0.0,0.0,0.0,0.000196,0.0,0.0,0.0,0.0,0.0,0.0,0.0001,0.0,0.0,0.0,0.0,0.0,0.0,0.0,0.0,0.0,0.0,0.0,0.0,0.0,0.0,0.0,0.0,0.0,0.0,0.0,0.0,0.0
1672945168026552211,165425,1672945168058622643,enu,-0.9762,4.6121,0.1424,0.0,0.0,0.0,0.000225,0.0,0.0,0.0,0.0,0.0,0.0,0.000196,0.0,0.0,0.0,0.0,0.0,0.0,0.0001,0.0,0.0,0.0,0.0,0.0,0.0,0.0,0.0,0.0,0.0,0.0,0.0,0.0,0.0,0.0,0.0,0.0,0.0,0.0,0.0,0.0
1672945168046750991,165426,1672945168078703411,enu,-0.9771,4.6212,0.1417,0.0,0.0,0.0,0.000225,0.0,0.0,0.0,0.0,0.0,0.0,0.000196,0.0,0.0,0.0,0.0,0.0,0.0,0.0001,0.0,0.0,0.0,0.0,0.0,0.0,0.0,0.0,0.0,0.0,0.0,0.0,0.0,0.0,0.0,0.0,0.0,0.0,0.0,0.0,0.0
1672945168066567932,165427,1672945168098565066,enu,-0.9765,4.632,0.1411,0.0,0.0,0.0,0.000225,0.0,0.0,0.0,0.0,0.0,0.0,0.000196,0.0,0.0,0.0,0.0,0.0,0.0,0.0001,0.0,0.0,0.0,0.0,0.0,0.0,0.0,0.0,0.0,0.0,0.0,0.0,0.0,0.0,0.0,0.0,0.0,0.0,0.0,0.0,0.0
1672945168086839376,165428,1672945168118749529,enu,-0.9742,4.642,0.1405,0.0,0.0,0.0,0.000225,0.0,0.0,0.0,0.0,0.0,0.0,0.000196,0.0,0.0,0.0,0.0,0.0,0.0,0.0001,0.0,0.0,0.0,0.0,0.0,0.0,0.0,0.0,0.0,0.0,0.0,0.0,0.0,0.0,0.0,0.0,0.0,0.0,0.0,0.0,0.0
1672945168106646350,165429,1672945168138599010,enu,-0.9726,4.6523,0.1413,0.0,0.0,0.0,0.000225,0.0,0.0,0.0,0.0,0.0,0.0,0.000196,0.0,0.0,0.0,0.0,0.0,0.0,0.0001,0.0,0.0,0.0,0.0,0.0,0.0,0.0,0.0,0.0,0.0,0.0,0.0,0.0,0.0,0.0,0.0,0.0,0.0,0.0,0.0,0.0
1672945168126746421,165430,1672945168158637817,enu,-0.973,4.6641,0.1408,0.0,0.0,0.0,0.000225,0.0,0.0,0.0,0.0,0.0,0.0,0.000196,0.0,0.0,0.0,0.0,0.0,0.0,0.0001,0.0,0.0,0.0,0.0,0.0,0.0,0.0,0.0,0.0,0.0,0.0,0.0,0.0,0.0,0.0,0.0,0.0,0.0,0.0,0.0,0.0
1672945168146305398,165431,1672945168178585219,enu,-0.9721,4.6727,0.1444,0.0,0.0,0.0,0.000225,0.0,0.0,0.0,0.0,0.0,0.0,0.000196,0.0,0.0,0.0,0.0,0.0,0.0,0.0001,0.0,0.0,0.0,0.0,0.0,0.0,0.0,0.0,0.0,0.0,0.0,0.0,0.0,0.0,0.0,0.0,0.0,0.0,0.0,0.0,0.0
1672945168166651404,165432,1672945168198569026,enu,-0.974,4.6822,0.1484,0.0,0.0,0.0,0.000225,0.0,0.0,0.0,0.0,0.0,0.0,0.000196,0.0,0.0,0.0,0.0,0.0,0.0,0.0001,0.0,0.0,0.0,0.0,0.0,0.0,0.0,0.0,0.0,0.0,0.0,0.0,0.0,0.0,0.0,0.0,0.0,0.0,0.0,0.0,0.0
1672945168186799772,165433,1672945168218607608,enu,-0.9759,4.6895,0.1532,0.0,0.0,0.0,0.000225,0.0,0.0,0.0,0.0,0.0,0.0,0.000196,0.0,0.0,0.0,0.0,0.0,0.0,0.0001,0.0,0.0,0.0,0.0,0.0,0.0,0.0,0.0,0.0,0.0,0.0,0.0,0.0,0.0,0.0,0.0,0.0,0.0,0.0,0.0,0.0
1672945168206472572,165434,1672945168238526311,enu,-0.9802,4.7002,0.1596,0.0,0.0,0.0,0.000225,0.0,0.0,0.0,0.0,0.0,0.0,0.000196,0.0,0.0,0.0,0.0,0.0,0.0,0.0001,0.0,0.0,0.0,0.0,0.0,0.0,0.0,0.0,0.0,0.0,0.0,0.0,0.0,0.0,0.0,0.0,0.0,0.0,0.0,0.0,0.0
1672945168226635292,165435,1672945168258600646,enu,-0.9858,4.7099,0.1627,0.0,0.0,0.0,0.000225,0.0,0.0,0.0,0.0,0.0,0.0,0.000196,0.0,0.0,0.0,0.0,0.0,0.0,0.0001,0.0,0.0,0.0,0.0,0.0,0.0,0.0,0.0,0.0,0.0,0.0,0.0,0.0,0.0,0.0,0.0,0.0,0.0,0.0,0.0,0.0
1672945168246489836,165436,1672945168278562301,enu,-0.9904,4.7186,0.165,0.0,0.0,0.0,0.000225,0.0,0.0,0.0,0.0,0.0,0.0,0.000196,0.0,0.0,0.0,0.0,0.0,0.0,0.0001,0.0,0.0,0.0,0.0,0.0,0.0,0.0,0.0,0.0,0.0,0.0,0.0,0.0,0.0,0.0,0.0,0.0,0.0,0.0,0.0,0.0
1672945168266345057,165437,1672945168298565022,enu,-0.9948,4.7274,0.167,0.0,0.0,0.0,0.000225,0.0,0.0,0.0,0.0,0.0,0.0,0.000196,0.0,0.0,0.0,0.0,0.0,0.0,0.0001,0.0,0.0,0.0,0.0,0.0,0.0,0.0,0.0,0.0,0.0,0.0,0.0,0.0,0.0,0.0,0.0,0.0,0.0,0.0,0.0,0.0
1672945168286793039,165438,1672945168318643636,enu,-1.0001,4.7361,0.1668,0.0,0.0,0.0,0.000225,0.0,0.0,0.0,0.0,0.0,0.0,0.000196,0.0,0.0,0.0,0.0,0.0,0.0,0.0001,0.0,0.0,0.0,0.0,0.0,0.0,0.0,0.0,0.0,0.0,0.0,0.0,0.0,0.0,0.0,0.0,0.0,0.0,0.0,0.0,0.0
1672945168306908220,165439,1672945168338515721,enu,-1.0035,4.746,0.1663,0.0,0.0,0.0,0.000225,0.0,0.0,0.0,0.0,0.0,0.0,0.000196,0.0,0.0,0.0,0.0,0.0,0.0,0.0001,0.0,0.0,0.0,0.0,0.0,0.0,0.0,0.0,0.0,0.0,0.0,0.0,0.0,0.0,0.0,0.0,0.0,0.0,0.0,0.0,0.0
1672945168326613056,165440,1672945168358545161,enu,-1.0062,4.7547,0.1651,0.0,0.0,0.0,0.000225,0.0,0.0,0.0,0.0,0.0,0.0,0.000196,0.0,0.0,0.0,0.0,0.0,0.0,0.0001,0.0,0.0,0.0,0.0,0.0,0.0,0.0,0.0,0.0,0.0,0.0,0.0,0.0,0.0,0.0,0.0,0.0,0.0,0.0,0.0,0.0
1672945168346772699,165441,1672945168378595289,enu,-1.0087,4.7637,0.1641,0.0,0.0,0.0,0.000225,0.0,0.0,0.0,0.0,0.0,0.0,0.000196,0.0,0.0,0.0,0.0,0.0,0.0,0.0001,0.0,0.0,0.0,0.0,0.0,0.0,0.0,0.0,0.0,0.0,0.0,0.0,0.0,0.0,0.0,0.0,0.0,0.0,0.0,0.0,0.0
1672945168366520437,165442,1672945168398543498,enu,-1.0093,4.7738,0.1624,0.0,0.0,0.0,0.000225,0.0,0.0,0.0,0.0,0.0,0.0,0.000196,0.0,0.0,0.0,0.0,0.0,0.0,0.0001,0.0,0.0,0.0,0.0,0.0,0.0,0.0,0.0,0.0,0.0,0.0,0.0,0.0,0.0,0.0,0.0,0.0,0.0,0.0,0.0,0.0
1672945168386717253,165443,1672945168418606774,enu,-1.0065,4.7853,0.1584,0.0,0.0,0.0,0.000225,0.0,0.0,0.0,0.0,0.0,0.0,0.000196,0.0,0.0,0.0,0.0,0.0,0.0,0.0001,0.0,0.0,0.0,0.0,0.0,0.0,0.0,0.0,0.0,0.0,0.0,0.0,0.0,0.0,0.0,0.0,0.0,0.0,0.0,0.0,0.0
1672945168406460017,165444,1672945168438598193,enu,-1.0026,4.7974,0.153,0.0,0.0,0.0,0.000225,0.0,0.0,0.0,0.0,0.0,0.0,0.000196,0.0,0.0,0.0,0.0,0.0,0.0,0.0001,0.0,0.0,0.0,0.0,0.0,0.0,0.0,0.0,0.0,0.0,0.0,0.0,0.0,0.0,0.0,0.0,0.0,0.0,0.0,0.0,0.0
1672945168426291930,165445,1672945168458573801,enu,-0.9971,4.8106,0.1463,0.0,0.0,0.0,0.000225,0.0,0.0,0.0,0.0,0.0,0.0,0.000196,0.0,0.0,0.0,0.0,0.0,0.0,0.0001,0.0,0.0,0.0,0.0,0.0,0.0,0.0,0.0,0.0,0.0,0.0,0.0,0.0,0.0,0.0,0.0,0.0,0.0,0.0,0.0,0.0
1672945168446227312,165446,1672945168478527804,enu,-0.9925,4.8258,0.1399,0.0,0.0,0.0,0.000225,0.0,0.0,0.0,0.0,0.0,0.0,0.000196,0.0,0.0,0.0,0.0,0.0,0.0,0.0001,0.0,0.0,0.0,0.0,0.0,0.0,0.0,0.0,0.0,0.0,0.0,0.0,0.0,0.0,0.0,0.0,0.0,0.0,0.0,0.0,0.0
1672945168466736395,165447,1672945168498592463,enu,-0.9897,4.836,0.1336,0.0,0.0,0.0,0.000225,0.0,0.0,0.0,0.0,0.0,0.0,0.000196,0.0,0.0,0.0,0.0,0.0,0.0,0.0001,0.0,0.0,0.0,0.0,0.0,0.0,0.0,0.0,0.0,0.0,0.0,0.0,0.0,0.0,0.0,0.0,0.0,0.0,0.0,0.0,0.0
1672945168486643705,165448,1672945168518583824,enu,-0.9859,4.848,0.1287,0.0,0.0,0.0,0.000225,0.0,0.0,0.0,0.0,0.0,0.0,0.000196,0.0,0.0,0.0,0.0,0.0,0.0,0.0001,0.0,0.0,0.0,0.0,0.0,0.0,0.0,0.0,0.0,0.0,0.0,0.0,0.0,0.0,0.0,0.0,0.0,0.0,0.0,0.0,0.0
1672945168506563634,165449,1672945168538674049,enu,-0.9826,4.8613,0.1266,0.0,0.0,0.0,0.000225,0.0,0.0,0.0,0.0,0.0,0.0,0.000196,0.0,0.0,0.0,0.0,0.0,0.0,0.0001,0.0,0.0,0.0,0.0,0.0,0.0,0.0,0.0,0.0,0.0,0.0,0.0,0.0,0.0,0.0,0.0,0.0,0.0,0.0,0.0,0.0
1672945168526977513,165450,1672945168558636040,enu,-0.9811,4.8722,0.1241,0.0,0.0,0.0,0.000225,0.0,0.0,0.0,0.0,0.0,0.0,0.000196,0.0,0.0,0.0,0.0,0.0,0.0,0.0001,0.0,0.0,0.0,0.0,0.0,0.0,0.0,0.0,0.0,0.0,0.0,0.0,0.0,0.0,0.0,0.0,0.0,0.0,0.0,0.0,0.0
1672945168546803435,165451,1672945168578616196,enu,-0.9793,4.8832,0.1239,0.0,0.0,0.0,0.000225,0.0,0.0,0.0,0.0,0.0,0.0,0.000196,0.0,0.0,0.0,0.0,0.0,0.0,0.0001,0.0,0.0,0.0,0.0,0.0,0.0,0.0,0.0,0.0,0.0,0.0,0.0,0.0,0.0,0.0,0.0,0.0,0.0,0.0,0.0,0.0
1672945168567205616,165452,1672945168598705137,enu,-0.9762,4.8924,0.1291,0.0,0.0,0.0,0.000225,0.0,0.0,0.0,0.0,0.0,0.0,0.000196,0.0,0.0,0.0,0.0,0.0,0.0,0.0001,0.0,0.0,0.0,0.0,0.0,0.0,0.0,0.0,0.0,0.0,0.0,0.0,0.0,0.0,0.0,0.0,0.0,0.0,0.0,0.0,0.0
1672945168586213120,165453,1672945168618574414,enu,-0.9753,4.9033,0.1335,0.0,0.0,0.0,0.000225,0.0,0.0,0.0,0.0,0.0,0.0,0.000196,0.0,0.0,0.0,0.0,0.0,0.0,0.0001,0.0,0.0,0.0,0.0,0.0,0.0,0.0,0.0,0.0,0.0,0.0,0.0,0.0,0.0,0.0,0.0,0.0,0.0,0.0,0.0,0.0
1672945168606296352,165454,1672945168638640703,enu,-0.9746,4.9126,0.1381,0.0,0.0,0.0,0.000225,0.0,0.0,0.0,0.0,0.0,0.0,0.000196,0.0,0.0,0.0,0.0,0.0,0.0,0.0001,0.0,0.0,0.0,0.0,0.0,0.0,0.0,0.0,0.0,0.0,0.0,0.0,0.0,0.0,0.0,0.0,0.0,0.0,0.0,0.0,0.0
1672945168626667769,165455,1672945168658545491,enu,-0.9762,4.9235,0.1422,0.0,0.0,0.0,0.000225,0.0,0.0,0.0,0.0,0.0,0.0,0.000196,0.0,0.0,0.0,0.0,0.0,0.0,0.0001,0.0,0.0,0.0,0.0,0.0,0.0,0.0,0.0,0.0,0.0,0.0,0.0,0.0,0.0,0.0,0.0,0.0,0.0,0.0,0.0,0.0
1672945168646293605,165456,1672945168678515134,enu,-0.9793,4.9326,0.1472,0.0,0.0,0.0,0.000225,0.0,0.0,0.0,0.0,0.0,0.0,0.000196,0.0,0.0,0.0,0.0,0.0,0.0,0.0001,0.0,0.0,0.0,0.0,0.0,0.0,0.0,0.0,0.0,0.0,0.0,0.0,0.0,0.0,0.0,0.0,0.0,0.0,0.0,0.0,0.0
1672945168666479849,165457,1672945168698546964,enu,-0.981,4.9428,0.151,0.0,0.0,0.0,0.000225,0.0,0.0,0.0,0.0,0.0,0.0,0.000196,0.0,0.0,0.0,0.0,0.0,0.0,0.0001,0.0,0.0,0.0,0.0,0.0,0.0,0.0,0.0,0.0,0.0,0.0,0.0,0.0,0.0,0.0,0.0,0.0,0.0,0.0,0.0,0.0
1672945168686390745,165458,1672945168718640791,enu,-0.9835,4.953,0.153,0.0,0.0,0.0,0.000225,0.0,0.0,0.0,0.0,0.0,0.0,0.000196,0.0,0.0,0.0,0.0,0.0,0.0,0.0001,0.0,0.0,0.0,0.0,0.0,0.0,0.0,0.0,0.0,0.0,0.0,0.0,0.0,0.0,0.0,0.0,0.0,0.0,0.0,0.0,0.0
1672945168706272371,165459,1672945168738600554,enu,-0.9872,4.9625,0.1548,0.0,0.0,0.0,0.000225,0.0,0.0,0.0,0.0,0.0,0.0,0.000196,0.0,0.0,0.0,0.0,0.0,0.0,0.0001,0.0,0.0,0.0,0.0,0.0,0.0,0.0,0.0,0.0,0.0,0.0,0.0,0.0,0.0,0.0,0.0,0.0,0.0,0.0,0.0,0.0
1672945168726224488,165460,1672945168758569692,enu,-0.989,4.9713,0.157,0.0,0.0,0.0,0.000225,0.0,0.0,0.0,0.0,0.0,0.0,0.000196,0.0,0.0,0.0,0.0,0.0,0.0,0.0001,0.0,0.0,0.0,0.0,0.0,0.0,0.0,0.0,0.0,0.0,0.0,0.0,0.0,0.0,0.0,0.0,0.0,0.0,0.0,0.0,0.0
1672945168746743358,165461,1672945168778591219,enu,-0.9917,4.9828,0.1582,0.0,0.0,0.0,0.000225,0.0,0.0,0.0,0.0,0.0,0.0,0.000196,0.0,0.0,0.0,0.0,0.0,0.0,0.0001,0.0,0.0,0.0,0.0,0.0,0.0,0.0,0.0,0.0,0.0,0.0,0.0,0.0,0.0,0.0,0.0,0.0,0.0,0.0,0.0,0.0
1672945168766760226,165462,1672945168798632397,enu,-0.9954,4.9915,0.1596,0.0,0.0,0.0,0.000225,0.0,0.0,0.0,0.0,0.0,0.0,0.000196,0.0,0.0,0.0,0.0,0.0,0.0,0.0001,0.0,0.0,0.0,0.0,0.0,0.0,0.0,0.0,0.0,0.0,0.0,0.0,0.0,0.0,0.0,0.0,0.0,0.0,0.0,0.0,0.0
1672945168786537180,165463,1672945168818571466,enu,-0.9984,5.0008,0.1629,0.0,0.0,0.0,0.000225,0.0,0.0,0.0,0.0,0.0,0.0,0.000196,0.0,0.0,0.0,0.0,0.0,0.0,0.0001,0.0,0.0,0.0,0.0,0.0,0.0,0.0,0.0,0.0,0.0,0.0,0.0,0.0,0.0,0.0,0.0,0.0,0.0,0.0,0.0,0.0
1672945168806754785,165464,1672945168838592918,enu,-1.0025,5.0131,0.1633,0.0,0.0,0.0,0.000225,0.0,0.0,0.0,0.0,0.0,0.0,0.000196,0.0,0.0,0.0,0.0,0.0,0.0,0.0001,0.0,0.0,0.0,0.0,0.0,0.0,0.0,0.0,0.0,0.0,0.0,0.0,0.0,0.0,0.0,0.0,0.0,0.0,0.0,0.0,0.0
1672945168826874963,165465,1672945168858631934,enu,-1.0058,5.0227,0.1633,0.0,0.0,0.0,0.000225,0.0,0.0,0.0,0.0,0.0,0.0,0.000196,0.0,0.0,0.0,0.0,0.0,0.0,0.0001,0.0,0.0,0.0,0.0,0.0,0.0,0.0,0.0,0.0,0.0,0.0,0.0,0.0,0.0,0.0,0.0,0.0,0.0,0.0,0.0,0.0
1672945168846753644,165466,1672945168878556218,enu,-1.0072,5.0314,0.1637,0.0,0.0,0.0,0.000225,0.0,0.0,0.0,0.0,0.0,0.0,0.000196,0.0,0.0,0.0,0.0,0.0,0.0,0.0001,0.0,0.0,0.0,0.0,0.0,0.0,0.0,0.0,0.0,0.0,0.0,0.0,0.0,0.0,0.0,0.0,0.0,0.0,0.0,0.0,0.0
1672945168866200430,165467,1672945168898589319,enu,-1.0096,5.0436,0.1611,0.0,0.0,0.0,0.000225,0.0,0.0,0.0,0.0,0.0,0.0,0.000196,0.0,0.0,0.0,0.0,0.0,0.0,0.0001,0.0,0.0,0.0,0.0,0.0,0.0,0.0,0.0,0.0,0.0,0.0,0.0,0.0,0.0,0.0,0.0,0.0,0.0,0.0,0.0,0.0
1672945168886964740,165468,1672945168918602264,enu,-1.0091,5.0542,0.1602,0.0,0.0,0.0,0.000225,0.0,0.0,0.0,0.0,0.0,0.0,0.000196,0.0,0.0,0.0,0.0,0.0,0.0,0.0001,0.0,0.0,0.0,0.0,0.0,0.0,0.0,0.0,0.0,0.0,0.0,0.0,0.0,0.0,0.0,0.0,0.0,0.0,0.0,0.0,0.0
1672945168906568032,165469,1672945168938584067,enu,-1.0093,5.0657,0.1586,0.0,0.0,0.0,0.000225,0.0,0.0,0.0,0.0,0.0,0.0,0.000196,0.0,0.0,0.0,0.0,0.0,0.0,0.0001,0.0,0.0,0.0,0.0,0.0,0.0,0.0,0.0,0.0,0.0,0.0,0.0,0.0,0.0,0.0,0.0,0.0,0.0,0.0,0.0,0.0
1672945168926951206,165470,1672945168958583629,enu,-1.0065,5.0756,0.157,0.0,0.0,0.0,0.000225,0.0,0.0,0.0,0.0,0.0,0.0,0.000196,0.0,0.0,0.0,0.0,0.0,0.0,0.0001,0.0,0.0,0.0,0.0,0.0,0.0,0.0,0.0,0.0,0.0,0.0,0.0,0.0,0.0,0.0,0.0,0.0,0.0,0.0,0.0,0.0
1672945168946318628,165471,1672945168978590005,enu,-1.002,5.0889,0.1542,0.0,0.0,0.0,0.000225,0.0,0.0,0.0,0.0,0.0,0.0,0.000196,0.0,0.0,0.0,0.0,0.0,0.0,0.0001,0.0,0.0,0.0,0.0,0.0,0.0,0.0,0.0,0.0,0.0,0.0,0.0,0.0,0.0,0.0,0.0,0.0,0.0,0.0,0.0,0.0
1672945168966936827,165472,1672945168998587463,enu,-0.9971,5.1004,0.1497,0.0,0.0,0.0,0.000225,0.0,0.0,0.0,0.0,0.0,0.0,0.000196,0.0,0.0,0.0,0.0,0.0,0.0,0.0001,0.0,0.0,0.0,0.0,0.0,0.0,0.0,0.0,0.0,0.0,0.0,0.0,0.0,0.0,0.0,0.0,0.0,0.0,0.0,0.0,0.0
1672945168986229831,165473,1672945169018554757,enu,-0.991,5.1161,0.1405,0.0,0.0,0.0,0.000225,0.0,0.0,0.0,0.0,0.0,0.0,0.000196,0.0,0.0,0.0,0.0,0.0,0.0,0.0001,0.0,0.0,0.0,0.0,0.0,0.0,0.0,0.0,0.0,0.0,0.0,0.0,0.0,0.0,0.0,0.0,0.0,0.0,0.0,0.0,0.0
1672945169006578153,165474,1672945169038628294,enu,-0.9847,5.128,0.131,0.0,0.0,0.0,0.000225,0.0,0.0,0.0,0.0,0.0,0.0,0.000196,0.0,0.0,0.0,0.0,0.0,0.0,0.0001,0.0,0.0,0.0,0.0,0.0,0.0,0.0,0.0,0.0,0.0,0.0,0.0,0.0,0.0,0.0,0.0,0.0,0.0,0.0,0.0,0.0
1672945169026825596,165475,1672945169058659631,enu,-0.9787,5.1371,0.1274,0.0,0.0,0.0,0.000225,0.0,0.0,0.0,0.0,0.0,0.0,0.000196,0.0,0.0,0.0,0.0,0.0,0.0,0.0001,0.0,0.0,0.0,0.0,0.0,0.0,0.0,0.0,0.0,0.0,0.0,0.0,0.0,0.0,0.0,0.0,0.0,0.0,0.0,0.0,0.0
1672945169046514938,165476,1672945169078596677,enu,-0.9768,5.1446,0.1252,0.0,0.0,0.0,0.000225,0.0,0.0,0.0,0.0,0.0,0.0,0.000196,0.0,0.0,0.0,0.0,0.0,0.0,0.0001,0.0,0.0,0.0,0.0,0.0,0.0,0.0,0.0,0.0,0.0,0.0,0.0,0.0,0.0,0.0,0.0,0.0,0.0,0.0,0.0,0.0
1672945169066933986,165477,1672945169098714709,enu,-0.9744,5.1547,0.1272,0.0,0.0,0.0,0.000225,0.0,0.0,0.0,0.0,0.0,0.0,0.000196,0.0,0.0,0.0,0.0,0.0,0.0,0.0001,0.0,0.0,0.0,0.0,0.0,0.0,0.0,0.0,0.0,0.0,0.0,0.0,0.0,0.0,0.0,0.0,0.0,0.0,0.0,0.0,0.0
1672945169086687489,165478,1672945169118676259,enu,-0.9714,5.1657,0.1284,0.0,0.0,0.0,0.000225,0.0,0.0,0.0,0.0,0.0,0.0,0.000196,0.0,0.0,0.0,0.0,0.0,0.0,0.0001,0.0,0.0,0.0,0.0,0.0,0.0,0.0,0.0,0.0,0.0,0.0,0.0,0.0,0.0,0.0,0.0,0.0,0.0,0.0,0.0,0.0
1672945169106156443,165479,1672945169138552607,enu,-0.9713,5.1732,0.1279,0.0,0.0,0.0,0.000225,0.0,0.0,0.0,0.0,0.0,0.0,0.000196,0.0,0.0,0.0,0.0,0.0,0.0,0.0001,0.0,0.0,0.0,0.0,0.0,0.0,0.0,0.0,0.0,0.0,0.0,0.0,0.0,0.0,0.0,0.0,0.0,0.0,0.0,0.0,0.0
1672945169126617027,165480,1672945169158626761,enu,-0.9706,5.186,0.133,0.0,0.0,0.0,0.000225,0.0,0.0,0.0,0.0,0.0,0.0,0.000196,0.0,0.0,0.0,0.0,0.0,0.0,0.0001,0.0,0.0,0.0,0.0,0.0,0.0,0.0,0.0,0.0,0.0,0.0,0.0,0.0,0.0,0.0,0.0,0.0,0.0,0.0,0.0,0.0
1672945169146585782,165481,1672945169178547695,enu,-0.9699,5.1953,0.138,0.0,0.0,0.0,0.000225,0.0,0.0,0.0,0.0,0.0,0.0,0.000196,0.0,0.0,0.0,0.0,0.0,0.0,0.0001,0.0,0.0,0.0,0.0,0.0,0.0,0.0,0.0,0.0,0.0,0.0,0.0,0.0,0.0,0.0,0.0,0.0,0.0,0.0,0.0,0.0
1672945169166592465,165482,1672945169198599302,enu,-0.9713,5.2063,0.1414,0.0,0.0,0.0,0.000225,0.0,0.0,0.0,0.0,0.0,0.0,0.000196,0.0,0.0,0.0,0.0,0.0,0.0,0.0001,0.0,0.0,0.0,0.0,0.0,0.0,0.0,0.0,0.0,0.0,0.0,0.0,0.0,0.0,0.0,0.0,0.0,0.0,0.0,0.0,0.0
1672945169186700818,165483,1672945169218576662,enu,-0.971,5.2192,0.1459,0.0,0.0,0.0,0.000225,0.0,0.0,0.0,0.0,0.0,0.0,0.000196,0.0,0.0,0.0,0.0,0.0,0.0,0.0001,0.0,0.0,0.0,0.0,0.0,0.0,0.0,0.0,0.0,0.0,0.0,0.0,0.0,0.0,0.0,0.0,0.0,0.0,0.0,0.0,0.0
1672945169206620307,165484,1672945169238605917,enu,-0.9698,5.2302,0.1478,0.0,0.0,0.0,0.000225,0.0,0.0,0.0,0.0,0.0,0.0,0.000196,0.0,0.0,0.0,0.0,0.0,0.0,0.0001,0.0,0.0,0.0,0.0,0.0,0.0,0.0,0.0,0.0,0.0,0.0,0.0,0.0,0.0,0.0,0.0,0.0,0.0,0.0,0.0,0.0
