%time,field.header.seq,field.header.stamp,field.header.frame_id,field.status.status,field.status.service,field.latitude,field.longitude,field.altitude,field.position_covariance0,field.position_covariance1,field.position_covariance2,field.position_covariance3,field.position_covariance4,field.position_covariance5,field.position_covariance6,field.position_covariance7,field.position_covariance8,field.position_covariance_type
1672947010521398419,257550,1672947010524698974,gps,2,1,42.3009731727,-83.6978718646,272.593994141,0.001089,0.0,0.0,0.0,0.001089,0.0,0.0,0.0,0.005041,2
1672947010541622139,257551,1672947010544814357,gps,2,1,42.3009731726,-83.697871865,272.594055176,0.001089,0.0,0.0,0.0,0.001089,0.0,0.0,0.0,0.005041,2
1672947010561420186,257552,1672947010564617042,gps,2,1,42.3009731722,-83.697871865,272.594116211,0.001089,0.0,0.0,0.0,0.001089,0.0,0.0,0.0,0.005041,2
1672947010581440724,257553,1672947010584653111,gps,2,1,42.3009731724,-83.6978718635,272.594116211,0.001089,0.0,0.0,0.0,0.001089,0.0,0.0,0.0,0.005041,2
1672947010601245017,257554,1672947010604551587,gps,2,1,42.3009731706,-83.6978718638,272.594207764,0.001089,0.0,0.0,0.0,0.001089,0.0,0.0,0.0,0.005041,2
1672947010621300471,257555,1672947010624572276,gps,2,1,42.3009731689,-83.697871864,272.594268799,0.001089,0.0,0.0,0.0,0.001089,0.0,0.0,0.0,0.005041,2
1672947010641206269,257556,1672947010644594508,gps,2,1,42.3009731695,-83.6978718625,272.594268799,0.001089,0.0,0.0,0.0,0.001089,0.0,0.0,0.0,0.005041,2
1672947010661136596,257557,1672947010664556232,gps,2,1,42.3009731682,-83.6978718628,272.594329834,0.001089,0.0,0.0,0.0,0.001089,0.0,0.0,0.0,0.005041,2
1672947010681371228,257558,1672947010684587351,gps,2,1,42.3009731669,-83.697871863,272.594390869,0.001089,0.0,0.0,0.0,0.001089,0.0,0.0,0.0,0.005041,2
1672947010701375537,257559,1672947010704637918,gps,2,1,42.3009731677,-83.6978718617,272.594390869,0.001089,0.0,0.0,0.0,0.001089,0.0,0.0,0.0,0.005041,2
1672947010721423599,257560,1672947010724641067,gps,2,1,42.3009731686,-83.6978718611,272.594512939,0.001089,0.0,0.0,0.0,0.001089,0.0,0.0,0.0,0.005041,2
1672947010741332409,257561,1672947010744557832,gps,2,1,42.3009731695,-83.6978718604,272.594604492,0.001089,0.0,0.0,0.0,0.001089,0.0,0.0,0.0,0.005041,2
1672947010761139198,257562,1672947010764622474,gps,2,1,42.3009731703,-83.6978718592,272.59463501,0.001089,0.0,0.0,0.0,0.001089,0.0,0.0,0.0,0.005041,2
1672947010781172539,257563,1672947010784557279,gps,2,1,42.300973171,-83.6978718586,272.59475708,0.001089,0.0,0.0,0.0,0.001089,0.0,0.0,0.0,0.005041,2
1672947010801089019,257564,1672947010804568484,gps,2,1,42.30097317,-83.6978718593,272.59475708,0.001089,0.0,0.0,0.0,0.001089,0.0,0.0,0.0,0.005041,2
1672947010821561766,257565,1672947010824640268,gps,2,1,42.3009731704,-83.6978718581,272.594787598,0.001089,0.0,0.0,0.0,0.001089,0.0,0.0,0.0,0.005041,2
1672947010841531363,257566,1672947010844582136,gps,2,1,42.3009731691,-83.6978718586,272.59475708,0.001089,0.0,0.0,0.0,0.001089,0.0,0.0,0.0,0.005041,2
1672947010861340639,257567,1672947010864614705,gps,2,1,42.3009731679,-83.6978718591,272.59475708,0.001089,0.0,0.0,0.0,0.001089,0.0,0.0,0.0,0.005041,2
1672947010881222294,257568,1672947010884541182,gps,2,1,42.300973168,-83.6978718577,272.594726562,0.001089,0.0,0.0,0.0,0.001089,0.0,0.0,0.0,0.005041,2
1672947010901205328,257569,1672947010904524746,gps,2,1,42.3009731669,-83.6978718585,272.594726562,0.001089,0.0,0.0,0.0,0.001089,0.0,0.0,0.0,0.005041,2
1672947010921091726,257570,1672947010924582898,gps,2,1,42.3009731658,-83.6978718593,272.59475708,0.001089,0.0,0.0,0.0,0.001089,0.0,0.0,0.0,0.005041,2
1672947010941242052,257571,1672947010944580142,gps,2,1,42.3009731657,-83.6978718577,272.594726562,0.001089,0.0,0.0,0.0,0.001089,0.0,0.0,0.0,0.005041,2
1672947010961234443,257572,1672947010964576197,gps,2,1,42.3009731647,-83.6978718582,272.59475708,0.001089,0.0,0.0,0.0,0.001089,0.0,0.0,0.0,0.005041,2
1672947010981312512,257573,1672947010984561748,gps,2,1,42.3009731638,-83.6978718587,272.594787598,0.001089,0.0,0.0,0.0,0.001089,0.0,0.0,0.0,0.005041,2
1672947011001248703,257574,1672947011004614601,gps,2,1,42.3009731639,-83.6978718569,272.594818115,0.001089,0.0,0.0,0.0,0.001089,0.0,0.0,0.0,0.005041,2
1672947011021314774,257575,1672947011024730480,gps,2,1,42.3009731624,-83.6978718571,272.594909668,0.001089,0.0,0.0,0.0,0.001089,0.0,0.0,0.0,0.005041,2
1672947011041331138,257576,1672947011044613907,gps,2,1,42.3009731608,-83.6978718572,272.595031738,0.001089,0.0,0.0,0.0,0.001089,0.0,0.0,0.0,0.005041,2
1672947011061108664,257577,1672947011064628735,gps,2,1,42.3009731614,-83.6978718554,272.595062256,0.001089,0.0,0.0,0.0,0.001089,0.0,0.0,0.0,0.005041,2
1672947011081280645,257578,1672947011084625299,gps,2,1,42.3009731603,-83.6978718553,272.595153809,0.001089,0.0,0.0,0.0,0.001089,0.0,0.0,0.0,0.005041,2
1672947011101374177,257579,1672947011104563704,gps,2,1,42.300973159,-83.6978718555,272.595184326,0.001089,0.0,0.0,0.0,0.001089,0.0,0.0,0.0,0.005041,2
1672947011121296523,257580,1672947011124574668,gps,2,1,42.3009731597,-83.6978718537,272.595214844,0.001089,0.0,0.0,0.0,0.001089,0.0,0.0,0.0,0.005041,2
1672947011141136787,257581,1672947011144527553,gps,2,1,42.3009731583,-83.697871854,272.595184326,0.001089,0.0,0.0,0.0,0.001089,0.0,0.0,0.0,0.005041,2
1672947011161262166,257582,1672947011164580199,gps,2,1,42.300973157,-83.6978718542,272.595123291,0.001089,0.0,0.0,0.0,0.001089,0.0,0.0,0.0,0.005041,2
1672947011181106122,257583,1672947011184616932,gps,2,1,42.3009731574,-83.6978718528,272.595092773,0.001089,0.0,0.0,0.0,0.001089,0.0,0.0,0.0,0.005041,2
1672947011201134940,257584,1672947011204694225,gps,2,1,42.3009731564,-83.6978718525,272.595001221,0.001089,0.0,0.0,0.0,0.001089,0.0,0.0,0.0,0.005041,2
1672947011221339836,257585,1672947011224647873,gps,2,1,42.3009731556,-83.6978718523,272.594940186,0.001089,0.0,0.0,0.0,0.001089,0.0,0.0,0.0,0.005041,2
1672947011241350953,257586,1672947011244638206,gps,2,1,42.3009731554,-83.6978718513,272.594909668,0.001089,0.0,0.0,0.0,0.001089,0.0,0.0,0.0,0.005041,2
1672947011261393663,257587,1672947011264602308,gps,2,1,42.3009731544,-83.6978718513,272.59487915,0.001089,0.0,0.0,0.0,0.001089,0.0,0.0,0.0,0.005041,2
1672947011281233051,257588,1672947011284554389,gps,2,1,42.3009731529,-83.697871853,272.59487915,0.001089,0.0,0.0,0.0,0.001089,0.0,0.0,0.0,0.005041,2
1672947011301220566,257589,1672947011304546613,gps,2,1,42.3009731529,-83.6978718522,272.594909668,0.001089,0.0,0.0,0.0,0.001089,0.0,0.0,0.0,0.005041,2
1672947011321299823,257590,1672947011324632434,gps,2,1,42.300973152,-83.6978718538,272.594940186,0.001089,0.0,0.0,0.0,0.001089,0.0,0.0,0.0,0.005041,2
1672947011341137793,257591,1672947011344571684,gps,2,1,42.300973151,-83.6978718554,272.594970703,0.001089,0.0,0.0,0.0,0.001089,0.0,0.0,0.0,0.005041,2
1672947011361153970,257592,1672947011364586277,gps,2,1,42.3009731516,-83.6978718544,272.595031738,0.001089,0.0,0.0,0.0,0.001089,0.0,0.0,0.0,0.005041,2
1672947011381387755,257593,1672947011384629025,gps,2,1,42.3009731517,-83.6978718552,272.595062256,0.001089,0.0,0.0,0.0,0.001089,0.0,0.0,0.0,0.005041,2
1672947011401298570,257594,1672947011404633107,gps,2,1,42.3009731518,-83.6978718559,272.595092773,0.001089,0.0,0.0,0.0,0.001089,0.0,0.0,0.0,0.005041,2
1672947011421316444,257595,1672947011424638636,gps,2,1,42.3009731525,-83.6978718545,272.595092773,0.001089,0.0,0.0,0.0,0.001089,0.0,0.0,0.0,0.005041,2
1672947011441376348,257596,1672947011444589177,gps,2,1,42.3009731526,-83.6978718546,272.595062256,0.001089,0.0,0.0,0.0,0.001089,0.0,0.0,0.0,0.005041,2
1672947011461298310,257597,1672947011464561718,gps,2,1,42.3009731527,-83.6978718546,272.595031738,0.001089,0.0,0.0,0.0,0.001089,0.0,0.0,0.0,0.005041,2
1672947011481208499,257598,1672947011484622076,gps,2,1,42.3009731532,-83.6978718529,272.595001221,0.001089,0.0,0.0,0.0,0.001089,0.0,0.0,0.0,0.005041,2
1672947011501502562,257599,1672947011504722252,gps,2,1,42.300973153,-83.6978718528,272.594970703,0.001089,0.0,0.0,0.0,0.001089,0.0,0.0,0.0,0.005041,2
1672947011521408922,257600,1672947011524598652,gps,2,1,42.3009731523,-83.6978718525,272.595001221,0.001089,0.0,0.0,0.0,0.001089,0.0,0.0,0.0,0.005041,2
1672947011541504386,257601,1672947011544728591,gps,2,1,42.3009731524,-83.697871851,272.594970703,0.001089,0.0,0.0,0.0,0.001089,0.0,0.0,0.0,0.005041,2
1672947011561367142,257602,1672947011564610462,gps,2,1,42.3009731513,-83.6978718511,272.595031738,0.001089,0.0,0.0,0.0,0.001089,0.0,0.0,0.0,0.005041,2
1672947011581144359,257603,1672947011584541354,gps,2,1,42.3009731501,-83.6978718509,272.595062256,0.001089,0.0,0.0,0.0,0.001089,0.0,0.0,0.0,0.005041,2
1672947011601257065,257604,1672947011604647943,gps,2,1,42.3009731498,-83.6978718498,272.595092773,0.001089,0.0,0.0,0.0,0.001089,0.0,0.0,0.0,0.005041,2
1672947011621111604,257605,1672947011624545481,gps,2,1,42.3009731484,-83.6978718498,272.595153809,0.001089,0.0,0.0,0.0,0.001089,0.0,0.0,0.0,0.005041,2
1672947011641130609,257606,1672947011644546855,gps,2,1,42.3009731471,-83.6978718499,272.595245361,0.001089,0.0,0.0,0.0,0.001089,0.0,0.0,0.0,0.005041,2
1672947011661319081,257607,1672947011664613164,gps,2,1,42.3009731468,-83.6978718489,272.595275879,0.001089,0.0,0.0,0.0,0.001089,0.0,0.0,0.0,0.005041,2
1672947011681190630,257608,1672947011684533822,gps,2,1,42.3009731457,-83.6978718488,272.595336914,0.001089,0.0,0.0,0.0,0.001089,0.0,0.0,0.0,0.005041,2
1672947011701150813,257609,1672947011704527424,gps,2,1,42.3009731449,-83.6978718494,272.595397949,0.001089,0.0,0.0,0.0,0.001089,0.0,0.0,0.0,0.005041,2
1672947011721435342,257610,1672947011724707509,gps,2,1,42.3009731449,-83.6978718481,272.595428467,0.001089,0.0,0.0,0.0,0.001089,0.0,0.0,0.0,0.005041,2
1672947011741298230,257611,1672947011744527320,gps,2,1,42.3009731445,-83.6978718482,272.595458984,0.001089,0.0,0.0,0.0,0.001089,0.0,0.0,0.0,0.005041,2
1672947011761151990,257612,1672947011764582950,gps,2,1,42.3009731442,-83.6978718483,272.595489502,0.0009,0.0,0.0,0.0,0.0009,0.0,0.0,0.0,0.004761,2
1672947011781189281,257613,1672947011784626364,gps,2,1,42.3009731445,-83.6978718467,272.595458984,0.0009,0.0,0.0,0.0,0.0009,0.0,0.0,0.0,0.004761,2
1672947011801362323,257614,1672947011804691658,gps,2,1,42.3009731446,-83.697871847,272.595489502,0.0009,0.0,0.0,0.0,0.0009,0.0,0.0,0.0,0.004761,2
1672947011821110012,257615,1672947011824556765,gps,2,1,42.3009731447,-83.6978718473,272.59552002,0.0009,0.0,0.0,0.0,0.0009,0.0,0.0,0.0,0.004761,2
1672947011841328403,257616,1672947011844609687,gps,2,1,42.3009731452,-83.6978718456,272.595489502,0.0009,0.0,0.0,0.0,0.0009,0.0,0.0,0.0,0.004761,2
1672947011861202359,257617,1672947011864533679,gps,2,1,42.3009731453,-83.697871846,272.595550537,0.0009,0.0,0.0,0.0,0.0009,0.0,0.0,0.0,0.004761,2
1672947011881208118,257618,1672947011884572234,gps,2,1,42.3009731453,-83.6978718464,272.595581055,0.0009,0.0,0.0,0.0,0.0009,0.0,0.0,0.0,0.004761,2
1672947011901407378,257619,1672947011904615904,gps,2,1,42.3009731456,-83.6978718451,272.595581055,0.0009,0.0,0.0,0.0,0.0009,0.0,0.0,0.0,0.004761,2
1672947011921089310,257620,1672947011924559509,gps,2,1,42.3009731448,-83.6978718462,272.595672607,0.0009,0.0,0.0,0.0,0.0009,0.0,0.0,0.0,0.004761,2
1672947011941205036,257621,1672947011944556386,gps,2,1,42.300973144,-83.6978718472,272.595733643,0.0009,0.0,0.0,0.0,0.0009,0.0,0.0,0.0,0.004761,2
1672947011961424685,257622,1672947011964604580,gps,2,1,42.3009731438,-83.6978718461,272.59576416,0.0009,0.0,0.0,0.0,0.0009,0.0,0.0,0.0,0.004761,2
1672947011981312117,257623,1672947011984549630,gps,2,1,42.3009731426,-83.6978718471,272.595825195,0.0009,0.0,0.0,0.0,0.0009,0.0,0.0,0.0,0.004761,2
1672947012001241767,257624,1672947012004549095,gps,2,1,42.3009731419,-83.6978718479,272.595825195,0.0009,0.0,0.0,0.0,0.0009,0.0,0.0,0.0,0.004761,2
1672947012021368701,257625,1672947012024667187,gps,2,1,42.3009731414,-83.6978718467,272.595825195,0.0009,0.0,0.0,0.0,0.0009,0.0,0.0,0.0,0.004761,2
1672947012041224498,257626,1672947012044567892,gps,2,1,42.3009731405,-83.6978718474,272.595825195,0.0009,0.0,0.0,0.0,0.0009,0.0,0.0,0.0,0.004761,2
1672947012061377762,257627,1672947012064650511,gps,2,1,42.3009731395,-83.697871848,272.595825195,0.0009,0.0,0.0,0.0,0.0009,0.0,0.0,0.0,0.004761,2
1672947012081432768,257628,1672947012084681880,gps,2,1,42.3009731393,-83.6978718467,272.595794678,0.0009,0.0,0.0,0.0,0.0009,0.0,0.0,0.0,0.004761,2
1672947012101407601,257629,1672947012104605934,gps,2,1,42.3009731383,-83.6978718471,272.595794678,0.0009,0.0,0.0,0.0,0.0009,0.0,0.0,0.0,0.004761,2
1672947012121420528,257630,1672947012124665957,gps,2,1,42.3009731373,-83.6978718474,272.595794678,0.0009,0.0,0.0,0.0,0.0009,0.0,0.0,0.0,0.004761,2
1672947012141366303,257631,1672947012144579649,gps,2,1,42.3009731374,-83.697871846,272.595794678,0.0009,0.0,0.0,0.0,0.0009,0.0,0.0,0.0,0.004761,2
1672947012161245311,257632,1672947012164563361,gps,2,1,42.3009731367,-83.6978718462,272.595825195,0.0009,0.0,0.0,0.0,0.0009,0.0,0.0,0.0,0.004761,2
1672947012181197295,257633,1672947012184584853,gps,2,1,42.3009731359,-83.6978718463,272.595825195,0.0009,0.0,0.0,0.0,0.0009,0.0,0.0,0.0,0.004761,2
1672947012201111119,257634,1672947012204604363,gps,2,1,42.300973136,-83.6978718448,272.595825195,0.0009,0.0,0.0,0.0,0.0009,0.0,0.0,0.0,0.004761,2
1672947012221297419,257635,1672947012224635346,gps,2,1,42.3009731357,-83.6978718454,272.595855713,0.0009,0.0,0.0,0.0,0.0009,0.0,0.0,0.0,0.004761,2
1672947012240906069,257636,1672947012244496458,gps,2,1,42.3009731354,-83.6978718458,272.59588623,0.0009,0.0,0.0,0.0,0.0009,0.0,0.0,0.0,0.004761,2
1672947012260822504,257637,1672947012264560089,gps,2,1,42.3009731353,-83.6978718443,272.595916748,0.0009,0.0,0.0,0.0,0.0009,0.0,0.0,0.0,0.004761,2
1672947012281188004,257638,1672947012284551535,gps,2,1,42.3009731348,-83.6978718449,272.595947266,0.0009,0.0,0.0,0.0,0.0009,0.0,0.0,0.0,0.004761,2
1672947012301050673,257639,1672947012304506182,gps,2,1,42.3009731342,-83.6978718454,272.595916748,0.0009,0.0,0.0,0.0,0.0009,0.0,0.0,0.0,0.004761,2
1672947012321245519,257640,1672947012324587509,gps,2,1,42.3009731338,-83.6978718442,272.595916748,0.0009,0.0,0.0,0.0,0.0009,0.0,0.0,0.0,0.004761,2
1672947012341096931,257641,1672947012344503717,gps,2,1,42.300973133,-83.6978718449,272.59588623,0.0009,0.0,0.0,0.0,0.0009,0.0,0.0,0.0,0.004761,2
1672947012361046344,257642,1672947012364548007,gps,2,1,42.3009731323,-83.6978718455,272.59588623,0.0009,0.0,0.0,0.0,0.0009,0.0,0.0,0.0,0.004761,2
1672947012381606844,257643,1672947012384630357,gps,2,1,42.3009731319,-83.6978718444,272.595855713,0.0009,0.0,0.0,0.0,0.0009,0.0,0.0,0.0,0.004761,2
1672947012400924593,257644,1672947012404564569,gps,2,1,42.3009731308,-83.6978718453,272.595916748,0.0009,0.0,0.0,0.0,0.0009,0.0,0.0,0.0,0.004761,2
1672947012421222663,257645,1672947012424510842,gps,2,1,42.3009731298,-83.6978718463,272.595977783,0.0009,0.0,0.0,0.0,0.0009,0.0,0.0,0.0,0.004761,2
1672947012441342724,257646,1672947012444621783,gps,2,1,42.3009731295,-83.697871845,272.595977783,0.0009,0.0,0.0,0.0,0.0009,0.0,0.0,0.0,0.004761,2
1672947012461154345,257647,1672947012464486008,gps,2,1,42.3009731287,-83.6978718456,272.596008301,0.0009,0.0,0.0,0.0,0.0009,0.0,0.0,0.0,0.004761,2
1672947012481047985,257648,1672947012484539442,gps,2,1,42.3009731279,-83.697871846,272.596069336,0.0009,0.0,0.0,0.0,0.0009,0.0,0.0,0.0,0.004761,2
1672947012501207777,257649,1672947012504540765,gps,2,1,42.3009731278,-83.6978718446,272.596069336,0.0009,0.0,0.0,0.0,0.0009,0.0,0.0,0.0,0.004761,2
1672947012521342535,257650,1672947012524607331,gps,2,1,42.3009731273,-83.6978718449,272.596008301,0.0009,0.0,0.0,0.0,0.0009,0.0,0.0,0.0,0.004761,2
1672947012541223918,257651,1672947012544539108,gps,2,1,42.3009731262,-83.6978718453,272.595977783,0.0009,0.0,0.0,0.0,0.0009,0.0,0.0,0.0,0.004761,2
1672947012561295278,257652,1672947012564596534,gps,2,1,42.3009731261,-83.6978718438,272.595977783,0.0009,0.0,0.0,0.0,0.0009,0.0,0.0,0.0,0.004761,2
1672947012581126443,257653,1672947012584497432,gps,2,1,42.3009731251,-83.6978718442,272.595916748,0.0009,0.0,0.0,0.0,0.0009,0.0,0.0,0.0,0.004761,2
1672947012601100681,257654,1672947012604469640,gps,2,1,42.3009731247,-83.6978718461,272.595916748,0.0009,0.0,0.0,0.0,0.0009,0.0,0.0,0.0,0.004761,2
1672947012621103496,257655,1672947012624634521,gps,2,1,42.3009731246,-83.6978718448,272.595916748,0.0009,0.0,0.0,0.0,0.0009,0.0,0.0,0.0,0.004761,2
1672947012640979482,257656,1672947012644514965,gps,2,1,42.300973124,-83.6978718468,272.595916748,0.0009,0.0,0.0,0.0,0.0009,0.0,0.0,0.0,0.004761,2
1672947012661356857,257657,1672947012664553768,gps,2,1,42.3009731235,-83.6978718487,272.59588623,0.0009,0.0,0.0,0.0,0.0009,0.0,0.0,0.0,0.004761,2
1672947012681188512,257658,1672947012684512909,gps,2,1,42.3009731232,-83.6978718478,272.59588623,0.0009,0.0,0.0,0.0,0.0009,0.0,0.0,0.0,0.004761,2
1672947012701080896,257659,1672947012704503941,gps,2,1,42.3009731212,-83.6978718497,272.59588623,0.0009,0.0,0.0,0.0,0.0009,0.0,0.0,0.0,0.004761,2
1672947012721355054,257660,1672947012724573747,gps,2,1,42.3009731193,-83.6978718515,272.59588623,0.0009,0.0,0.0,0.0,0.0009,0.0,0.0,0.0,0.004761,2
1672947012741186177,257661,1672947012744575858,gps,2,1,42.3009731187,-83.6978718505,272.59588623,0.0009,0.0,0.0,0.0,0.0009,0.0,0.0,0.0,0.004761,2
1672947012761145675,257662,1672947012764566899,gps,2,1,42.3009731167,-83.697871852,272.59588623,0.0009,0.0,0.0,0.0,0.0009,0.0,0.0,0.0,0.004761,2
1672947012780983144,257663,1672947012784503211,gps,2,1,42.3009731155,-83.6978718519,272.59588623,0.0009,0.0,0.0,0.0,0.0009,0.0,0.0,0.0,0.004761,2
1672947012801317600,257664,1672947012804608225,gps,2,1,42.3009731149,-83.6978718506,272.59588623,0.0009,0.0,0.0,0.0,0.0009,0.0,0.0,0.0,0.004761,2
1672947012821089697,257665,1672947012824543919,gps,2,1,42.3009731139,-83.6978718502,272.595916748,0.0009,0.0,0.0,0.0,0.0009,0.0,0.0,0.0,0.004761,2
1672947012841183118,257666,1672947012844551099,gps,2,1,42.300973113,-83.6978718498,272.595916748,0.0009,0.0,0.0,0.0,0.0009,0.0,0.0,0.0,0.004761,2
1672947012861226784,257667,1672947012864548595,gps,2,1,42.3009731126,-83.6978718483,272.595916748,0.0009,0.0,0.0,0.0,0.0009,0.0,0.0,0.0,0.004761,2
1672947012881316186,257668,1672947012884551722,gps,2,1,42.3009731118,-83.6978718478,272.595916748,0.0009,0.0,0.0,0.0,0.0009,0.0,0.0,0.0,0.004761,2
1672947012901143299,257669,1672947012904644949,gps,2,1,42.3009731111,-83.6978718484,272.595947266,0.0009,0.0,0.0,0.0,0.0009,0.0,0.0,0.0,0.004761,2
1672947012921175838,257670,1672947012924608677,gps,2,1,42.3009731109,-83.6978718471,272.595947266,0.0009,0.0,0.0,0.0,0.0009,0.0,0.0,0.0,0.004761,2
1672947012941402858,257671,1672947012944544953,gps,2,1,42.3009731103,-83.6978718477,272.595977783,0.0009,0.0,0.0,0.0,0.0009,0.0,0.0,0.0,0.004761,2
1672947012961275899,257672,1672947012964573596,gps,2,1,42.3009731098,-83.6978718483,272.596008301,0.0009,0.0,0.0,0.0,0.0009,0.0,0.0,0.0,0.004761,2
1672947012981057035,257673,1672947012984595431,gps,2,1,42.3009731096,-83.6978718476,272.596008301,0.0009,0.0,0.0,0.0,0.0009,0.0,0.0,0.0,0.004761,2
1672947013001220585,257674,1672947013004516751,gps,2,1,42.3009731094,-83.6978718502,272.595947266,0.0009,0.0,0.0,0.0,0.0009,0.0,0.0,0.0,0.004761,2
1672947013021265031,257675,1672947013024667286,gps,2,1,42.3009731091,-83.6978718509,272.595947266,0.0009,0.0,0.0,0.0,0.0009,0.0,0.0,0.0,0.004761,2
1672947013041168176,257676,1672947013044658099,gps,2,1,42.3009731086,-83.6978718538,272.59588623,0.0009,0.0,0.0,0.0,0.0009,0.0,0.0,0.0,0.004761,2
1672947013061427583,257677,1672947013064660632,gps,2,1,42.3009731076,-83.6978718594,272.59588623,0.0009,0.0,0.0,0.0,0.0009,0.0,0.0,0.0,0.004761,2
1672947013081294258,257678,1672947013084572733,gps,2,1,42.300973107,-83.6978718654,272.595916748,0.0009,0.0,0.0,0.0,0.0009,0.0,0.0,0.0,0.004761,2
1672947013101293396,257679,1672947013104578448,gps,2,1,42.3009731064,-83.6978718724,272.59588623,0.0009,0.0,0.0,0.0,0.0009,0.0,0.0,0.0,0.004761,2
1672947013121372214,257680,1672947013124575022,gps,2,1,42.3009731055,-83.6978718837,272.595947266,0.0009,0.0,0.0,0.0,0.0009,0.0,0.0,0.0,0.004761,2
1672947013141399059,257681,1672947013144558566,gps,2,1,42.3009731048,-83.6978718933,272.596038818,0.0009,0.0,0.0,0.0,0.0009,0.0,0.0,0.0,0.004761,2
1672947013161568928,257682,1672947013164612294,gps,2,1,42.3009731041,-83.6978719038,272.596038818,0.0009,0.0,0.0,0.0,0.0009,0.0,0.0,0.0,0.004761,2
1672947013181180958,257683,1672947013184543593,gps,2,1,42.3009731033,-83.6978719181,272.596069336,0.0009,0.0,0.0,0.0,0.0009,0.0,0.0,0.0,0.004761,2
1672947013201130859,257684,1672947013204543485,gps,2,1,42.3009731028,-83.6978719299,272.596130371,0.0009,0.0,0.0,0.0,0.0009,0.0,0.0,0.0,0.004761,2
1672947013221433700,257685,1672947013224715506,gps,2,1,42.300973102,-83.6978719447,272.596099854,0.0009,0.0,0.0,0.0,0.0009,0.0,0.0,0.0,0.004761,2
1672947013241330263,257686,1672947013244567663,gps,2,1,42.3009731015,-83.697871962,272.596038818,0.0009,0.0,0.0,0.0,0.0009,0.0,0.0,0.0,0.004761,2
1672947013261480241,257687,1672947013264579034,gps,2,1,42.3009731004,-83.6978719803,272.596038818,0.0009,0.0,0.0,0.0,0.0009,0.0,0.0,0.0,0.004761,2
1672947013281394513,257688,1672947013284602989,gps,2,1,42.3009731,-83.6978719983,272.596008301,0.0009,0.0,0.0,0.0,0.0009,0.0,0.0,0.0,0.004761,2
1672947013301211240,257689,1672947013304475734,gps,2,1,42.3009730983,-83.6978720217,272.596038818,0.0009,0.0,0.0,0.0,0.0009,0.0,0.0,0.0,0.004761,2
1672947013321281217,257690,1672947013324530592,gps,2,1,42.3009730981,-83.6978720461,272.595947266,0.0009,0.0,0.0,0.0,0.0009,0.0,0.0,0.0,0.004761,2
1672947013341318996,257691,1672947013344604949,gps,2,1,42.3009730971,-83.6978720692,272.595916748,0.0009,0.0,0.0,0.0,0.0009,0.0,0.0,0.0,0.004761,2
1672947013361091804,257692,1672947013364499072,gps,2,1,42.3009730961,-83.6978720967,272.595947266,0.0009,0.0,0.0,0.0,0.0009,0.0,0.0,0.0,0.004761,2
1672947013381491614,257693,1672947013384586353,gps,2,1,42.3009730942,-83.6978721247,272.595947266,0.0009,0.0,0.0,0.0,0.0009,0.0,0.0,0.0,0.004761,2
1672947013401571122,257694,1672947013404655396,gps,2,1,42.3009730939,-83.6978721518,272.595947266,0.0009,0.0,0.0,0.0,0.0009,0.0,0.0,0.0,0.004761,2
1672947013421247996,257695,1672947013424568348,gps,2,1,42.3009730936,-83.6978721851,272.596008301,0.0009,0.0,0.0,0.0,0.0009,0.0,0.0,0.0,0.004761,2
1672947013441378617,257696,1672947013444516529,gps,2,1,42.3009730948,-83.6978722159,272.596038818,0.0009,0.0,0.0,0.0,0.0009,0.0,0.0,0.0,0.004761,2
1672947013461260803,257697,1672947013464613141,gps,2,1,42.3009730944,-83.6978722492,272.596008301,0.0009,0.0,0.0,0.0,0.0009,0.0,0.0,0.0,0.004761,2
1672947013481100300,257698,1672947013484558568,gps,2,1,42.3009730945,-83.6978722871,272.596069336,0.0009,0.0,0.0,0.0,0.0009,0.0,0.0,0.0,0.004761,2
1672947013501087487,257699,1672947013504546203,gps,2,1,42.3009730936,-83.697872325,272.596038818,0.0009,0.0,0.0,0.0,0.0009,0.0,0.0,0.0,0.004761,2
1672947013521565138,257700,1672947013524686573,gps,2,1,42.3009730932,-83.6978723639,272.595947266,0.0009,0.0,0.0,0.0,0.0009,0.0,0.0,0.0,0.004761,2
1672947013541290193,257701,1672947013544595492,gps,2,1,42.3009730927,-83.6978724064,272.595977783,0.0009,0.0,0.0,0.0,0.0009,0.0,0.0,0.0,0.004761,2
1672947013561386805,257702,1672947013564579798,gps,2,1,42.3009730912,-83.6978724503,272.596008301,0.0009,0.0,0.0,0.0,0.0009,0.0,0.0,0.0,0.004761,2
1672947013581272158,257703,1672947013584626691,gps,2,1,42.3009730903,-83.6978724937,272.596008301,0.0009,0.0,0.0,0.0,0.0009,0.0,0.0,0.0,0.004761,2
1672947013601158367,257704,1672947013604558251,gps,2,1,42.3009730884,-83.6978725416,272.595947266,0.0009,0.0,0.0,0.0,0.0009,0.0,0.0,0.0,0.004761,2
1672947013621079371,257705,1672947013624599318,gps,2,1,42.3009730867,-83.6978725894,272.595977783,0.0009,0.0,0.0,0.0,0.0009,0.0,0.0,0.0,0.004761,2
1672947013641101615,257706,1672947013644546379,gps,2,1,42.3009730856,-83.6978726385,272.596008301,0.0009,0.0,0.0,0.0,0.0009,0.0,0.0,0.0,0.004761,2
1672947013661374141,257707,1672947013664527468,gps,2,1,42.3009730837,-83.6978726918,272.596008301,0.0009,0.0,0.0,0.0,0.0009,0.0,0.0,0.0,0.004761,2
1672947013681479580,257708,1672947013684598225,gps,2,1,42.3009730823,-83.6978727454,272.595977783,0.0009,0.0,0.0,0.0,0.0009,0.0,0.0,0.0,0.004761,2
1672947013701526301,257709,1672947013704500288,gps,2,1,42.3009730816,-83.6978727999,272.595977783,0.0009,0.0,0.0,0.0,0.0009,0.0,0.0,0.0,0.004761,2
1672947013721402731,257710,1672947013724711964,gps,2,1,42.3009730816,-83.6978728605,272.596008301,0.0009,0.0,0.0,0.0,0.0009,0.0,0.0,0.0,0.004761,2
1672947013741311609,257711,1672947013744565739,gps,2,1,42.3009730816,-83.6978729213,272.596099854,0.0009,0.0,0.0,0.0,0.0009,0.0,0.0,0.0,0.004761,2
1672947013761199987,257712,1672947013764609002,gps,2,1,42.300973081,-83.6978729813,272.596099854,0.001089,0.0,0.0,0.0,0.001089,0.0,0.0,0.0,0.005041,2
1672947013781002587,257713,1672947013784516388,gps,2,1,42.300973081,-83.6978730477,272.596130371,0.001089,0.0,0.0,0.0,0.001089,0.0,0.0,0.0,0.005041,2
1672947013801395164,257714,1672947013804588907,gps,2,1,42.3009730804,-83.6978731123,272.596130371,0.001089,0.0,0.0,0.0,0.001089,0.0,0.0,0.0,0.005041,2
1672947013821270658,257715,1672947013824611656,gps,2,1,42.3009730797,-83.6978731785,272.596099854,0.001089,0.0,0.0,0.0,0.001089,0.0,0.0,0.0,0.005041,2
1672947013841235353,257716,1672947013844546959,gps,2,1,42.3009730789,-83.6978732489,272.596099854,0.001089,0.0,0.0,0.0,0.001089,0.0,0.0,0.0,0.005041,2
1672947013861281796,257717,1672947013864579451,gps,2,1,42.300973078,-83.6978733195,272.596099854,0.001089,0.0,0.0,0.0,0.001089,0.0,0.0,0.0,0.005041,2
1672947013881159927,257718,1672947013884564091,gps,2,1,42.3009730771,-83.6978733915,272.596099854,0.001089,0.0,0.0,0.0,0.001089,0.0,0.0,0.0,0.005041,2
1672947013901130778,257719,1672947013904630203,gps,2,1,42.3009730761,-83.6978734688,272.596069336,0.001089,0.0,0.0,0.0,0.001089,0.0,0.0,0.0,0.005041,2
1672947013921005683,257720,1672947013924519849,gps,2,1,42.3009730752,-83.6978735463,272.596069336,0.001089,0.0,0.0,0.0,0.001089,0.0,0.0,0.0,0.005041,2
1672947013940928008,257721,1672947013944568818,gps,2,1,42.3009730742,-83.6978736246,272.596069336,0.001089,0.0,0.0,0.0,0.001089,0.0,0.0,0.0,0.005041,2
1672947013961488763,257722,1672947013964544517,gps,2,1,42.3009730731,-83.6978737079,272.596038818,0.001089,0.0,0.0,0.0,0.001089,0.0,0.0,0.0,0.005041,2
1672947013981506259,257723,1672947013984574320,gps,2,1,42.3009730721,-83.6978737914,272.596038818,0.001089,0.0,0.0,0.0,0.001089,0.0,0.0,0.0,0.005041,2
1672947014001112665,257724,1672947014004633084,gps,2,1,42.3009730712,-83.6978738758,272.596008301,0.001089,0.0,0.0,0.0,0.001089,0.0,0.0,0.0,0.005041,2
1672947014021303351,257725,1672947014024681795,gps,2,1,42.3009730703,-83.6978739662,272.596038818,0.001089,0.0,0.0,0.0,0.001089,0.0,0.0,0.0,0.005041,2
1672947014041312245,257726,1672947014044625266,gps,2,1,42.3009730693,-83.6978740569,272.596038818,0.001089,0.0,0.0,0.0,0.001089,0.0,0.0,0.0,0.005041,2
1672947014061323796,257727,1672947014064663732,gps,2,1,42.3009730684,-83.6978741476,272.596038818,0.001089,0.0,0.0,0.0,0.001089,0.0,0.0,0.0,0.005041,2
1672947014081346338,257728,1672947014084612338,gps,2,1,42.3009730675,-83.6978742439,272.596038818,0.001089,0.0,0.0,0.0,0.001089,0.0,0.0,0.0,0.005041,2
1672947014101037289,257729,1672947014104560769,gps,2,1,42.3009730662,-83.6978743402,272.595977783,0.001089,0.0,0.0,0.0,0.001089,0.0,0.0,0.0,0.005041,2
1672947014121211731,257730,1672947014124599375,gps,2,1,42.3009730654,-83.6978744369,272.595977783,0.001089,0.0,0.0,0.0,0.001089,0.0,0.0,0.0,0.005041,2
1672947014141185564,257731,1672947014144519584,gps,2,1,42.3009730642,-83.6978745391,272.595916748,0.001089,0.0,0.0,0.0,0.001089,0.0,0.0,0.0,0.005041,2
1672947014161442765,257732,1672947014164602457,gps,2,1,42.3009730632,-83.6978746416,272.59588623,0.001089,0.0,0.0,0.0,0.001089,0.0,0.0,0.0,0.005041,2
1672947014181133260,257733,1672947014184568668,gps,2,1,42.3009730624,-83.6978747447,272.595825195,0.001089,0.0,0.0,0.0,0.001089,0.0,0.0,0.0,0.005041,2
1672947014201311083,257734,1672947014204605483,gps,2,1,42.3009730619,-83.6978748534,272.595825195,0.001089,0.0,0.0,0.0,0.001089,0.0,0.0,0.0,0.005041,2
1672947014221402495,257735,1672947014224621237,gps,2,1,42.3009730614,-83.6978749623,272.595794678,0.001089,0.0,0.0,0.0,0.001089,0.0,0.0,0.0,0.005041,2
1672947014241196642,257736,1672947014244534360,gps,2,1,42.3009730603,-83.6978750718,272.59576416,0.001089,0.0,0.0,0.0,0.001089,0.0,0.0,0.0,0.005041,2
1672947014261237512,257737,1672947014264599647,gps,2,1,42.3009730596,-83.6978751868,272.595733643,0.001089,0.0,0.0,0.0,0.001089,0.0,0.0,0.0,0.005041,2
1672947014281176620,257738,1672947014284506067,gps,2,1,42.3009730596,-83.6978753018,272.595733643,0.001089,0.0,0.0,0.0,0.001089,0.0,0.0,0.0,0.005041,2
1672947014301170884,257739,1672947014304563247,gps,2,1,42.3009730584,-83.6978754177,272.595703125,0.001089,0.0,0.0,0.0,0.001089,0.0,0.0,0.0,0.005041,2
1672947014321149425,257740,1672947014324618946,gps,2,1,42.3009730582,-83.697875539,272.595703125,0.001089,0.0,0.0,0.0,0.001089,0.0,0.0,0.0,0.005041,2
1672947014341006842,257741,1672947014344536361,gps,2,1,42.300973058,-83.6978756606,272.595703125,0.001089,0.0,0.0,0.0,0.001089,0.0,0.0,0.0,0.005041,2
1672947014361234675,257742,1672947014364530396,gps,2,1,42.3009730569,-83.6978757831,272.59564209,0.001089,0.0,0.0,0.0,0.001089,0.0,0.0,0.0,0.005041,2
1672947014381303431,257743,1672947014384606319,gps,2,1,42.3009730567,-83.6978759118,272.59564209,0.001089,0.0,0.0,0.0,0.001089,0.0,0.0,0.0,0.005041,2
1672947014401243251,257744,1672947014404587752,gps,2,1,42.3009730561,-83.6978760407,272.595611572,0.001089,0.0,0.0,0.0,0.001089,0.0,0.0,0.0,0.005041,2
1672947014421529850,257745,1672947014424711448,gps,2,1,42.3009730547,-83.6978761697,272.595550537,0.001089,0.0,0.0,0.0,0.001089,0.0,0.0,0.0,0.005041,2
1672947014441300112,257746,1672947014444606999,gps,2,1,42.3009730541,-83.6978763047,272.595489502,0.001089,0.0,0.0,0.0,0.001089,0.0,0.0,0.0,0.005041,2
1672947014461111981,257747,1672947014464545751,gps,2,1,42.3009730532,-83.6978764415,272.595458984,0.001089,0.0,0.0,0.0,0.001089,0.0,0.0,0.0,0.005041,2
1672947014481086837,257748,1672947014484597967,gps,2,1,42.3009730518,-83.6978765774,272.595428467,0.001089,0.0,0.0,0.0,0.001089,0.0,0.0,0.0,0.005041,2
1672947014501335234,257749,1672947014504675991,gps,2,1,42.3009730508,-83.697876721,272.595367432,0.001089,0.0,0.0,0.0,0.001089,0.0,0.0,0.0,0.005041,2
1672947014521291526,257750,1672947014524617204,gps,2,1,42.3009730499,-83.697876865,272.595306396,0.001089,0.0,0.0,0.0,0.001089,0.0,0.0,0.0,0.005041,2
1672947014541420718,257751,1672947014544602150,gps,2,1,42.3009730487,-83.6978770087,272.595184326,0.001089,0.0,0.0,0.0,0.001089,0.0,0.0,0.0,0.005041,2
1672947014561318715,257752,1672947014564606777,gps,2,1,42.3009730476,-83.6978771604,272.595123291,0.001089,0.0,0.0,0.0,0.001089,0.0,0.0,0.0,0.005041,2
1672947014581129048,257753,1672947014584538342,gps,2,1,42.3009730469,-83.6978773126,272.595001221,0.001089,0.0,0.0,0.0,0.001089,0.0,0.0,0.0,0.005041,2
1672947014601216742,257754,1672947014604670483,gps,2,1,42.3009730456,-83.6978774654,272.594848633,0.001089,0.0,0.0,0.0,0.001089,0.0,0.0,0.0,0.005041,2
1672947014621107038,257755,1672947014624612733,gps,2,1,42.3009730451,-83.6978776274,272.594696045,0.001089,0.0,0.0,0.0,0.001089,0.0,0.0,0.0,0.005041,2
1672947014640952598,257756,1672947014644525280,gps,2,1,42.3009730444,-83.6978777898,272.594604492,0.001089,0.0,0.0,0.0,0.001089,0.0,0.0,0.0,0.005041,2
1672947014661298251,257757,1672947014664540086,gps,2,1,42.3009730431,-83.6978779537,272.594451904,0.001089,0.0,0.0,0.0,0.001089,0.0,0.0,0.0,0.005041,2
1672947014681015190,257758,1672947014684590521,gps,2,1,42.3009730427,-83.6978781273,272.594268799,0.001089,0.0,0.0,0.0,0.001089,0.0,0.0,0.0,0.005041,2
1672947014701106742,257759,1672947014704585221,gps,2,1,42.3009730423,-83.6978783017,272.594085693,0.001089,0.0,0.0,0.0,0.001089,0.0,0.0,0.0,0.005041,2
1672947014721311724,257760,1672947014724718504,gps,2,1,42.3009730411,-83.697878479,272.59387207,0.001089,0.0,0.0,0.0,0.001089,0.0,0.0,0.0,0.005041,2
1672947014741284599,257761,1672947014744612618,gps,2,1,42.3009730404,-83.6978786673,272.59362793,0.001089,0.0,0.0,0.0,0.001089,0.0,0.0,0.0,0.005041,2
1672947014760985859,257762,1672947014764523739,gps,2,1,42.3009730392,-83.6978788561,272.593383789,0.001089,0.0,0.0,0.0,0.001089,0.0,0.0,0.0,0.005041,2
1672947014781226416,257763,1672947014784560030,gps,2,1,42.3009730378,-83.6978790491,272.593109131,0.001089,0.0,0.0,0.0,0.001089,0.0,0.0,0.0,0.005041,2
1672947014801373700,257764,1672947014804664328,gps,2,1,42.3009730366,-83.697879254,272.592773438,0.001089,0.0,0.0,0.0,0.001089,0.0,0.0,0.0,0.005041,2
1672947014820847622,257765,1672947014824536390,gps,2,1,42.3009730353,-83.6978794594,272.592498779,0.001089,0.0,0.0,0.0,0.001089,0.0,0.0,0.0,0.005041,2
1672947014841286004,257766,1672947014844551940,gps,2,1,42.3009730334,-83.697879671,272.592193604,0.001089,0.0,0.0,0.0,0.001089,0.0,0.0,0.0,0.005041,2
1672947014861202493,257767,1672947014864443724,gps,2,1,42.3009730315,-83.6978798953,272.591918945,0.001089,0.0,0.0,0.0,0.001089,0.0,0.0,0.0,0.005041,2
1672947014881137862,257768,1672947014884547877,gps,2,1,42.3009730298,-83.6978801211,272.591552734,0.001089,0.0,0.0,0.0,0.001089,0.0,0.0,0.0,0.005041,2
1672947014901445013,257769,1672947014904678348,gps,2,1,42.3009730276,-83.6978803529,272.591247559,0.001089,0.0,0.0,0.0,0.001089,0.0,0.0,0.0,0.005041,2
1672947014921362504,257770,1672947014924524481,gps,2,1,42.3009730235,-83.697880599,272.59085083,0.001089,0.0,0.0,0.0,0.001089,0.0,0.0,0.0,0.005041,2
1672947014941273979,257771,1672947014944523904,gps,2,1,42.3009730196,-83.6978808456,272.590484619,0.001089,0.0,0.0,0.0,0.001089,0.0,0.0,0.0,0.005041,2
1672947014960909418,257772,1672947014964537148,gps,2,1,42.3009730172,-83.6978811002,272.590148926,0.001089,0.0,0.0,0.0,0.001089,0.0,0.0,0.0,0.005041,2
1672947014981268988,257773,1672947014984567240,gps,2,1,42.3009730131,-83.6978813684,272.589752197,0.001089,0.0,0.0,0.0,0.001089,0.0,0.0,0.0,0.005041,2
1672947015001371951,257774,1672947015004626644,gps,2,1,42.300973009,-83.6978816393,272.589385986,0.001089,0.0,0.0,0.0,0.001089,0.0,0.0,0.0,0.005041,2
1672947015021242303,257775,1672947015024617344,gps,2,1,42.3009730067,-83.6978819162,272.589080811,0.001089,0.0,0.0,0.0,0.001089,0.0,0.0,0.0,0.005041,2
1672947015041058806,257776,1672947015044626402,gps,2,1,42.3009730023,-83.6978822079,272.588653564,0.001089,0.0,0.0,0.0,0.001089,0.0,0.0,0.0,0.005041,2
1672947015061364335,257777,1672947015064611459,gps,2,1,42.3009729979,-83.6978825003,272.588256836,0.001089,0.0,0.0,0.0,0.001089,0.0,0.0,0.0,0.005041,2
1672947015081326894,257778,1672947015084649254,gps,2,1,42.3009729956,-83.6978827962,272.587982178,0.001089,0.0,0.0,0.0,0.001089,0.0,0.0,0.0,0.005041,2
1672947015101313367,257779,1672947015104598416,gps,2,1,42.3009729915,-83.697883105,272.587646484,0.001089,0.0,0.0,0.0,0.001089,0.0,0.0,0.0,0.005041,2
1672947015121312967,257780,1672947015124560749,gps,2,1,42.3009729876,-83.6978834145,272.587280273,0.001089,0.0,0.0,0.0,0.001089,0.0,0.0,0.0,0.005041,2
1672947015141319947,257781,1672947015144524670,gps,2,1,42.3009729855,-83.6978837269,272.587005615,0.001089,0.0,0.0,0.0,0.001089,0.0,0.0,0.0,0.005041,2
1672947015161117828,257782,1672947015164524415,gps,2,1,42.3009729819,-83.69788405,272.586578369,0.001089,0.0,0.0,0.0,0.001089,0.0,0.0,0.0,0.005041,2
1672947015181114159,257783,1672947015184523502,gps,2,1,42.3009729782,-83.6978843745,272.586181641,0.001089,0.0,0.0,0.0,0.001089,0.0,0.0,0.0,0.005041,2
1672947015201029902,257784,1672947015204560209,gps,2,1,42.3009729763,-83.6978847008,272.58581543,0.001089,0.0,0.0,0.0,0.001089,0.0,0.0,0.0,0.005041,2
1672947015221256642,257785,1672947015224540420,gps,2,1,42.3009729731,-83.6978850374,272.585327148,0.001089,0.0,0.0,0.0,0.001089,0.0,0.0,0.0,0.005041,2
1672947015241187664,257786,1672947015244535529,gps,2,1,42.30097297,-83.6978853742,272.584838867,0.001089,0.0,0.0,0.0,0.001089,0.0,0.0,0.0,0.005041,2
1672947015261299234,257787,1672947015264585666,gps,2,1,42.3009729681,-83.697885714,272.584381104,0.001089,0.0,0.0,0.0,0.001089,0.0,0.0,0.0,0.005041,2
1672947015281231356,257788,1672947015284532980,gps,2,1,42.3009729656,-83.6978860624,272.58380127,0.001089,0.0,0.0,0.0,0.001089,0.0,0.0,0.0,0.005041,2
1672947015301258109,257789,1672947015304527923,gps,2,1,42.300972963,-83.6978864111,272.583190918,0.001089,0.0,0.0,0.0,0.001089,0.0,0.0,0.0,0.005041,2
1672947015321045003,257790,1672947015324536915,gps,2,1,42.3009729609,-83.6978867625,272.582641602,0.001089,0.0,0.0,0.0,0.001089,0.0,0.0,0.0,0.005041,2
1672947015341187355,257791,1672947015344521102,gps,2,1,42.3009729581,-83.6978871219,272.582000732,0.001089,0.0,0.0,0.0,0.001089,0.0,0.0,0.0,0.005041,2
1672947015360943614,257792,1672947015364570265,gps,2,1,42.3009729554,-83.6978874818,272.581359863,0.001089,0.0,0.0,0.0,0.001089,0.0,0.0,0.0,0.005041,2
1672947015381038452,257793,1672947015384584232,gps,2,1,42.3009729528,-83.697887844,272.580780029,0.001089,0.0,0.0,0.0,0.001089,0.0,0.0,0.0,0.005041,2
1672947015401389136,257794,1672947015404676205,gps,2,1,42.3009729479,-83.6978882127,272.580169678,0.001089,0.0,0.0,0.0,0.001089,0.0,0.0,0.0,0.005041,2
1672947015421391439,257795,1672947015424500611,gps,2,1,42.3009729429,-83.6978885818,272.579589844,0.001089,0.0,0.0,0.0,0.001089,0.0,0.0,0.0,0.005041,2
1672947015441421562,257796,1672947015444613677,gps,2,1,42.3009729396,-83.6978889539,272.57901001,0.001089,0.0,0.0,0.0,0.001089,0.0,0.0,0.0,0.005041,2
1672947015461131816,257797,1672947015464548297,gps,2,1,42.3009729341,-83.6978893317,272.578460693,0.001089,0.0,0.0,0.0,0.001089,0.0,0.0,0.0,0.005041,2
1672947015481057268,257798,1672947015484527176,gps,2,1,42.3009729288,-83.6978897099,272.577941895,0.001089,0.0,0.0,0.0,0.001089,0.0,0.0,0.0,0.005041,2
1672947015501341803,257799,1672947015504618425,gps,2,1,42.3009729249,-83.6978900904,272.577453613,0.001089,0.0,0.0,0.0,0.001089,0.0,0.0,0.0,0.005041,2
1672947015521287421,257800,1672947015524617572,gps,2,1,42.3009729188,-83.697890477,272.577087402,0.001089,0.0,0.0,0.0,0.001089,0.0,0.0,0.0,0.005041,2
1672947015541331520,257801,1672947015544593568,gps,2,1,42.3009729122,-83.697890864,272.576721191,0.001089,0.0,0.0,0.0,0.001089,0.0,0.0,0.0,0.005041,2
1672947015561405687,257802,1672947015564723506,gps,2,1,42.3009729084,-83.6978912523,272.576416016,0.001089,0.0,0.0,0.0,0.001089,0.0,0.0,0.0,0.005041,2
1672947015581250013,257803,1672947015584600737,gps,2,1,42.300972902,-83.6978916467,272.576171875,0.001089,0.0,0.0,0.0,0.001089,0.0,0.0,0.0,0.005041,2
1672947015601024479,257804,1672947015604592654,gps,2,1,42.3009728965,-83.697892041,272.575775146,0.001089,0.0,0.0,0.0,0.001089,0.0,0.0,0.0,0.005041,2
1672947015621072120,257805,1672947015624620019,gps,2,1,42.300972893,-83.697892437,272.575500488,0.001089,0.0,0.0,0.0,0.001089,0.0,0.0,0.0,0.005041,2
1672947015641289775,257806,1672947015644537217,gps,2,1,42.3009728879,-83.6978928386,272.575073242,0.001089,0.0,0.0,0.0,0.001089,0.0,0.0,0.0,0.005041,2
1672947015661217284,257807,1672947015664545190,gps,2,1,42.3009728828,-83.6978932401,272.574645996,0.001089,0.0,0.0,0.0,0.001089,0.0,0.0,0.0,0.005041,2
1672947015681511514,257808,1672947015684624085,gps,2,1,42.3009728796,-83.6978936432,272.574249268,0.001089,0.0,0.0,0.0,0.001089,0.0,0.0,0.0,0.005041,2
1672947015701233410,257809,1672947015704640114,gps,2,1,42.3009728739,-83.6978940519,272.573852539,0.001089,0.0,0.0,0.0,0.001089,0.0,0.0,0.0,0.005041,2
1672947015721080564,257810,1672947015724496974,gps,2,1,42.3009728681,-83.6978944607,272.573516846,0.001089,0.0,0.0,0.0,0.001089,0.0,0.0,0.0,0.005041,2
1672947015741235483,257811,1672947015744571204,gps,2,1,42.3009728647,-83.69789487,272.573028564,0.001089,0.0,0.0,0.0,0.001089,0.0,0.0,0.0,0.005041,2
1672947015761178839,257812,1672947015764533953,gps,2,1,42.300972859,-83.6978952843,272.572601318,0.001089,0.0,0.0,0.0,0.001089,0.0,0.0,0.0,0.005041,2
1672947015781033699,257813,1672947015784557116,gps,2,1,42.3009728536,-83.697895699,272.572143555,0.001089,0.0,0.0,0.0,0.001089,0.0,0.0,0.0,0.005041,2
1672947015801422336,257814,1672947015804629425,gps,2,1,42.3009728503,-83.6978961143,272.571624756,0.001089,0.0,0.0,0.0,0.001089,0.0,0.0,0.0,0.005041,2
1672947015820953990,257815,1672947015824513878,gps,2,1,42.3009728443,-83.6978965325,272.571075439,0.001089,0.0,0.0,0.0,0.001089,0.0,0.0,0.0,0.005041,2
1672947015841376559,257816,1672947015844522216,gps,2,1,42.3009728385,-83.6978969504,272.570495605,0.001089,0.0,0.0,0.0,0.001089,0.0,0.0,0.0,0.005041,2
1672947015861307467,257817,1672947015864676313,gps,2,1,42.3009728349,-83.6978973714,272.569976807,0.001089,0.0,0.0,0.0,0.001089,0.0,0.0,0.0,0.005041,2
1672947015881096798,257818,1672947015884537423,gps,2,1,42.3009728288,-83.697897795,272.569458008,0.001089,0.0,0.0,0.0,0.001089,0.0,0.0,0.0,0.005041,2
1672947015901393935,257819,1672947015904613345,gps,2,1,42.3009728225,-83.6978982206,272.568908691,0.001089,0.0,0.0,0.0,0.001089,0.0,0.0,0.0,0.005041,2
1672947015921417384,257820,1672947015924606915,gps,2,1,42.3009728181,-83.6978986468,272.568511963,0.001089,0.0,0.0,0.0,0.001089,0.0,0.0,0.0,0.005041,2
1672947015941408028,257821,1672947015944535791,gps,2,1,42.3009728113,-83.6978990778,272.568054199,0.001089,0.0,0.0,0.0,0.001089,0.0,0.0,0.0,0.005041,2
1672947015961304415,257822,1672947015964554969,gps,2,1,42.3009728048,-83.6978995085,272.567596436,0.001089,0.0,0.0,0.0,0.001089,0.0,0.0,0.0,0.005041,2
1672947015981457245,257823,1672947015984603534,gps,2,1,42.3009728,-83.6978999397,272.567199707,0.001089,0.0,0.0,0.0,0.001089,0.0,0.0,0.0,0.005041,2
1672947016001242831,257824,1672947016004483331,gps,2,1,42.3009727932,-83.697900373,272.566741943,0.001089,0.0,0.0,0.0,0.001089,0.0,0.0,0.0,0.005041,2
1672947016021222725,257825,1672947016024697906,gps,2,1,42.3009727864,-83.6979008064,272.566314697,0.001089,0.0,0.0,0.0,0.001089,0.0,0.0,0.0,0.005041,2
1672947016041518654,257826,1672947016044665812,gps,2,1,42.3009727811,-83.697901242,272.565887451,0.001089,0.0,0.0,0.0,0.001089,0.0,0.0,0.0,0.005041,2
1672947016061364609,257827,1672947016064551556,gps,2,1,42.3009727735,-83.6979016797,272.565216064,0.001089,0.0,0.0,0.0,0.001089,0.0,0.0,0.0,0.005041,2
1672947016081432240,257828,1672947016084619423,gps,2,1,42.3009727661,-83.6979021173,272.564575195,0.001089,0.0,0.0,0.0,0.001089,0.0,0.0,0.0,0.005041,2
1672947016101411998,257829,1672947016104653405,gps,2,1,42.3009727609,-83.6979025571,272.564056396,0.001089,0.0,0.0,0.0,0.001089,0.0,0.0,0.0,0.005041,2
1672947016121284285,257830,1672947016124560114,gps,2,1,42.3009727531,-83.6979029983,272.563323975,0.001089,0.0,0.0,0.0,0.001089,0.0,0.0,0.0,0.005041,2
1672947016141161592,257831,1672947016144486672,gps,2,1,42.3009727461,-83.6979034395,272.562683105,0.001089,0.0,0.0,0.0,0.001089,0.0,0.0,0.0,0.005041,2
1672947016161207347,257832,1672947016164576445,gps,2,1,42.3009727402,-83.6979038834,272.562103271,0.001089,0.0,0.0,0.0,0.001089,0.0,0.0,0.0,0.005041,2
1672947016181095154,257833,1672947016184529935,gps,2,1,42.3009727319,-83.6979043277,272.561431885,0.001089,0.0,0.0,0.0,0.001089,0.0,0.0,0.0,0.005041,2
1672947016201273601,257834,1672947016204543524,gps,2,1,42.3009727227,-83.6979047727,272.560668945,0.001089,0.0,0.0,0.0,0.001089,0.0,0.0,0.0,0.005041,2
1672947016221582734,257835,1672947016224738686,gps,2,1,42.3009727158,-83.6979052191,272.560180664,0.001089,0.0,0.0,0.0,0.001089,0.0,0.0,0.0,0.005041,2
1672947016241515180,257836,1672947016244512053,gps,2,1,42.3009727058,-83.6979056659,272.559539795,0.001089,0.0,0.0,0.0,0.001089,0.0,0.0,0.0,0.005041,2
1672947016261364556,257837,1672947016264567759,gps,2,1,42.3009726961,-83.6979061126,272.558929443,0.001089,0.0,0.0,0.0,0.001089,0.0,0.0,0.0,0.005041,2
1672947016281334545,257838,1672947016284622205,gps,2,1,42.3009726886,-83.6979065621,272.55859375,0.001089,0.0,0.0,0.0,0.001089,0.0,0.0,0.0,0.005041,2
1672947016301382289,257839,1672947016304526202,gps,2,1,42.3009726777,-83.6979070146,272.558166504,0.001089,0.0,0.0,0.0,0.001089,0.0,0.0,0.0,0.005041,2
1672947016321192687,257840,1672947016324513679,gps,2,1,42.3009726669,-83.6979074673,272.557769775,0.001089,0.0,0.0,0.0,0.001089,0.0,0.0,0.0,0.005041,2
1672947016341321991,257841,1672947016344571733,gps,2,1,42.3009726591,-83.6979079199,272.5574646,0.001089,0.0,0.0,0.0,0.001089,0.0,0.0,0.0,0.005041,2
1672947016361293653,257842,1672947016364512307,gps,2,1,42.3009726485,-83.6979083763,272.557006836,0.001089,0.0,0.0,0.0,0.001089,0.0,0.0,0.0,0.005041,2
1672947016381187683,257843,1672947016384526781,gps,2,1,42.300972638,-83.697908833,272.556549072,0.001089,0.0,0.0,0.0,0.001089,0.0,0.0,0.0,0.005041,2
1672947016401371682,257844,1672947016404707040,gps,2,1,42.3009726306,-83.69790929,272.556121826,0.001089,0.0,0.0,0.0,0.001089,0.0,0.0,0.0,0.005041,2
1672947016421318949,257845,1672947016424534616,gps,2,1,42.3009726201,-83.6979097495,272.555480957,0.001089,0.0,0.0,0.0,0.001089,0.0,0.0,0.0,0.005041,2
1672947016441043361,257846,1672947016444602536,gps,2,1,42.30097261,-83.6979102089,272.55480957,0.001089,0.0,0.0,0.0,0.001089,0.0,0.0,0.0,0.005041,2
1672947016461107495,257847,1672947016464592579,gps,2,1,42.3009726032,-83.6979106701,272.554107666,0.001089,0.0,0.0,0.0,0.001089,0.0,0.0,0.0,0.005041,2
1672947016481277126,257848,1672947016484491652,gps,2,1,42.3009725931,-83.6979111325,272.553283691,0.001089,0.0,0.0,0.0,0.001089,0.0,0.0,0.0,0.005041,2
1672947016501490550,257849,1672947016504558540,gps,2,1,42.3009725823,-83.6979115973,272.552429199,0.001089,0.0,0.0,0.0,0.001089,0.0,0.0,0.0,0.005041,2
1672947016521090601,257850,1672947016524619159,gps,2,1,42.300972575,-83.6979120611,272.55166626,0.001089,0.0,0.0,0.0,0.001089,0.0,0.0,0.0,0.005041,2
1672947016541246126,257851,1672947016544524248,gps,2,1,42.300972564,-83.6979125286,272.550750732,0.001089,0.0,0.0,0.0,0.001089,0.0,0.0,0.0,0.005041,2
1672947016561356239,257852,1672947016564508395,gps,2,1,42.3009725515,-83.6979129975,272.549835205,0.001089,0.0,0.0,0.0,0.001089,0.0,0.0,0.0,0.005041,2
1672947016581336528,257853,1672947016584584597,gps,2,1,42.3009725442,-83.6979134654,272.549072266,0.001089,0.0,0.0,0.0,0.001089,0.0,0.0,0.0,0.005041,2
1672947016601159441,257854,1672947016604489247,gps,2,1,42.3009725316,-83.6979139376,272.548095703,0.001089,0.0,0.0,0.0,0.001089,0.0,0.0,0.0,0.005041,2
1672947016620971182,257855,1672947016624512500,gps,2,1,42.300972519,-83.6979144101,272.547088623,0.001089,0.0,0.0,0.0,0.001089,0.0,0.0,0.0,0.005041,2
1672947016640849207,257856,1672947016644503518,gps,2,1,42.3009725117,-83.6979148828,272.546295166,0.001089,0.0,0.0,0.0,0.001089,0.0,0.0,0.0,0.005041,2
1672947016661218655,257857,1672947016664475483,gps,2,1,42.3009724993,-83.6979153595,272.545349121,0.001089,0.0,0.0,0.0,0.001089,0.0,0.0,0.0,0.005041,2
1672947016680966611,257858,1672947016684526956,gps,2,1,42.3009724868,-83.6979158362,272.544403076,0.001089,0.0,0.0,0.0,0.001089,0.0,0.0,0.0,0.005041,2
1672947016701391059,257859,1672947016704614379,gps,2,1,42.300972479,-83.6979163135,272.543609619,0.001089,0.0,0.0,0.0,0.001089,0.0,0.0,0.0,0.005041,2
1672947016721087209,257860,1672947016724500289,gps,2,1,42.3009724663,-83.6979167966,272.542663574,0.001089,0.0,0.0,0.0,0.001089,0.0,0.0,0.0,0.005041,2
1672947016741130313,257861,1672947016744509056,gps,2,1,42.300972454,-83.6979172796,272.541748047,0.001089,0.0,0.0,0.0,0.001089,0.0,0.0,0.0,0.005041,2
1672947016761230726,257862,1672947016764535018,gps,2,1,42.3009724455,-83.6979177616,272.540802002,0.001089,0.0,0.0,0.0,0.001089,0.0,0.0,0.0,0.005041,2
1672947016781178780,257863,1672947016784490300,gps,2,1,42.3009724323,-83.6979182484,272.539733887,0.001089,0.0,0.0,0.0,0.001089,0.0,0.0,0.0,0.005041,2
1672947016800863765,257864,1672947016804469122,gps,2,1,42.300972419,-83.6979187369,272.538543701,0.001089,0.0,0.0,0.0,0.001089,0.0,0.0,0.0,0.005041,2
1672947016821318606,257865,1672947016824548678,gps,2,1,42.3009724093,-83.6979192226,272.537506104,0.001089,0.0,0.0,0.0,0.001089,0.0,0.0,0.0,0.005041,2
1672947016841287500,257866,1672947016844559135,gps,2,1,42.3009723953,-83.697919715,272.5362854,0.001089,0.0,0.0,0.0,0.001089,0.0,0.0,0.0,0.005041,2
1672947016861337048,257867,1672947016864503762,gps,2,1,42.3009723813,-83.697920207,272.535095215,0.001089,0.0,0.0,0.0,0.001089,0.0,0.0,0.0,0.005041,2
1672947016881076851,257868,1672947016884489465,gps,2,1,42.3009723705,-83.6979206968,272.534088135,0.001089,0.0,0.0,0.0,0.001089,0.0,0.0,0.0,0.005041,2
1672947016901397703,257869,1672947016904582450,gps,2,1,42.3009723549,-83.6979211913,272.532897949,0.001089,0.0,0.0,0.0,0.001089,0.0,0.0,0.0,0.005041,2
1672947016921321393,257870,1672947016924491958,gps,2,1,42.3009723395,-83.697921686,272.531707764,0.001089,0.0,0.0,0.0,0.001089,0.0,0.0,0.0,0.005041,2
1672947016941198374,257871,1672947016944467652,gps,2,1,42.3009723287,-83.6979221801,272.530761719,0.001089,0.0,0.0,0.0,0.001089,0.0,0.0,0.0,0.005041,2
1672947016961276463,257872,1672947016964477457,gps,2,1,42.3009723146,-83.6979226791,272.529693604,0.001089,0.0,0.0,0.0,0.001089,0.0,0.0,0.0,0.005041,2
1672947016981311060,257873,1672947016984499925,gps,2,1,42.3009723005,-83.6979231778,272.528594971,0.001089,0.0,0.0,0.0,0.001089,0.0,0.0,0.0,0.005041,2
1672947017001214498,257874,1672947017004605418,gps,2,1,42.3009722893,-83.697923676,272.527770996,0.001089,0.0,0.0,0.0,0.001089,0.0,0.0,0.0,0.005041,2
1672947017021264034,257875,1672947017024550831,gps,2,1,42.30097227,-83.6979241813,272.526977539,0.001089,0.0,0.0,0.0,0.001089,0.0,0.0,0.0,0.005041,2
1672947017041219955,257876,1672947017044562344,gps,2,1,42.3009722509,-83.6979246866,272.526184082,0.001089,0.0,0.0,0.0,0.001089,0.0,0.0,0.0,0.005041,2
1672947017061359554,257877,1672947017064638601,gps,2,1,42.3009722395,-83.6979251888,272.525543213,0.001089,0.0,0.0,0.0,0.001089,0.0,0.0,0.0,0.005041,2
1672947017081395485,257878,1672947017084572574,gps,2,1,42.3009722211,-83.6979256978,272.524841309,0.001089,0.0,0.0,0.0,0.001089,0.0,0.0,0.0,0.005041,2
1672947017101416348,257879,1672947017104553879,gps,2,1,42.3009722038,-83.6979262067,272.524139404,0.001089,0.0,0.0,0.0,0.001089,0.0,0.0,0.0,0.005041,2
1672947017121408294,257880,1672947017124679297,gps,2,1,42.3009721929,-83.6979267128,272.523529053,0.001089,0.0,0.0,0.0,0.001089,0.0,0.0,0.0,0.005041,2
1672947017141191391,257881,1672947017144606682,gps,2,1,42.300972176,-83.6979272249,272.522705078,0.001089,0.0,0.0,0.0,0.001089,0.0,0.0,0.0,0.005041,2
1672947017161207917,257882,1672947017164550077,gps,2,1,42.3009721598,-83.6979277368,272.521881104,0.001089,0.0,0.0,0.0,0.001089,0.0,0.0,0.0,0.005041,2
1672947017181392595,257883,1672947017184639611,gps,2,1,42.3009721494,-83.6979282466,272.521057129,0.001089,0.0,0.0,0.0,0.001089,0.0,0.0,0.0,0.005041,2
1672947017200890644,257884,1672947017204488125,gps,2,1,42.3009721321,-83.6979287616,272.520050049,0.001089,0.0,0.0,0.0,0.001089,0.0,0.0,0.0,0.005041,2
1672947017221368254,257885,1672947017224495531,gps,2,1,42.3009721149,-83.6979292766,272.518981934,0.001089,0.0,0.0,0.0,0.001089,0.0,0.0,0.0,0.005041,2
1672947017241430428,257886,1672947017244573527,gps,2,1,42.3009721035,-83.6979297899,272.518157959,0.001089,0.0,0.0,0.0,0.001089,0.0,0.0,0.0,0.005041,2
1672947017261282584,257887,1672947017264522372,gps,2,1,42.3009720855,-83.6979303083,272.517150879,0.001089,0.0,0.0,0.0,0.001089,0.0,0.0,0.0,0.005041,2
1672947017281428865,257888,1672947017284542654,gps,2,1,42.3009720674,-83.6979308269,272.516204834,0.001089,0.0,0.0,0.0,0.001089,0.0,0.0,0.0,0.005041,2
1672947017301354139,257889,1672947017304623221,gps,2,1,42.3009720544,-83.6979313442,272.515441895,0.001089,0.0,0.0,0.0,0.001089,0.0,0.0,0.0,0.005041,2
1672947017321121294,257890,1672947017324509757,gps,2,1,42.3009720344,-83.6979318654,272.51461792,0.001089,0.0,0.0,0.0,0.001089,0.0,0.0,0.0,0.005041,2
1672947017341435519,257891,1672947017344513881,gps,2,1,42.3009720145,-83.6979323874,272.513793945,0.001089,0.0,0.0,0.0,0.001089,0.0,0.0,0.0,0.005041,2
1672947017361161345,257892,1672947017364555887,gps,2,1,42.300972001,-83.6979329083,272.513000488,0.001089,0.0,0.0,0.0,0.001089,0.0,0.0,0.0,0.005041,2
1672947017381472001,257893,1672947017384566094,gps,2,1,42.3009719806,-83.6979334337,272.512115479,0.001089,0.0,0.0,0.0,0.001089,0.0,0.0,0.0,0.005041,2
1672947017401448151,257894,1672947017404712262,gps,2,1,42.3009719604,-83.6979339594,272.511138916,0.001089,0.0,0.0,0.0,0.001089,0.0,0.0,0.0,0.005041,2
1672947017421193009,257895,1672947017424589128,gps,2,1,42.3009719463,-83.6979344842,272.510192871,0.001089,0.0,0.0,0.0,0.001089,0.0,0.0,0.0,0.005041,2
1672947017441223750,257896,1672947017444566261,gps,2,1,42.300971926,-83.6979350133,272.509124756,0.001089,0.0,0.0,0.0,0.001089,0.0,0.0,0.0,0.005041,2
1672947017461151124,257897,1672947017464510757,gps,2,1,42.3009719047,-83.6979355432,272.508056641,0.001089,0.0,0.0,0.0,0.001089,0.0,0.0,0.0,0.005041,2
1672947017481082406,257898,1672947017484605308,gps,2,1,42.3009718901,-83.697936072,272.507019043,0.001089,0.0,0.0,0.0,0.001089,0.0,0.0,0.0,0.005041,2
1672947017501341385,257899,1672947017504611842,gps,2,1,42.3009718689,-83.6979366051,272.505950928,0.001089,0.0,0.0,0.0,0.001089,0.0,0.0,0.0,0.005041,2
1672947017521380724,257900,1672947017524565267,gps,2,1,42.3009718456,-83.697937138,272.504974365,0.001089,0.0,0.0,0.0,0.001089,0.0,0.0,0.0,0.005041,2
1672947017541313404,257901,1672947017544666046,gps,2,1,42.3009718306,-83.6979376702,272.504058838,0.001089,0.0,0.0,0.0,0.001089,0.0,0.0,0.0,0.005041,2
1672947017561371118,257902,1672947017564613740,gps,2,1,42.3009718069,-83.6979382056,272.503265381,0.001089,0.0,0.0,0.0,0.001089,0.0,0.0,0.0,0.005041,2
1672947017581262353,257903,1672947017584508552,gps,2,1,42.300971784,-83.6979387418,272.502349854,0.001089,0.0,0.0,0.0,0.001089,0.0,0.0,0.0,0.005041,2
1672947017601487728,257904,1672947017604653146,gps,2,1,42.3009717685,-83.6979392765,272.501647949,0.001089,0.0,0.0,0.0,0.001089,0.0,0.0,0.0,0.005041,2
1672947017621365801,257905,1672947017624554206,gps,2,1,42.3009717453,-83.697939815,272.501037598,0.001089,0.0,0.0,0.0,0.001089,0.0,0.0,0.0,0.005041,2
1672947017641265813,257906,1672947017644549782,gps,2,1,42.3009717247,-83.6979403532,272.500488281,0.001089,0.0,0.0,0.0,0.001089,0.0,0.0,0.0,0.005041,2
1672947017661321258,257907,1672947017664562380,gps,2,1,42.3009717083,-83.6979408903,272.500091553,0.001089,0.0,0.0,0.0,0.001089,0.0,0.0,0.0,0.005041,2
1672947017681325936,257908,1672947017684507067,gps,2,1,42.3009716873,-83.697941431,272.499786377,0.001089,0.0,0.0,0.0,0.001089,0.0,0.0,0.0,0.005041,2
1672947017701273816,257909,1672947017704495510,gps,2,1,42.3009716662,-83.6979419701,272.499542236,0.001089,0.0,0.0,0.0,0.001089,0.0,0.0,0.0,0.005041,2
1672947017721323957,257910,1672947017724469056,gps,2,1,42.3009716495,-83.6979425097,272.499206543,0.001089,0.0,0.0,0.0,0.001089,0.0,0.0,0.0,0.005041,2
1672947017741160100,257911,1672947017744584127,gps,2,1,42.3009716282,-83.6979430511,272.498809814,0.001089,0.0,0.0,0.0,0.001089,0.0,0.0,0.0,0.005041,2
1672947017761339958,257912,1672947017764506448,gps,2,1,42.3009716069,-83.6979435957,272.49822998,0.0009,0.0,0.0,0.0,0.000841,0.0,0.0,0.0,0.004761,2
1672947017781318752,257913,1672947017784565102,gps,2,1,42.3009715906,-83.6979441385,272.497528076,0.0009,0.0,0.0,0.0,0.000841,0.0,0.0,0.0,0.004761,2
1672947017801262942,257914,1672947017804566655,gps,2,1,42.3009715699,-83.6979446858,272.496551514,0.0009,0.0,0.0,0.0,0.000841,0.0,0.0,0.0,0.004761,2
1672947017821229526,257915,1672947017824492871,gps,2,1,42.3009715491,-83.6979452336,272.495605469,0.0009,0.0,0.0,0.0,0.000841,0.0,0.0,0.0,0.004761,2
1672947017841219948,257916,1672947017844509028,gps,2,1,42.3009715324,-83.697945779,272.494598389,0.0009,0.0,0.0,0.0,0.000841,0.0,0.0,0.0,0.004761,2
1672947017861167386,257917,1672947017864488704,gps,2,1,42.3009715115,-83.697946329,272.493560791,0.0009,0.0,0.0,0.0,0.000841,0.0,0.0,0.0,0.004761,2
1672947017881200977,257918,1672947017884520219,gps,2,1,42.3009714902,-83.6979468786,272.492523193,0.0009,0.0,0.0,0.0,0.000841,0.0,0.0,0.0,0.004761,2
1672947017901526015,257919,1672947017904754903,gps,2,1,42.3009714732,-83.6979474273,272.491546631,0.0009,0.0,0.0,0.0,0.000841,0.0,0.0,0.0,0.004761,2
1672947017921347443,257920,1672947017924473689,gps,2,1,42.3009714522,-83.6979479797,272.490600586,0.0009,0.0,0.0,0.0,0.000841,0.0,0.0,0.0,0.004761,2
1672947017941239019,257921,1672947017944479557,gps,2,1,42.3009714316,-83.6979485316,272.489593506,0.0009,0.0,0.0,0.0,0.000841,0.0,0.0,0.0,0.004761,2
1672947017961337722,257922,1672947017964572837,gps,2,1,42.3009714148,-83.6979490832,272.488464355,0.0009,0.0,0.0,0.0,0.000841,0.0,0.0,0.0,0.004761,2
1672947017981246867,257923,1672947017984477305,gps,2,1,42.3009713945,-83.6979496381,272.48727417,0.0009,0.0,0.0,0.0,0.000841,0.0,0.0,0.0,0.004761,2
1672947018001275024,257924,1672947018004583274,gps,2,1,42.3009713731,-83.6979501945,272.485992432,0.0009,0.0,0.0,0.0,0.000841,0.0,0.0,0.0,0.004761,2
1672947018021289760,257925,1672947018024588491,gps,2,1,42.3009713565,-83.6979507493,272.484619141,0.0009,0.0,0.0,0.0,0.000841,0.0,0.0,0.0,0.004761,2
1672947018041361623,257926,1672947018044595202,gps,2,1,42.3009713323,-83.697951308,272.483123779,0.0009,0.0,0.0,0.0,0.000841,0.0,0.0,0.0,0.004761,2
1672947018061589682,257927,1672947018064704217,gps,2,1,42.3009713084,-83.6979518673,272.481658936,0.0009,0.0,0.0,0.0,0.000841,0.0,0.0,0.0,0.004761,2
1672947018081242326,257928,1672947018084562803,gps,2,1,42.3009712911,-83.6979524252,272.480255127,0.0009,0.0,0.0,0.0,0.000841,0.0,0.0,0.0,0.004761,2
1672947018101034972,257929,1672947018104507125,gps,2,1,42.3009712673,-83.6979529843,272.478729248,0.0009,0.0,0.0,0.0,0.000841,0.0,0.0,0.0,0.004761,2
1672947018121214466,257930,1672947018124494620,gps,2,1,42.3009712439,-83.6979535437,272.477172852,0.0009,0.0,0.0,0.0,0.000841,0.0,0.0,0.0,0.004761,2
1672947018141243467,257931,1672947018144511290,gps,2,1,42.3009712259,-83.6979541043,272.475799561,0.0009,0.0,0.0,0.0,0.000841,0.0,0.0,0.0,0.004761,2
1672947018161443738,257932,1672947018164491173,gps,2,1,42.3009712012,-83.6979546657,272.474395752,0.0009,0.0,0.0,0.0,0.000841,0.0,0.0,0.0,0.004761,2
1672947018181453837,257933,1672947018184537522,gps,2,1,42.3009711766,-83.6979552274,272.472961426,0.0009,0.0,0.0,0.0,0.000841,0.0,0.0,0.0,0.004761,2
1672947018201316868,257934,1672947018204576766,gps,2,1,42.3009711568,-83.6979557904,272.47164917,0.0009,0.0,0.0,0.0,0.000841,0.0,0.0,0.0,0.004761,2
1672947018221452852,257935,1672947018224562371,gps,2,1,42.3009711289,-83.6979563556,272.470428467,0.0009,0.0,0.0,0.0,0.000841,0.0,0.0,0.0,0.004761,2
1672947018241206447,257936,1672947018244455210,gps,2,1,42.3009711011,-83.6979569205,272.469238281,0.0009,0.0,0.0,0.0,0.000841,0.0,0.0,0.0,0.004761,2
1672947018261360113,257937,1672947018264523000,gps,2,1,42.3009710794,-83.6979574851,272.468017578,0.0009,0.0,0.0,0.0,0.000841,0.0,0.0,0.0,0.004761,2
1672947018281375588,257938,1672947018284559734,gps,2,1,42.3009710506,-83.6979580515,272.46685791,0.0009,0.0,0.0,0.0,0.000841,0.0,0.0,0.0,0.004761,2
1672947018301182859,257939,1672947018304523386,gps,2,1,42.3009710226,-83.6979586178,272.465667725,0.0009,0.0,0.0,0.0,0.000841,0.0,0.0,0.0,0.004761,2
1672947018321360748,257940,1672947018324564532,gps,2,1,42.3009710003,-83.6979591839,272.464385986,0.0009,0.0,0.0,0.0,0.000841,0.0,0.0,0.0,0.004761,2
1672947018341317665,257941,1672947018344522716,gps,2,1,42.3009709725,-83.6979597516,272.463104248,0.0009,0.0,0.0,0.0,0.000841,0.0,0.0,0.0,0.004761,2
1672947018361498023,257942,1672947018364565904,gps,2,1,42.3009709474,-83.6979603195,272.461883545,0.0009,0.0,0.0,0.0,0.000841,0.0,0.0,0.0,0.004761,2
1672947018381312860,257943,1672947018384545894,gps,2,1,42.3009709255,-83.6979608869,272.460479736,0.0009,0.0,0.0,0.0,0.000841,0.0,0.0,0.0,0.004761,2
1672947018401376340,257944,1672947018404602997,gps,2,1,42.300970901,-83.697961454,272.459075928,0.0009,0.0,0.0,0.0,0.000841,0.0,0.0,0.0,0.004761,2
1672947018421245600,257945,1672947018424489477,gps,2,1,42.3009708765,-83.6979620213,272.457702637,0.0009,0.0,0.0,0.0,0.000841,0.0,0.0,0.0,0.004761,2
1672947018441207183,257946,1672947018444610506,gps,2,1,42.3009708552,-83.6979625901,272.456237793,0.0009,0.0,0.0,0.0,0.000841,0.0,0.0,0.0,0.004761,2
1672947018461180388,257947,1672947018464493391,gps,2,1,42.3009708313,-83.6979631587,272.454803467,0.0009,0.0,0.0,0.0,0.000841,0.0,0.0,0.0,0.004761,2
