%time,field.header.seq,field.header.stamp,field.header.frame_id,field.twist.twist.linear.x,field.twist.twist.linear.y,field.twist.twist.linear.z,field.twist.twist.angular.x,field.twist.twist.angular.y,field.twist.twist.angular.z,field.twist.covariance0,field.twist.covariance1,field.twist.covariance2,field.twist.covariance3,field.twist.covariance4,field.twist.covariance5,field.twist.covariance6,field.twist.covariance7,field.twist.covariance8,field.twist.covariance9,field.twist.covariance10,field.twist.covariance11,field.twist.covariance12,field.twist.covariance13,field.twist.covariance14,field.twist.covariance15,field.twist.covariance16,field.twist.covariance17,field.twist.covariance18,field.twist.covariance19,field.twist.covariance20,field.twist.covariance21,field.twist.covariance22,field.twist.covariance23,field.twist.covariance24,field.twist.covariance25,field.twist.covariance26,field.twist.covariance27,field.twist.covariance28,field.twist.covariance29,field.twist.covariance30,field.twist.covariance31,field.twist.covariance32,field.twist.covariance33,field.twist.covariance34,field.twist.covariance35
1672943955421338964,104794,1672943955433400235,enu,-0.0009,0.0062,0.001,0.0,0.0,0.0,0.000196,0.0,0.0,0.0,0.0,0.0,0.0,0.000196,0.0,0.0,0.0,0.0,0.0,0.0,0.0001,0.0,0.0,0.0,0.0,0.0,0.0,0.0,0.0,0.0,0.0,0.0,0.0,0.0,0.0,0.0,0.0,0.0,0.0,0.0,0.0,0.0
1672943955441585841,104795,1672943955453326749,enu,-0.001,0.0064,0.0011,0.0,0.0,0.0,0.000196,0.0,0.0,0.0,0.0,0.0,0.0,0.000196,0.0,0.0,0.0,0.0,0.0,0.0,0.0001,0.0,0.0,0.0,0.0,0.0,0.0,0.0,0.0,0.0,0.0,0.0,0.0,0.0,0.0,0.0,0.0,0.0,0.0,0.0,0.0,0.0
1672943955461718963,104796,1672943955473363255,enu,-0.0008,0.0065,0.001,0.0,0.0,0.0,0.000196,0.0,0.0,0.0,0.0,0.0,0.0,0.000196,0.0,0.0,0.0,0.0,0.0,0.0,0.0001,0.0,0.0,0.0,0.0,0.0,0.0,0.0,0.0,0.0,0.0,0.0,0.0,0.0,0.0,0.0,0.0,0.0,0.0,0.0,0.0,0.0
1672943955481469760,104797,1672943955493315551,enu,-0.0008,0.0065,0.0008,0.0,0.0,0.0,0.000196,0.0,0.0,0.0,0.0,0.0,0.0,0.000196,0.0,0.0,0.0,0.0,0.0,0.0,0.0001,0.0,0.0,0.0,0.0,0.0,0.0,0.0,0.0,0.0,0.0,0.0,0.0,0.0,0.0,0.0,0.0,0.0,0.0,0.0,0.0,0.0
1672943955501430298,104798,1672943955513347823,enu,-0.0008,0.0065,0.0007,0.0,0.0,0.0,0.000196,0.0,0.0,0.0,0.0,0.0,0.0,0.000196,0.0,0.0,0.0,0.0,0.0,0.0,0.0001,0.0,0.0,0.0,0.0,0.0,0.0,0.0,0.0,0.0,0.0,0.0,0.0,0.0,0.0,0.0,0.0,0.0,0.0,0.0,0.0,0.0
1672943955521490425,104799,1672943955533411628,enu,-0.0009,0.0065,0.0006,0.0,0.0,0.0,0.000196,0.0,0.0,0.0,0.0,0.0,0.0,0.000196,0.0,0.0,0.0,0.0,0.0,0.0,0.0001,0.0,0.0,0.0,0.0,0.0,0.0,0.0,0.0,0.0,0.0,0.0,0.0,0.0,0.0,0.0,0.0,0.0,0.0,0.0,0.0,0.0
1672943955541662583,104800,1672943955553361677,enu,-0.0009,0.0064,0.0004,0.0,0.0,0.0,0.000196,0.0,0.0,0.0,0.0,0.0,0.0,0.000196,0.0,0.0,0.0,0.0,0.0,0.0,0.0001,0.0,0.0,0.0,0.0,0.0,0.0,0.0,0.0,0.0,0.0,0.0,0.0,0.0,0.0,0.0,0.0,0.0,0.0,0.0,0.0,0.0
1672943955561447589,104801,1672943955573376416,enu,-0.0009,0.0063,0.0004,0.0,0.0,0.0,0.000196,0.0,0.0,0.0,0.0,0.0,0.0,0.000196,0.0,0.0,0.0,0.0,0.0,0.0,0.0001,0.0,0.0,0.0,0.0,0.0,0.0,0.0,0.0,0.0,0.0,0.0,0.0,0.0,0.0,0.0,0.0,0.0,0.0,0.0,0.0,0.0
1672943955581206760,104802,1672943955593416119,enu,-0.0008,0.006,0.0004,0.0,0.0,0.0,0.000196,0.0,0.0,0.0,0.0,0.0,0.0,0.000196,0.0,0.0,0.0,0.0,0.0,0.0,0.0001,0.0,0.0,0.0,0.0,0.0,0.0,0.0,0.0,0.0,0.0,0.0,0.0,0.0,0.0,0.0,0.0,0.0,0.0,0.0,0.0,0.0
1672943955601718552,104803,1672943955613426349,enu,-0.0009,0.0058,0.0004,0.0,0.0,0.0,0.000196,0.0,0.0,0.0,0.0,0.0,0.0,0.000196,0.0,0.0,0.0,0.0,0.0,0.0,0.0001,0.0,0.0,0.0,0.0,0.0,0.0,0.0,0.0,0.0,0.0,0.0,0.0,0.0,0.0,0.0,0.0,0.0,0.0,0.0,0.0,0.0
1672943955621507086,104804,1672943955633402392,enu,-0.0009,0.0056,0.0005,0.0,0.0,0.0,0.000196,0.0,0.0,0.0,0.0,0.0,0.0,0.000196,0.0,0.0,0.0,0.0,0.0,0.0,0.0001,0.0,0.0,0.0,0.0,0.0,0.0,0.0,0.0,0.0,0.0,0.0,0.0,0.0,0.0,0.0,0.0,0.0,0.0,0.0,0.0,0.0
1672943955641828652,104805,1672943955653382937,enu,-0.0009,0.0054,0.0007,0.0,0.0,0.0,0.000196,0.0,0.0,0.0,0.0,0.0,0.0,0.000196,0.0,0.0,0.0,0.0,0.0,0.0,0.0001,0.0,0.0,0.0,0.0,0.0,0.0,0.0,0.0,0.0,0.0,0.0,0.0,0.0,0.0,0.0,0.0,0.0,0.0,0.0,0.0,0.0
1672943955661197951,104806,1672943955673357725,enu,-0.0012,0.0051,0.0008,0.0,0.0,0.0,0.000196,0.0,0.0,0.0,0.0,0.0,0.0,0.000196,0.0,0.0,0.0,0.0,0.0,0.0,0.0001,0.0,0.0,0.0,0.0,0.0,0.0,0.0,0.0,0.0,0.0,0.0,0.0,0.0,0.0,0.0,0.0,0.0,0.0,0.0,0.0,0.0
1672943955681080687,104807,1672943955693377474,enu,-0.0015,0.0049,0.0008,0.0,0.0,0.0,0.000196,0.0,0.0,0.0,0.0,0.0,0.0,0.000196,0.0,0.0,0.0,0.0,0.0,0.0,0.0001,0.0,0.0,0.0,0.0,0.0,0.0,0.0,0.0,0.0,0.0,0.0,0.0,0.0,0.0,0.0,0.0,0.0,0.0,0.0,0.0,0.0
1672943955701188331,104808,1672943955713384666,enu,-0.0017,0.0049,0.0009,0.0,0.0,0.0,0.000196,0.0,0.0,0.0,0.0,0.0,0.0,0.000196,0.0,0.0,0.0,0.0,0.0,0.0,0.0001,0.0,0.0,0.0,0.0,0.0,0.0,0.0,0.0,0.0,0.0,0.0,0.0,0.0,0.0,0.0,0.0,0.0,0.0,0.0,0.0,0.0
1672943955721760976,104809,1672943955733352421,enu,-0.002,0.005,0.0009,0.0,0.0,0.0,0.000196,0.0,0.0,0.0,0.0,0.0,0.0,0.000196,0.0,0.0,0.0,0.0,0.0,0.0,0.0001,0.0,0.0,0.0,0.0,0.0,0.0,0.0,0.0,0.0,0.0,0.0,0.0,0.0,0.0,0.0,0.0,0.0,0.0,0.0,0.0,0.0
1672943955741121040,104810,1672943955753299998,enu,-0.0022,0.005,0.0008,0.0,0.0,0.0,0.000196,0.0,0.0,0.0,0.0,0.0,0.0,0.000196,0.0,0.0,0.0,0.0,0.0,0.0,0.0001,0.0,0.0,0.0,0.0,0.0,0.0,0.0,0.0,0.0,0.0,0.0,0.0,0.0,0.0,0.0,0.0,0.0,0.0,0.0,0.0,0.0
1672943955761265219,104811,1672943955773347358,enu,-0.0025,0.0052,0.0007,0.0,0.0,0.0,0.000196,0.0,0.0,0.0,0.0,0.0,0.0,0.000196,0.0,0.0,0.0,0.0,0.0,0.0,0.0001,0.0,0.0,0.0,0.0,0.0,0.0,0.0,0.0,0.0,0.0,0.0,0.0,0.0,0.0,0.0,0.0,0.0,0.0,0.0,0.0,0.0
1672943955781167580,104812,1672943955793398653,enu,-0.0025,0.0056,0.0007,0.0,0.0,0.0,0.000196,0.0,0.0,0.0,0.0,0.0,0.0,0.000196,0.0,0.0,0.0,0.0,0.0,0.0,0.0001,0.0,0.0,0.0,0.0,0.0,0.0,0.0,0.0,0.0,0.0,0.0,0.0,0.0,0.0,0.0,0.0,0.0,0.0,0.0,0.0,0.0
1672943955801042153,104813,1672943955813347782,enu,-0.0025,0.0058,0.0006,0.0,0.0,0.0,0.000196,0.0,0.0,0.0,0.0,0.0,0.0,0.000196,0.0,0.0,0.0,0.0,0.0,0.0,0.0001,0.0,0.0,0.0,0.0,0.0,0.0,0.0,0.0,0.0,0.0,0.0,0.0,0.0,0.0,0.0,0.0,0.0,0.0,0.0,0.0,0.0
1672943955821485015,104814,1672943955833370477,enu,-0.0025,0.0062,0.0005,0.0,0.0,0.0,0.000196,0.0,0.0,0.0,0.0,0.0,0.0,0.000196,0.0,0.0,0.0,0.0,0.0,0.0,0.0001,0.0,0.0,0.0,0.0,0.0,0.0,0.0,0.0,0.0,0.0,0.0,0.0,0.0,0.0,0.0,0.0,0.0,0.0,0.0,0.0,0.0
1672943955841416206,104815,1672943955853337657,enu,-0.0025,0.0064,0.0003,0.0,0.0,0.0,0.000196,0.0,0.0,0.0,0.0,0.0,0.0,0.000196,0.0,0.0,0.0,0.0,0.0,0.0,0.0001,0.0,0.0,0.0,0.0,0.0,0.0,0.0,0.0,0.0,0.0,0.0,0.0,0.0,0.0,0.0,0.0,0.0,0.0,0.0,0.0,0.0
1672943955860867570,104816,1672943955873323038,enu,-0.0023,0.0066,0.0004,0.0,0.0,0.0,0.000196,0.0,0.0,0.0,0.0,0.0,0.0,0.000196,0.0,0.0,0.0,0.0,0.0,0.0,0.0001,0.0,0.0,0.0,0.0,0.0,0.0,0.0,0.0,0.0,0.0,0.0,0.0,0.0,0.0,0.0,0.0,0.0,0.0,0.0,0.0,0.0
1672943955881405256,104817,1672943955893392061,enu,-0.0022,0.0067,0.0004,0.0,0.0,0.0,0.000196,0.0,0.0,0.0,0.0,0.0,0.0,0.000196,0.0,0.0,0.0,0.0,0.0,0.0,0.0001,0.0,0.0,0.0,0.0,0.0,0.0,0.0,0.0,0.0,0.0,0.0,0.0,0.0,0.0,0.0,0.0,0.0,0.0,0.0,0.0,0.0
1672943955901275647,104818,1672943955913305989,enu,-0.0023,0.0068,0.0004,0.0,0.0,0.0,0.000196,0.0,0.0,0.0,0.0,0.0,0.0,0.000196,0.0,0.0,0.0,0.0,0.0,0.0,0.0001,0.0,0.0,0.0,0.0,0.0,0.0,0.0,0.0,0.0,0.0,0.0,0.0,0.0,0.0,0.0,0.0,0.0,0.0,0.0,0.0,0.0
1672943955921177441,104819,1672943955933302343,enu,-0.0024,0.0066,0.0005,0.0,0.0,0.0,0.000196,0.0,0.0,0.0,0.0,0.0,0.0,0.000196,0.0,0.0,0.0,0.0,0.0,0.0,0.0001,0.0,0.0,0.0,0.0,0.0,0.0,0.0,0.0,0.0,0.0,0.0,0.0,0.0,0.0,0.0,0.0,0.0,0.0,0.0,0.0,0.0
1672943955941171186,104820,1672943955953367875,enu,-0.0025,0.0065,0.0005,0.0,0.0,0.0,0.000196,0.0,0.0,0.0,0.0,0.0,0.0,0.000196,0.0,0.0,0.0,0.0,0.0,0.0,0.0001,0.0,0.0,0.0,0.0,0.0,0.0,0.0,0.0,0.0,0.0,0.0,0.0,0.0,0.0,0.0,0.0,0.0,0.0,0.0,0.0,0.0
1672943955961517413,104821,1672943955973358858,enu,-0.0027,0.0063,0.0006,0.0,0.0,0.0,0.000196,0.0,0.0,0.0,0.0,0.0,0.0,0.000196,0.0,0.0,0.0,0.0,0.0,0.0,0.0001,0.0,0.0,0.0,0.0,0.0,0.0,0.0,0.0,0.0,0.0,0.0,0.0,0.0,0.0,0.0,0.0,0.0,0.0,0.0,0.0,0.0
1672943955981283252,104822,1672943955993336502,enu,-0.003,0.006,0.0006,0.0,0.0,0.0,0.000196,0.0,0.0,0.0,0.0,0.0,0.0,0.000196,0.0,0.0,0.0,0.0,0.0,0.0,0.0001,0.0,0.0,0.0,0.0,0.0,0.0,0.0,0.0,0.0,0.0,0.0,0.0,0.0,0.0,0.0,0.0,0.0,0.0,0.0,0.0,0.0
1672943956001042167,104823,1672943956013384724,enu,-0.0032,0.0058,0.0005,0.0,0.0,0.0,0.000196,0.0,0.0,0.0,0.0,0.0,0.0,0.000196,0.0,0.0,0.0,0.0,0.0,0.0,0.0001,0.0,0.0,0.0,0.0,0.0,0.0,0.0,0.0,0.0,0.0,0.0,0.0,0.0,0.0,0.0,0.0,0.0,0.0,0.0,0.0,0.0
1672943956021647412,104824,1672943956033400414,enu,-0.0034,0.0057,0.0006,0.0,0.0,0.0,0.000196,0.0,0.0,0.0,0.0,0.0,0.0,0.000196,0.0,0.0,0.0,0.0,0.0,0.0,0.0001,0.0,0.0,0.0,0.0,0.0,0.0,0.0,0.0,0.0,0.0,0.0,0.0,0.0,0.0,0.0,0.0,0.0,0.0,0.0,0.0,0.0
1672943956041336713,104825,1672943956053408303,enu,-0.0033,0.0058,0.0005,0.0,0.0,0.0,0.000196,0.0,0.0,0.0,0.0,0.0,0.0,0.000196,0.0,0.0,0.0,0.0,0.0,0.0,0.0001,0.0,0.0,0.0,0.0,0.0,0.0,0.0,0.0,0.0,0.0,0.0,0.0,0.0,0.0,0.0,0.0,0.0,0.0,0.0,0.0,0.0
1672943956061248743,104826,1672943956073509387,enu,-0.0035,0.006,0.0004,0.0,0.0,0.0,0.000196,0.0,0.0,0.0,0.0,0.0,0.0,0.000196,0.0,0.0,0.0,0.0,0.0,0.0,0.0001,0.0,0.0,0.0,0.0,0.0,0.0,0.0,0.0,0.0,0.0,0.0,0.0,0.0,0.0,0.0,0.0,0.0,0.0,0.0,0.0,0.0
1672943956081364879,104827,1672943956093417759,enu,-0.0035,0.0057,0.0005,0.0,0.0,0.0,0.000196,0.0,0.0,0.0,0.0,0.0,0.0,0.000196,0.0,0.0,0.0,0.0,0.0,0.0,0.0001,0.0,0.0,0.0,0.0,0.0,0.0,0.0,0.0,0.0,0.0,0.0,0.0,0.0,0.0,0.0,0.0,0.0,0.0,0.0,0.0,0.0
1672943956101078463,104828,1672943956113509436,enu,-0.0041,0.0057,0.0002,0.0,0.0,0.0,0.000196,0.0,0.0,0.0,0.0,0.0,0.0,0.000196,0.0,0.0,0.0,0.0,0.0,0.0,0.0001,0.0,0.0,0.0,0.0,0.0,0.0,0.0,0.0,0.0,0.0,0.0,0.0,0.0,0.0,0.0,0.0,0.0,0.0,0.0,0.0,0.0
1672943956121389680,104829,1672943956133369406,enu,-0.0048,0.0053,0.0001,0.0,0.0,0.0,0.000196,0.0,0.0,0.0,0.0,0.0,0.0,0.000196,0.0,0.0,0.0,0.0,0.0,0.0,0.0001,0.0,0.0,0.0,0.0,0.0,0.0,0.0,0.0,0.0,0.0,0.0,0.0,0.0,0.0,0.0,0.0,0.0,0.0,0.0,0.0,0.0
1672943956141637243,104830,1672943956153360661,enu,-0.0075,0.0051,-0.0003,0.0,0.0,0.0,0.000196,0.0,0.0,0.0,0.0,0.0,0.0,0.000196,0.0,0.0,0.0,0.0,0.0,0.0,0.0001,0.0,0.0,0.0,0.0,0.0,0.0,0.0,0.0,0.0,0.0,0.0,0.0,0.0,0.0,0.0,0.0,0.0,0.0,0.0,0.0,0.0
1672943956161035410,104831,1672943956173297534,enu,-0.0123,0.0042,-0.0015,0.0,0.0,0.0,0.000196,0.0,0.0,0.0,0.0,0.0,0.0,0.000196,0.0,0.0,0.0,0.0,0.0,0.0,0.0001,0.0,0.0,0.0,0.0,0.0,0.0,0.0,0.0,0.0,0.0,0.0,0.0,0.0,0.0,0.0,0.0,0.0,0.0,0.0,0.0,0.0
1672943956181360979,104832,1672943956193393951,enu,-0.0183,0.0035,-0.0024,0.0,0.0,0.0,0.000196,0.0,0.0,0.0,0.0,0.0,0.0,0.000196,0.0,0.0,0.0,0.0,0.0,0.0,0.0001,0.0,0.0,0.0,0.0,0.0,0.0,0.0,0.0,0.0,0.0,0.0,0.0,0.0,0.0,0.0,0.0,0.0,0.0,0.0,0.0,0.0
1672943956201365064,104833,1672943956213319595,enu,-0.0258,0.0031,-0.0032,0.0,0.0,0.0,0.000196,0.0,0.0,0.0,0.0,0.0,0.0,0.000196,0.0,0.0,0.0,0.0,0.0,0.0,0.0001,0.0,0.0,0.0,0.0,0.0,0.0,0.0,0.0,0.0,0.0,0.0,0.0,0.0,0.0,0.0,0.0,0.0,0.0,0.0,0.0,0.0
1672943956221174471,104834,1672943956233315860,enu,-0.035,0.0024,-0.0039,0.0,0.0,0.0,0.000196,0.0,0.0,0.0,0.0,0.0,0.0,0.000196,0.0,0.0,0.0,0.0,0.0,0.0,0.0001,0.0,0.0,0.0,0.0,0.0,0.0,0.0,0.0,0.0,0.0,0.0,0.0,0.0,0.0,0.0,0.0,0.0,0.0,0.0,0.0,0.0
1672943956241050179,104835,1672943956253395581,enu,-0.0443,0.0014,-0.0042,0.0,0.0,0.0,0.000196,0.0,0.0,0.0,0.0,0.0,0.0,0.000196,0.0,0.0,0.0,0.0,0.0,0.0,0.0001,0.0,0.0,0.0,0.0,0.0,0.0,0.0,0.0,0.0,0.0,0.0,0.0,0.0,0.0,0.0,0.0,0.0,0.0,0.0,0.0,0.0
1672943956261333873,104836,1672943956273324135,enu,-0.0538,0.0002,-0.0044,0.0,0.0,0.0,0.000196,0.0,0.0,0.0,0.0,0.0,0.0,0.000196,0.0,0.0,0.0,0.0,0.0,0.0,0.0001,0.0,0.0,0.0,0.0,0.0,0.0,0.0,0.0,0.0,0.0,0.0,0.0,0.0,0.0,0.0,0.0,0.0,0.0,0.0,0.0,0.0
1672943956281392801,104837,1672943956293427541,enu,-0.0647,-0.0011,-0.0047,0.0,0.0,0.0,0.000196,0.0,0.0,0.0,0.0,0.0,0.0,0.000196,0.0,0.0,0.0,0.0,0.0,0.0,0.0001,0.0,0.0,0.0,0.0,0.0,0.0,0.0,0.0,0.0,0.0,0.0,0.0,0.0,0.0,0.0,0.0,0.0,0.0,0.0,0.0,0.0
1672943956301417407,104838,1672943956313397811,enu,-0.0752,-0.0024,-0.0051,0.0,0.0,0.0,0.000196,0.0,0.0,0.0,0.0,0.0,0.0,0.000196,0.0,0.0,0.0,0.0,0.0,0.0,0.0001,0.0,0.0,0.0,0.0,0.0,0.0,0.0,0.0,0.0,0.0,0.0,0.0,0.0,0.0,0.0,0.0,0.0,0.0,0.0,0.0,0.0
1672943956321308787,104839,1672943956333345378,enu,-0.0865,-0.0039,-0.0057,0.0,0.0,0.0,0.000196,0.0,0.0,0.0,0.0,0.0,0.0,0.000196,0.0,0.0,0.0,0.0,0.0,0.0,0.0001,0.0,0.0,0.0,0.0,0.0,0.0,0.0,0.0,0.0,0.0,0.0,0.0,0.0,0.0,0.0,0.0,0.0,0.0,0.0,0.0,0.0
1672943956341257599,104840,1672943956353295082,enu,-0.0983,-0.0052,-0.0063,0.0,0.0,0.0,0.000196,0.0,0.0,0.0,0.0,0.0,0.0,0.000196,0.0,0.0,0.0,0.0,0.0,0.0,0.0001,0.0,0.0,0.0,0.0,0.0,0.0,0.0,0.0,0.0,0.0,0.0,0.0,0.0,0.0,0.0,0.0,0.0,0.0,0.0,0.0,0.0
1672943956361229369,104841,1672943956373411942,enu,-0.1099,-0.0063,-0.0066,0.0,0.0,0.0,0.000196,0.0,0.0,0.0,0.0,0.0,0.0,0.000196,0.0,0.0,0.0,0.0,0.0,0.0,0.0001,0.0,0.0,0.0,0.0,0.0,0.0,0.0,0.0,0.0,0.0,0.0,0.0,0.0,0.0,0.0,0.0,0.0,0.0,0.0,0.0,0.0
1672943956381530775,104842,1672943956393472109,enu,-0.1222,-0.0077,-0.007,0.0,0.0,0.0,0.000196,0.0,0.0,0.0,0.0,0.0,0.0,0.000196,0.0,0.0,0.0,0.0,0.0,0.0,0.0001,0.0,0.0,0.0,0.0,0.0,0.0,0.0,0.0,0.0,0.0,0.0,0.0,0.0,0.0,0.0,0.0,0.0,0.0,0.0,0.0,0.0
1672943956401470545,104843,1672943956413393911,enu,-0.1343,-0.0089,-0.0071,0.0,0.0,0.0,0.000196,0.0,0.0,0.0,0.0,0.0,0.0,0.000196,0.0,0.0,0.0,0.0,0.0,0.0,0.0001,0.0,0.0,0.0,0.0,0.0,0.0,0.0,0.0,0.0,0.0,0.0,0.0,0.0,0.0,0.0,0.0,0.0,0.0,0.0,0.0,0.0
1672943956421362596,104844,1672943956433358701,enu,-0.1469,-0.01,-0.007,0.0,0.0,0.0,0.000196,0.0,0.0,0.0,0.0,0.0,0.0,0.000196,0.0,0.0,0.0,0.0,0.0,0.0,0.0001,0.0,0.0,0.0,0.0,0.0,0.0,0.0,0.0,0.0,0.0,0.0,0.0,0.0,0.0,0.0,0.0,0.0,0.0,0.0,0.0,0.0
1672943956441340838,104845,1672943956453325656,enu,-0.16,-0.0111,-0.007,0.0,0.0,0.0,0.000196,0.0,0.0,0.0,0.0,0.0,0.0,0.000196,0.0,0.0,0.0,0.0,0.0,0.0,0.0001,0.0,0.0,0.0,0.0,0.0,0.0,0.0,0.0,0.0,0.0,0.0,0.0,0.0,0.0,0.0,0.0,0.0,0.0,0.0,0.0,0.0
1672943956461467731,104846,1672943956473353692,enu,-0.1733,-0.0123,-0.0071,0.0,0.0,0.0,0.000196,0.0,0.0,0.0,0.0,0.0,0.0,0.000196,0.0,0.0,0.0,0.0,0.0,0.0,0.0001,0.0,0.0,0.0,0.0,0.0,0.0,0.0,0.0,0.0,0.0,0.0,0.0,0.0,0.0,0.0,0.0,0.0,0.0,0.0,0.0,0.0
1672943956481322036,104847,1672943956493437404,enu,-0.1873,-0.0134,-0.0071,0.0,0.0,0.0,0.000196,0.0,0.0,0.0,0.0,0.0,0.0,0.000196,0.0,0.0,0.0,0.0,0.0,0.0,0.0001,0.0,0.0,0.0,0.0,0.0,0.0,0.0,0.0,0.0,0.0,0.0,0.0,0.0,0.0,0.0,0.0,0.0,0.0,0.0,0.0,0.0
1672943956501138356,104848,1672943956513354605,enu,-0.2023,-0.015,-0.0078,0.0,0.0,0.0,0.000196,0.0,0.0,0.0,0.0,0.0,0.0,0.000196,0.0,0.0,0.0,0.0,0.0,0.0,0.0001,0.0,0.0,0.0,0.0,0.0,0.0,0.0,0.0,0.0,0.0,0.0,0.0,0.0,0.0,0.0,0.0,0.0,0.0,0.0,0.0,0.0
1672943956521073865,104849,1672943956533343923,enu,-0.2181,-0.0166,-0.0089,0.0,0.0,0.0,0.000196,0.0,0.0,0.0,0.0,0.0,0.0,0.000196,0.0,0.0,0.0,0.0,0.0,0.0,0.0001,0.0,0.0,0.0,0.0,0.0,0.0,0.0,0.0,0.0,0.0,0.0,0.0,0.0,0.0,0.0,0.0,0.0,0.0,0.0,0.0,0.0
1672943956541447178,104850,1672943956553461655,enu,-0.2351,-0.0182,-0.0103,0.0,0.0,0.0,0.000196,0.0,0.0,0.0,0.0,0.0,0.0,0.000196,0.0,0.0,0.0,0.0,0.0,0.0,0.0001,0.0,0.0,0.0,0.0,0.0,0.0,0.0,0.0,0.0,0.0,0.0,0.0,0.0,0.0,0.0,0.0,0.0,0.0,0.0,0.0,0.0
1672943956561284887,104851,1672943956573336525,enu,-0.2531,-0.0202,-0.0119,0.0,0.0,0.0,0.000196,0.0,0.0,0.0,0.0,0.0,0.0,0.000196,0.0,0.0,0.0,0.0,0.0,0.0,0.0001,0.0,0.0,0.0,0.0,0.0,0.0,0.0,0.0,0.0,0.0,0.0,0.0,0.0,0.0,0.0,0.0,0.0,0.0,0.0,0.0,0.0
1672943956581422080,104852,1672943956593450457,enu,-0.2716,-0.0226,-0.0128,0.0,0.0,0.0,0.000196,0.0,0.0,0.0,0.0,0.0,0.0,0.000196,0.0,0.0,0.0,0.0,0.0,0.0,0.0001,0.0,0.0,0.0,0.0,0.0,0.0,0.0,0.0,0.0,0.0,0.0,0.0,0.0,0.0,0.0,0.0,0.0,0.0,0.0,0.0,0.0
1672943956601432958,104853,1672943956613456915,enu,-0.2896,-0.0246,-0.0135,0.0,0.0,0.0,0.000196,0.0,0.0,0.0,0.0,0.0,0.0,0.000196,0.0,0.0,0.0,0.0,0.0,0.0,0.0001,0.0,0.0,0.0,0.0,0.0,0.0,0.0,0.0,0.0,0.0,0.0,0.0,0.0,0.0,0.0,0.0,0.0,0.0,0.0,0.0,0.0
1672943956621405971,104854,1672943956633313299,enu,-0.3092,-0.0269,-0.0143,0.0,0.0,0.0,0.000196,0.0,0.0,0.0,0.0,0.0,0.0,0.000196,0.0,0.0,0.0,0.0,0.0,0.0,0.0001,0.0,0.0,0.0,0.0,0.0,0.0,0.0,0.0,0.0,0.0,0.0,0.0,0.0,0.0,0.0,0.0,0.0,0.0,0.0,0.0,0.0
1672943956641179048,104855,1672943956653340727,enu,-0.3284,-0.0295,-0.0149,0.0,0.0,0.0,0.000196,0.0,0.0,0.0,0.0,0.0,0.0,0.000196,0.0,0.0,0.0,0.0,0.0,0.0,0.0001,0.0,0.0,0.0,0.0,0.0,0.0,0.0,0.0,0.0,0.0,0.0,0.0,0.0,0.0,0.0,0.0,0.0,0.0,0.0,0.0,0.0
1672943956661163032,104856,1672943956673331017,enu,-0.3486,-0.032,-0.0158,0.0,0.0,0.0,0.000196,0.0,0.0,0.0,0.0,0.0,0.0,0.000196,0.0,0.0,0.0,0.0,0.0,0.0,0.0001,0.0,0.0,0.0,0.0,0.0,0.0,0.0,0.0,0.0,0.0,0.0,0.0,0.0,0.0,0.0,0.0,0.0,0.0,0.0,0.0,0.0
1672943956681441393,104857,1672943956693450581,enu,-0.3701,-0.0347,-0.0166,0.0,0.0,0.0,0.000196,0.0,0.0,0.0,0.0,0.0,0.0,0.000196,0.0,0.0,0.0,0.0,0.0,0.0,0.0001,0.0,0.0,0.0,0.0,0.0,0.0,0.0,0.0,0.0,0.0,0.0,0.0,0.0,0.0,0.0,0.0,0.0,0.0,0.0,0.0,0.0
1672943956701429662,104858,1672943956713395566,enu,-0.3922,-0.0372,-0.0172,0.0,0.0,0.0,0.000196,0.0,0.0,0.0,0.0,0.0,0.0,0.000196,0.0,0.0,0.0,0.0,0.0,0.0,0.0001,0.0,0.0,0.0,0.0,0.0,0.0,0.0,0.0,0.0,0.0,0.0,0.0,0.0,0.0,0.0,0.0,0.0,0.0,0.0,0.0,0.0
1672943956721131209,104859,1672943956733337736,enu,-0.4163,-0.0398,-0.0183,0.0,0.0,0.0,0.000196,0.0,0.0,0.0,0.0,0.0,0.0,0.000196,0.0,0.0,0.0,0.0,0.0,0.0,0.0001,0.0,0.0,0.0,0.0,0.0,0.0,0.0,0.0,0.0,0.0,0.0,0.0,0.0,0.0,0.0,0.0,0.0,0.0,0.0,0.0,0.0
1672943956741411738,104860,1672943956753341604,enu,-0.4419,-0.0426,-0.0194,0.0,0.0,0.0,0.000196,0.0,0.0,0.0,0.0,0.0,0.0,0.000196,0.0,0.0,0.0,0.0,0.0,0.0,0.0001,0.0,0.0,0.0,0.0,0.0,0.0,0.0,0.0,0.0,0.0,0.0,0.0,0.0,0.0,0.0,0.0,0.0,0.0,0.0,0.0,0.0
1672943956761244257,104861,1672943956773370735,enu,-0.4685,-0.0454,-0.0205,0.0,0.0,0.0,0.000196,0.0,0.0,0.0,0.0,0.0,0.0,0.000196,0.0,0.0,0.0,0.0,0.0,0.0,0.0001,0.0,0.0,0.0,0.0,0.0,0.0,0.0,0.0,0.0,0.0,0.0,0.0,0.0,0.0,0.0,0.0,0.0,0.0,0.0,0.0,0.0
1672943956781423764,104862,1672943956793470643,enu,-0.4961,-0.0488,-0.0215,0.0,0.0,0.0,0.000196,0.0,0.0,0.0,0.0,0.0,0.0,0.000196,0.0,0.0,0.0,0.0,0.0,0.0,0.0001,0.0,0.0,0.0,0.0,0.0,0.0,0.0,0.0,0.0,0.0,0.0,0.0,0.0,0.0,0.0,0.0,0.0,0.0,0.0,0.0,0.0
1672943956801108196,104863,1672943956813336149,enu,-0.5242,-0.052,-0.0227,0.0,0.0,0.0,0.000196,0.0,0.0,0.0,0.0,0.0,0.0,0.000196,0.0,0.0,0.0,0.0,0.0,0.0,0.0001,0.0,0.0,0.0,0.0,0.0,0.0,0.0,0.0,0.0,0.0,0.0,0.0,0.0,0.0,0.0,0.0,0.0,0.0,0.0,0.0,0.0
1672943956821501948,104864,1672943956833401016,enu,-0.554,-0.0554,-0.0239,0.0,0.0,0.0,0.000196,0.0,0.0,0.0,0.0,0.0,0.0,0.000196,0.0,0.0,0.0,0.0,0.0,0.0,0.0001,0.0,0.0,0.0,0.0,0.0,0.0,0.0,0.0,0.0,0.0,0.0,0.0,0.0,0.0,0.0,0.0,0.0,0.0,0.0,0.0,0.0
1672943956841325624,104865,1672943956853402173,enu,-0.5842,-0.0588,-0.0249,0.0,0.0,0.0,0.000196,0.0,0.0,0.0,0.0,0.0,0.0,0.000196,0.0,0.0,0.0,0.0,0.0,0.0,0.0001,0.0,0.0,0.0,0.0,0.0,0.0,0.0,0.0,0.0,0.0,0.0,0.0,0.0,0.0,0.0,0.0,0.0,0.0,0.0,0.0,0.0
1672943956861301361,104866,1672943956873355333,enu,-0.6132,-0.0622,-0.0256,0.0,0.0,0.0,0.000196,0.0,0.0,0.0,0.0,0.0,0.0,0.000196,0.0,0.0,0.0,0.0,0.0,0.0,0.0001,0.0,0.0,0.0,0.0,0.0,0.0,0.0,0.0,0.0,0.0,0.0,0.0,0.0,0.0,0.0,0.0,0.0,0.0,0.0,0.0,0.0
1672943956881279131,104867,1672943956893371815,enu,-0.6471,-0.0649,-0.027,0.0,0.0,0.0,0.000196,0.0,0.0,0.0,0.0,0.0,0.0,0.000196,0.0,0.0,0.0,0.0,0.0,0.0,0.0001,0.0,0.0,0.0,0.0,0.0,0.0,0.0,0.0,0.0,0.0,0.0,0.0,0.0,0.0,0.0,0.0,0.0,0.0,0.0,0.0,0.0
1672943956901329523,104868,1672943956913342846,enu,-0.679,-0.0681,-0.0276,0.0,0.0,0.0,0.000196,0.0,0.0,0.0,0.0,0.0,0.0,0.000196,0.0,0.0,0.0,0.0,0.0,0.0,0.0001,0.0,0.0,0.0,0.0,0.0,0.0,0.0,0.0,0.0,0.0,0.0,0.0,0.0,0.0,0.0,0.0,0.0,0.0,0.0,0.0,0.0
1672943956921310411,104869,1672943956933329872,enu,-0.7128,-0.072,-0.0281,0.0,0.0,0.0,0.000196,0.0,0.0,0.0,0.0,0.0,0.0,0.000196,0.0,0.0,0.0,0.0,0.0,0.0,0.0001,0.0,0.0,0.0,0.0,0.0,0.0,0.0,0.0,0.0,0.0,0.0,0.0,0.0,0.0,0.0,0.0,0.0,0.0,0.0,0.0,0.0
1672943956941087900,104870,1672943956953285988,enu,-0.7479,-0.0751,-0.0283,0.0,0.0,0.0,0.000196,0.0,0.0,0.0,0.0,0.0,0.0,0.000196,0.0,0.0,0.0,0.0,0.0,0.0,0.0001,0.0,0.0,0.0,0.0,0.0,0.0,0.0,0.0,0.0,0.0,0.0,0.0,0.0,0.0,0.0,0.0,0.0,0.0,0.0,0.0,0.0
1672943956961027335,104871,1672943956973303622,enu,-0.7828,-0.0784,-0.0289,0.0,0.0,0.0,0.000196,0.0,0.0,0.0,0.0,0.0,0.0,0.000196,0.0,0.0,0.0,0.0,0.0,0.0,0.0001,0.0,0.0,0.0,0.0,0.0,0.0,0.0,0.0,0.0,0.0,0.0,0.0,0.0,0.0,0.0,0.0,0.0,0.0,0.0,0.0,0.0
1672943956981391388,104872,1672943956993307390,enu,-0.82,-0.0818,-0.0307,0.0,0.0,0.0,0.000196,0.0,0.0,0.0,0.0,0.0,0.0,0.000196,0.0,0.0,0.0,0.0,0.0,0.0,0.0001,0.0,0.0,0.0,0.0,0.0,0.0,0.0,0.0,0.0,0.0,0.0,0.0,0.0,0.0,0.0,0.0,0.0,0.0,0.0,0.0,0.0
1672943957001309037,104873,1672943957013321422,enu,-0.8567,-0.0855,-0.0311,0.0,0.0,0.0,0.000196,0.0,0.0,0.0,0.0,0.0,0.0,0.000196,0.0,0.0,0.0,0.0,0.0,0.0,0.0001,0.0,0.0,0.0,0.0,0.0,0.0,0.0,0.0,0.0,0.0,0.0,0.0,0.0,0.0,0.0,0.0,0.0,0.0,0.0,0.0,0.0
1672943957021377091,104874,1672943957033457220,enu,-0.8947,-0.0885,-0.0324,0.0,0.0,0.0,0.000196,0.0,0.0,0.0,0.0,0.0,0.0,0.000196,0.0,0.0,0.0,0.0,0.0,0.0,0.0001,0.0,0.0,0.0,0.0,0.0,0.0,0.0,0.0,0.0,0.0,0.0,0.0,0.0,0.0,0.0,0.0,0.0,0.0,0.0,0.0,0.0
1672943957041344744,104875,1672943957053419043,enu,-0.9331,-0.092,-0.0334,0.0,0.0,0.0,0.000196,0.0,0.0,0.0,0.0,0.0,0.0,0.000196,0.0,0.0,0.0,0.0,0.0,0.0,0.0001,0.0,0.0,0.0,0.0,0.0,0.0,0.0,0.0,0.0,0.0,0.0,0.0,0.0,0.0,0.0,0.0,0.0,0.0,0.0,0.0,0.0
1672943957061206796,104876,1672943957073334498,enu,-0.97,-0.0951,-0.0343,0.0,0.0,0.0,0.000196,0.0,0.0,0.0,0.0,0.0,0.0,0.000196,0.0,0.0,0.0,0.0,0.0,0.0,0.0001,0.0,0.0,0.0,0.0,0.0,0.0,0.0,0.0,0.0,0.0,0.0,0.0,0.0,0.0,0.0,0.0,0.0,0.0,0.0,0.0,0.0
1672943957081530633,104877,1672943957093476097,enu,-1.0093,-0.0986,-0.0356,0.0,0.0,0.0,0.000196,0.0,0.0,0.0,0.0,0.0,0.0,0.000196,0.0,0.0,0.0,0.0,0.0,0.0,0.0001,0.0,0.0,0.0,0.0,0.0,0.0,0.0,0.0,0.0,0.0,0.0,0.0,0.0,0.0,0.0,0.0,0.0,0.0,0.0,0.0,0.0
1672943957101524781,104878,1672943957113349090,enu,-1.0488,-0.1016,-0.0375,0.0,0.0,0.0,0.000196,0.0,0.0,0.0,0.0,0.0,0.0,0.000196,0.0,0.0,0.0,0.0,0.0,0.0,0.0001,0.0,0.0,0.0,0.0,0.0,0.0,0.0,0.0,0.0,0.0,0.0,0.0,0.0,0.0,0.0,0.0,0.0,0.0,0.0,0.0,0.0
1672943957121362354,104879,1672943957133367126,enu,-1.0868,-0.1035,-0.0387,0.0,0.0,0.0,0.000196,0.0,0.0,0.0,0.0,0.0,0.0,0.000196,0.0,0.0,0.0,0.0,0.0,0.0,0.0001,0.0,0.0,0.0,0.0,0.0,0.0,0.0,0.0,0.0,0.0,0.0,0.0,0.0,0.0,0.0,0.0,0.0,0.0,0.0,0.0,0.0
1672943957141334791,104880,1672943957153449073,enu,-1.1249,-0.1054,-0.039,0.0,0.0,0.0,0.000196,0.0,0.0,0.0,0.0,0.0,0.0,0.000196,0.0,0.0,0.0,0.0,0.0,0.0,0.0001,0.0,0.0,0.0,0.0,0.0,0.0,0.0,0.0,0.0,0.0,0.0,0.0,0.0,0.0,0.0,0.0,0.0,0.0,0.0,0.0,0.0
1672943957161436554,104881,1672943957173425582,enu,-1.1621,-0.1079,-0.0395,0.0,0.0,0.0,0.000196,0.0,0.0,0.0,0.0,0.0,0.0,0.000196,0.0,0.0,0.0,0.0,0.0,0.0,0.0001,0.0,0.0,0.0,0.0,0.0,0.0,0.0,0.0,0.0,0.0,0.0,0.0,0.0,0.0,0.0,0.0,0.0,0.0,0.0,0.0,0.0
1672943957181457358,104882,1672943957193329445,enu,-1.2012,-0.1101,-0.0401,0.0,0.0,0.0,0.000196,0.0,0.0,0.0,0.0,0.0,0.0,0.000196,0.0,0.0,0.0,0.0,0.0,0.0,0.0001,0.0,0.0,0.0,0.0,0.0,0.0,0.0,0.0,0.0,0.0,0.0,0.0,0.0,0.0,0.0,0.0,0.0,0.0,0.0,0.0,0.0
1672943957201215907,104883,1672943957213442208,enu,-1.24,-0.1127,-0.041,0.0,0.0,0.0,0.000196,0.0,0.0,0.0,0.0,0.0,0.0,0.000196,0.0,0.0,0.0,0.0,0.0,0.0,0.0001,0.0,0.0,0.0,0.0,0.0,0.0,0.0,0.0,0.0,0.0,0.0,0.0,0.0,0.0,0.0,0.0,0.0,0.0,0.0,0.0,0.0
1672943957221413020,104884,1672943957233416053,enu,-1.2769,-0.1144,-0.0411,0.0,0.0,0.0,0.000196,0.0,0.0,0.0,0.0,0.0,0.0,0.000196,0.0,0.0,0.0,0.0,0.0,0.0,0.0001,0.0,0.0,0.0,0.0,0.0,0.0,0.0,0.0,0.0,0.0,0.0,0.0,0.0,0.0,0.0,0.0,0.0,0.0,0.0,0.0,0.0
1672943957241162550,104885,1672943957253334433,enu,-1.3168,-0.1165,-0.0422,0.0,0.0,0.0,0.000196,0.0,0.0,0.0,0.0,0.0,0.0,0.000196,0.0,0.0,0.0,0.0,0.0,0.0,0.0001,0.0,0.0,0.0,0.0,0.0,0.0,0.0,0.0,0.0,0.0,0.0,0.0,0.0,0.0,0.0,0.0,0.0,0.0,0.0,0.0,0.0
1672943957261487713,104886,1672943957273380207,enu,-1.3539,-0.1188,-0.0429,0.0,0.0,0.0,0.000196,0.0,0.0,0.0,0.0,0.0,0.0,0.000196,0.0,0.0,0.0,0.0,0.0,0.0,0.0001,0.0,0.0,0.0,0.0,0.0,0.0,0.0,0.0,0.0,0.0,0.0,0.0,0.0,0.0,0.0,0.0,0.0,0.0,0.0,0.0,0.0
1672943957281510266,104887,1672943957293477165,enu,-1.3922,-0.1206,-0.0444,0.0,0.0,0.0,0.000196,0.0,0.0,0.0,0.0,0.0,0.0,0.000196,0.0,0.0,0.0,0.0,0.0,0.0,0.0001,0.0,0.0,0.0,0.0,0.0,0.0,0.0,0.0,0.0,0.0,0.0,0.0,0.0,0.0,0.0,0.0,0.0,0.0,0.0,0.0,0.0
1672943957301510427,104888,1672943957313313710,enu,-1.4334,-0.1218,-0.0451,0.0,0.0,0.0,0.000196,0.0,0.0,0.0,0.0,0.0,0.0,0.000196,0.0,0.0,0.0,0.0,0.0,0.0,0.0001,0.0,0.0,0.0,0.0,0.0,0.0,0.0,0.0,0.0,0.0,0.0,0.0,0.0,0.0,0.0,0.0,0.0,0.0,0.0,0.0,0.0
1672943957321205972,104889,1672943957333366808,enu,-1.4713,-0.1219,-0.0453,0.0,0.0,0.0,0.000196,0.0,0.0,0.0,0.0,0.0,0.0,0.000196,0.0,0.0,0.0,0.0,0.0,0.0,0.0001,0.0,0.0,0.0,0.0,0.0,0.0,0.0,0.0,0.0,0.0,0.0,0.0,0.0,0.0,0.0,0.0,0.0,0.0,0.0,0.0,0.0
1672943957341287008,104890,1672943957353423873,enu,-1.5109,-0.1244,-0.0465,0.0,0.0,0.0,0.000196,0.0,0.0,0.0,0.0,0.0,0.0,0.000196,0.0,0.0,0.0,0.0,0.0,0.0,0.0001,0.0,0.0,0.0,0.0,0.0,0.0,0.0,0.0,0.0,0.0,0.0,0.0,0.0,0.0,0.0,0.0,0.0,0.0,0.0,0.0,0.0
1672943957361291718,104891,1672943957373358804,enu,-1.5498,-0.1255,-0.0463,0.0,0.0,0.0,0.000196,0.0,0.0,0.0,0.0,0.0,0.0,0.000196,0.0,0.0,0.0,0.0,0.0,0.0,0.0001,0.0,0.0,0.0,0.0,0.0,0.0,0.0,0.0,0.0,0.0,0.0,0.0,0.0,0.0,0.0,0.0,0.0,0.0,0.0,0.0,0.0
1672943957381086105,104892,1672943957393400651,enu,-1.5901,-0.1278,-0.049,0.0,0.0,0.0,0.000196,0.0,0.0,0.0,0.0,0.0,0.0,0.000196,0.0,0.0,0.0,0.0,0.0,0.0,0.0001,0.0,0.0,0.0,0.0,0.0,0.0,0.0,0.0,0.0,0.0,0.0,0.0,0.0,0.0,0.0,0.0,0.0,0.0,0.0,0.0,0.0
1672943957401397284,104893,1672943957413406537,enu,-1.6273,-0.1302,-0.0523,0.0,0.0,0.0,0.000196,0.0,0.0,0.0,0.0,0.0,0.0,0.000196,0.0,0.0,0.0,0.0,0.0,0.0,0.0001,0.0,0.0,0.0,0.0,0.0,0.0,0.0,0.0,0.0,0.0,0.0,0.0,0.0,0.0,0.0,0.0,0.0,0.0,0.0,0.0,0.0
1672943957421417082,104894,1672943957433349767,enu,-1.6647,-0.132,-0.0546,0.0,0.0,0.0,0.000196,0.0,0.0,0.0,0.0,0.0,0.0,0.000196,0.0,0.0,0.0,0.0,0.0,0.0,0.0001,0.0,0.0,0.0,0.0,0.0,0.0,0.0,0.0,0.0,0.0,0.0,0.0,0.0,0.0,0.0,0.0,0.0,0.0,0.0,0.0,0.0
1672943957441548680,104895,1672943957453398138,enu,-1.7063,-0.1336,-0.0567,0.0,0.0,0.0,0.000196,0.0,0.0,0.0,0.0,0.0,0.0,0.000196,0.0,0.0,0.0,0.0,0.0,0.0,0.0001,0.0,0.0,0.0,0.0,0.0,0.0,0.0,0.0,0.0,0.0,0.0,0.0,0.0,0.0,0.0,0.0,0.0,0.0,0.0,0.0,0.0
1672943957461566857,104896,1672943957473411995,enu,-1.741,-0.1339,-0.0577,0.0,0.0,0.0,0.000196,0.0,0.0,0.0,0.0,0.0,0.0,0.000196,0.0,0.0,0.0,0.0,0.0,0.0,0.0001,0.0,0.0,0.0,0.0,0.0,0.0,0.0,0.0,0.0,0.0,0.0,0.0,0.0,0.0,0.0,0.0,0.0,0.0,0.0,0.0,0.0
1672943957481260829,104897,1672943957493339342,enu,-1.7803,-0.1348,-0.0604,0.0,0.0,0.0,0.000196,0.0,0.0,0.0,0.0,0.0,0.0,0.000196,0.0,0.0,0.0,0.0,0.0,0.0,0.0001,0.0,0.0,0.0,0.0,0.0,0.0,0.0,0.0,0.0,0.0,0.0,0.0,0.0,0.0,0.0,0.0,0.0,0.0,0.0,0.0,0.0
1672943957501277185,104898,1672943957513432785,enu,-1.8227,-0.1345,-0.0619,0.0,0.0,0.0,0.000196,0.0,0.0,0.0,0.0,0.0,0.0,0.000196,0.0,0.0,0.0,0.0,0.0,0.0,0.0001,0.0,0.0,0.0,0.0,0.0,0.0,0.0,0.0,0.0,0.0,0.0,0.0,0.0,0.0,0.0,0.0,0.0,0.0,0.0,0.0,0.0
1672943957521534602,104899,1672943957533537402,enu,-1.8602,-0.1313,-0.0645,0.0,0.0,0.0,0.000196,0.0,0.0,0.0,0.0,0.0,0.0,0.000196,0.0,0.0,0.0,0.0,0.0,0.0,0.0001,0.0,0.0,0.0,0.0,0.0,0.0,0.0,0.0,0.0,0.0,0.0,0.0,0.0,0.0,0.0,0.0,0.0,0.0,0.0,0.0,0.0
1672943957541367469,104900,1672943957553445317,enu,-1.8991,-0.1281,-0.0695,0.0,0.0,0.0,0.000196,0.0,0.0,0.0,0.0,0.0,0.0,0.000196,0.0,0.0,0.0,0.0,0.0,0.0,0.0001,0.0,0.0,0.0,0.0,0.0,0.0,0.0,0.0,0.0,0.0,0.0,0.0,0.0,0.0,0.0,0.0,0.0,0.0,0.0,0.0,0.0
1672943957561446963,104901,1672943957573516353,enu,-1.9459,-0.1235,-0.0712,0.0,0.0,0.0,0.000196,0.0,0.0,0.0,0.0,0.0,0.0,0.000196,0.0,0.0,0.0,0.0,0.0,0.0,0.0001,0.0,0.0,0.0,0.0,0.0,0.0,0.0,0.0,0.0,0.0,0.0,0.0,0.0,0.0,0.0,0.0,0.0,0.0,0.0,0.0,0.0
1672943957581416351,104902,1672943957593420956,enu,-1.9793,-0.1223,-0.0715,0.0,0.0,0.0,0.000196,0.0,0.0,0.0,0.0,0.0,0.0,0.000196,0.0,0.0,0.0,0.0,0.0,0.0,0.0001,0.0,0.0,0.0,0.0,0.0,0.0,0.0,0.0,0.0,0.0,0.0,0.0,0.0,0.0,0.0,0.0,0.0,0.0,0.0,0.0,0.0
1672943957601427371,104903,1672943957613570743,enu,-2.0183,-0.1204,-0.0757,0.0,0.0,0.0,0.000196,0.0,0.0,0.0,0.0,0.0,0.0,0.000196,0.0,0.0,0.0,0.0,0.0,0.0,0.0001,0.0,0.0,0.0,0.0,0.0,0.0,0.0,0.0,0.0,0.0,0.0,0.0,0.0,0.0,0.0,0.0,0.0,0.0,0.0,0.0,0.0
1672943957621318514,104904,1672943957633410749,enu,-2.0596,-0.1196,-0.0736,0.0,0.0,0.0,0.000196,0.0,0.0,0.0,0.0,0.0,0.0,0.000196,0.0,0.0,0.0,0.0,0.0,0.0,0.0001,0.0,0.0,0.0,0.0,0.0,0.0,0.0,0.0,0.0,0.0,0.0,0.0,0.0,0.0,0.0,0.0,0.0,0.0,0.0,0.0,0.0
1672943957641215555,104905,1672943957653355742,enu,-2.0952,-0.1208,-0.0703,0.0,0.0,0.0,0.000196,0.0,0.0,0.0,0.0,0.0,0.0,0.000196,0.0,0.0,0.0,0.0,0.0,0.0,0.0001,0.0,0.0,0.0,0.0,0.0,0.0,0.0,0.0,0.0,0.0,0.0,0.0,0.0,0.0,0.0,0.0,0.0,0.0,0.0,0.0,0.0
1672943957661100786,104906,1672943957673311884,enu,-2.1319,-0.1225,-0.0673,0.0,0.0,0.0,0.000196,0.0,0.0,0.0,0.0,0.0,0.0,0.000196,0.0,0.0,0.0,0.0,0.0,0.0,0.0001,0.0,0.0,0.0,0.0,0.0,0.0,0.0,0.0,0.0,0.0,0.0,0.0,0.0,0.0,0.0,0.0,0.0,0.0,0.0,0.0,0.0
1672943957681483367,104907,1672943957693530134,enu,-2.1636,-0.1248,-0.0609,0.0,0.0,0.0,0.000196,0.0,0.0,0.0,0.0,0.0,0.0,0.000196,0.0,0.0,0.0,0.0,0.0,0.0,0.0001,0.0,0.0,0.0,0.0,0.0,0.0,0.0,0.0,0.0,0.0,0.0,0.0,0.0,0.0,0.0,0.0,0.0,0.0,0.0,0.0,0.0
1672943957701454161,104908,1672943957713361279,enu,-2.2024,-0.1263,-0.0542,0.0,0.0,0.0,0.000196,0.0,0.0,0.0,0.0,0.0,0.0,0.000196,0.0,0.0,0.0,0.0,0.0,0.0,0.0001,0.0,0.0,0.0,0.0,0.0,0.0,0.0,0.0,0.0,0.0,0.0,0.0,0.0,0.0,0.0,0.0,0.0,0.0,0.0,0.0,0.0
1672943957721488892,104909,1672943957733303889,enu,-2.2375,-0.1239,-0.0475,0.0,0.0,0.0,0.000196,0.0,0.0,0.0,0.0,0.0,0.0,0.000196,0.0,0.0,0.0,0.0,0.0,0.0,0.0001,0.0,0.0,0.0,0.0,0.0,0.0,0.0,0.0,0.0,0.0,0.0,0.0,0.0,0.0,0.0,0.0,0.0,0.0,0.0,0.0,0.0
1672943957741291415,104910,1672943957753359838,enu,-2.2723,-0.1253,-0.0416,0.0,0.0,0.0,0.000196,0.0,0.0,0.0,0.0,0.0,0.0,0.000196,0.0,0.0,0.0,0.0,0.0,0.0,0.0001,0.0,0.0,0.0,0.0,0.0,0.0,0.0,0.0,0.0,0.0,0.0,0.0,0.0,0.0,0.0,0.0,0.0,0.0,0.0,0.0,0.0
1672943957761430544,104911,1672943957773420491,enu,-2.3046,-0.1198,-0.0368,0.0,0.0,0.0,0.000196,0.0,0.0,0.0,0.0,0.0,0.0,0.000196,0.0,0.0,0.0,0.0,0.0,0.0,0.0001,0.0,0.0,0.0,0.0,0.0,0.0,0.0,0.0,0.0,0.0,0.0,0.0,0.0,0.0,0.0,0.0,0.0,0.0,0.0,0.0,0.0
1672943957781189749,104912,1672943957793429615,enu,-2.3416,-0.1162,-0.0311,0.0,0.0,0.0,0.000196,0.0,0.0,0.0,0.0,0.0,0.0,0.000196,0.0,0.0,0.0,0.0,0.0,0.0,0.0001,0.0,0.0,0.0,0.0,0.0,0.0,0.0,0.0,0.0,0.0,0.0,0.0,0.0,0.0,0.0,0.0,0.0,0.0,0.0,0.0,0.0
1672943957801396680,104913,1672943957813397011,enu,-2.3793,-0.1139,-0.0288,0.0,0.0,0.0,0.000169,0.0,0.0,0.0,0.0,0.0,0.0,0.000169,0.0,0.0,0.0,0.0,0.0,0.0,0.0001,0.0,0.0,0.0,0.0,0.0,0.0,0.0,0.0,0.0,0.0,0.0,0.0,0.0,0.0,0.0,0.0,0.0,0.0,0.0,0.0,0.0
1672943957821520588,104914,1672943957833379696,enu,-2.4084,-0.11,-0.0258,0.0,0.0,0.0,0.000169,0.0,0.0,0.0,0.0,0.0,0.0,0.000169,0.0,0.0,0.0,0.0,0.0,0.0,0.0001,0.0,0.0,0.0,0.0,0.0,0.0,0.0,0.0,0.0,0.0,0.0,0.0,0.0,0.0,0.0,0.0,0.0,0.0,0.0,0.0,0.0
1672943957841067315,104915,1672943957853273604,enu,-2.4456,-0.1053,-0.0303,0.0,0.0,0.0,0.000169,0.0,0.0,0.0,0.0,0.0,0.0,0.000169,0.0,0.0,0.0,0.0,0.0,0.0,0.0001,0.0,0.0,0.0,0.0,0.0,0.0,0.0,0.0,0.0,0.0,0.0,0.0,0.0,0.0,0.0,0.0,0.0,0.0,0.0,0.0,0.0
1672943957861592513,104916,1672943957873398028,enu,-2.4783,-0.1029,-0.0318,0.0,0.0,0.0,0.000169,0.0,0.0,0.0,0.0,0.0,0.0,0.000169,0.0,0.0,0.0,0.0,0.0,0.0,0.0001,0.0,0.0,0.0,0.0,0.0,0.0,0.0,0.0,0.0,0.0,0.0,0.0,0.0,0.0,0.0,0.0,0.0,0.0,0.0,0.0,0.0
1672943957881402443,104917,1672943957893323726,enu,-2.5159,-0.1015,-0.0381,0.0,0.0,0.0,0.000169,0.0,0.0,0.0,0.0,0.0,0.0,0.000169,0.0,0.0,0.0,0.0,0.0,0.0,0.0001,0.0,0.0,0.0,0.0,0.0,0.0,0.0,0.0,0.0,0.0,0.0,0.0,0.0,0.0,0.0,0.0,0.0,0.0,0.0,0.0,0.0
1672943957901403233,104918,1672943957913345908,enu,-2.5453,-0.1012,-0.0434,0.0,0.0,0.0,0.000169,0.0,0.0,0.0,0.0,0.0,0.0,0.000169,0.0,0.0,0.0,0.0,0.0,0.0,0.0001,0.0,0.0,0.0,0.0,0.0,0.0,0.0,0.0,0.0,0.0,0.0,0.0,0.0,0.0,0.0,0.0,0.0,0.0,0.0,0.0,0.0
1672943957921241688,104919,1672943957933379635,enu,-2.5825,-0.0975,-0.0527,0.0,0.0,0.0,0.000169,0.0,0.0,0.0,0.0,0.0,0.0,0.000169,0.0,0.0,0.0,0.0,0.0,0.0,0.0001,0.0,0.0,0.0,0.0,0.0,0.0,0.0,0.0,0.0,0.0,0.0,0.0,0.0,0.0,0.0,0.0,0.0,0.0,0.0,0.0,0.0
1672943957941152935,104920,1672943957953361354,enu,-2.6091,-0.0959,-0.0576,0.0,0.0,0.0,0.000169,0.0,0.0,0.0,0.0,0.0,0.0,0.000169,0.0,0.0,0.0,0.0,0.0,0.0,0.0001,0.0,0.0,0.0,0.0,0.0,0.0,0.0,0.0,0.0,0.0,0.0,0.0,0.0,0.0,0.0,0.0,0.0,0.0,0.0,0.0,0.0
1672943957961675673,104921,1672943957973384889,enu,-2.6464,-0.0957,-0.0628,0.0,0.0,0.0,0.000169,0.0,0.0,0.0,0.0,0.0,0.0,0.000169,0.0,0.0,0.0,0.0,0.0,0.0,0.0001,0.0,0.0,0.0,0.0,0.0,0.0,0.0,0.0,0.0,0.0,0.0,0.0,0.0,0.0,0.0,0.0,0.0,0.0,0.0,0.0,0.0
1672943957981559356,104922,1672943957993371514,enu,-2.6746,-0.0962,-0.0625,0.0,0.0,0.0,0.000169,0.0,0.0,0.0,0.0,0.0,0.0,0.000169,0.0,0.0,0.0,0.0,0.0,0.0,0.0001,0.0,0.0,0.0,0.0,0.0,0.0,0.0,0.0,0.0,0.0,0.0,0.0,0.0,0.0,0.0,0.0,0.0,0.0,0.0,0.0,0.0
1672943958001256039,104923,1672943958013349773,enu,-2.71,-0.0924,-0.066,0.0,0.0,0.0,0.000169,0.0,0.0,0.0,0.0,0.0,0.0,0.000169,0.0,0.0,0.0,0.0,0.0,0.0,0.0001,0.0,0.0,0.0,0.0,0.0,0.0,0.0,0.0,0.0,0.0,0.0,0.0,0.0,0.0,0.0,0.0,0.0,0.0,0.0,0.0,0.0
1672943958021201128,104924,1672943958033360874,enu,-2.738,-0.092,-0.0651,0.0,0.0,0.0,0.000169,0.0,0.0,0.0,0.0,0.0,0.0,0.000169,0.0,0.0,0.0,0.0,0.0,0.0,0.0001,0.0,0.0,0.0,0.0,0.0,0.0,0.0,0.0,0.0,0.0,0.0,0.0,0.0,0.0,0.0,0.0,0.0,0.0,0.0,0.0,0.0
1672943958041355583,104925,1672943958053557898,enu,-2.7742,-0.0891,-0.0689,0.0,0.0,0.0,0.000169,0.0,0.0,0.0,0.0,0.0,0.0,0.000169,0.0,0.0,0.0,0.0,0.0,0.0,0.0001,0.0,0.0,0.0,0.0,0.0,0.0,0.0,0.0,0.0,0.0,0.0,0.0,0.0,0.0,0.0,0.0,0.0,0.0,0.0,0.0,0.0
1672943958061161881,104926,1672943958073376523,enu,-2.8033,-0.0877,-0.0651,0.0,0.0,0.0,0.000169,0.0,0.0,0.0,0.0,0.0,0.0,0.000169,0.0,0.0,0.0,0.0,0.0,0.0,0.0001,0.0,0.0,0.0,0.0,0.0,0.0,0.0,0.0,0.0,0.0,0.0,0.0,0.0,0.0,0.0,0.0,0.0,0.0,0.0,0.0,0.0
1672943958081531033,104927,1672943958093441437,enu,-2.8341,-0.0847,-0.066,0.0,0.0,0.0,0.000169,0.0,0.0,0.0,0.0,0.0,0.0,0.000169,0.0,0.0,0.0,0.0,0.0,0.0,0.0001,0.0,0.0,0.0,0.0,0.0,0.0,0.0,0.0,0.0,0.0,0.0,0.0,0.0,0.0,0.0,0.0,0.0,0.0,0.0,0.0,0.0
1672943958101537358,104928,1672943958113553660,enu,-2.8563,-0.0814,-0.0533,0.0,0.0,0.0,0.000169,0.0,0.0,0.0,0.0,0.0,0.0,0.000169,0.0,0.0,0.0,0.0,0.0,0.0,0.0001,0.0,0.0,0.0,0.0,0.0,0.0,0.0,0.0,0.0,0.0,0.0,0.0,0.0,0.0,0.0,0.0,0.0,0.0,0.0,0.0,0.0
1672943958121358522,104929,1672943958133363955,enu,-2.882,-0.0837,-0.0413,0.0,0.0,0.0,0.000169,0.0,0.0,0.0,0.0,0.0,0.0,0.000169,0.0,0.0,0.0,0.0,0.0,0.0,0.0001,0.0,0.0,0.0,0.0,0.0,0.0,0.0,0.0,0.0,0.0,0.0,0.0,0.0,0.0,0.0,0.0,0.0,0.0,0.0,0.0,0.0
1672943958141372199,104930,1672943958153383460,enu,-2.9173,-0.0726,-0.0371,0.0,0.0,0.0,0.000169,0.0,0.0,0.0,0.0,0.0,0.0,0.000169,0.0,0.0,0.0,0.0,0.0,0.0,0.0001,0.0,0.0,0.0,0.0,0.0,0.0,0.0,0.0,0.0,0.0,0.0,0.0,0.0,0.0,0.0,0.0,0.0,0.0,0.0,0.0,0.0
1672943958161357252,104931,1672943958173359959,enu,-2.9564,-0.0622,-0.0339,0.0,0.0,0.0,0.000169,0.0,0.0,0.0,0.0,0.0,0.0,0.000169,0.0,0.0,0.0,0.0,0.0,0.0,0.0001,0.0,0.0,0.0,0.0,0.0,0.0,0.0,0.0,0.0,0.0,0.0,0.0,0.0,0.0,0.0,0.0,0.0,0.0,0.0,0.0,0.0
1672943958181211420,104932,1672943958193289461,enu,-2.99,-0.0596,-0.0349,0.0,0.0,0.0,0.000169,0.0,0.0,0.0,0.0,0.0,0.0,0.000169,0.0,0.0,0.0,0.0,0.0,0.0,0.0001,0.0,0.0,0.0,0.0,0.0,0.0,0.0,0.0,0.0,0.0,0.0,0.0,0.0,0.0,0.0,0.0,0.0,0.0,0.0,0.0,0.0
1672943958201272070,104933,1672943958213369420,enu,-3.0116,-0.0565,-0.0388,0.0,0.0,0.0,0.000169,0.0,0.0,0.0,0.0,0.0,0.0,0.000169,0.0,0.0,0.0,0.0,0.0,0.0,0.0001,0.0,0.0,0.0,0.0,0.0,0.0,0.0,0.0,0.0,0.0,0.0,0.0,0.0,0.0,0.0,0.0,0.0,0.0,0.0,0.0,0.0
1672943958221492866,104934,1672943958233397773,enu,-3.0467,-0.0416,-0.0529,0.0,0.0,0.0,0.000169,0.0,0.0,0.0,0.0,0.0,0.0,0.000169,0.0,0.0,0.0,0.0,0.0,0.0,0.0001,0.0,0.0,0.0,0.0,0.0,0.0,0.0,0.0,0.0,0.0,0.0,0.0,0.0,0.0,0.0,0.0,0.0,0.0,0.0,0.0,0.0
1672943958241053776,104935,1672943958253332545,enu,-3.077,-0.0297,-0.0569,0.0,0.0,0.0,0.000169,0.0,0.0,0.0,0.0,0.0,0.0,0.000169,0.0,0.0,0.0,0.0,0.0,0.0,0.0001,0.0,0.0,0.0,0.0,0.0,0.0,0.0,0.0,0.0,0.0,0.0,0.0,0.0,0.0,0.0,0.0,0.0,0.0,0.0,0.0,0.0
1672943958261281603,104936,1672943958273328448,enu,-3.1161,-0.0256,-0.071,0.0,0.0,0.0,0.000169,0.0,0.0,0.0,0.0,0.0,0.0,0.000169,0.0,0.0,0.0,0.0,0.0,0.0,0.0001,0.0,0.0,0.0,0.0,0.0,0.0,0.0,0.0,0.0,0.0,0.0,0.0,0.0,0.0,0.0,0.0,0.0,0.0,0.0,0.0,0.0
1672943958281492627,104937,1672943958293470996,enu,-3.1431,-0.0198,-0.0782,0.0,0.0,0.0,0.000169,0.0,0.0,0.0,0.0,0.0,0.0,0.000169,0.0,0.0,0.0,0.0,0.0,0.0,0.0001,0.0,0.0,0.0,0.0,0.0,0.0,0.0,0.0,0.0,0.0,0.0,0.0,0.0,0.0,0.0,0.0,0.0,0.0,0.0,0.0,0.0
1672943958301370327,104938,1672943958313404894,enu,-3.1711,-0.0162,-0.0891,0.0,0.0,0.0,0.000169,0.0,0.0,0.0,0.0,0.0,0.0,0.000169,0.0,0.0,0.0,0.0,0.0,0.0,0.0001,0.0,0.0,0.0,0.0,0.0,0.0,0.0,0.0,0.0,0.0,0.0,0.0,0.0,0.0,0.0,0.0,0.0,0.0,0.0,0.0,0.0
1672943958321436090,104939,1672943958333345458,enu,-3.205,-0.0068,-0.1007,0.0,0.0,0.0,0.000169,0.0,0.0,0.0,0.0,0.0,0.0,0.000169,0.0,0.0,0.0,0.0,0.0,0.0,0.0001,0.0,0.0,0.0,0.0,0.0,0.0,0.0,0.0,0.0,0.0,0.0,0.0,0.0,0.0,0.0,0.0,0.0,0.0,0.0,0.0,0.0
1672943958341279668,104940,1672943958353337472,enu,-3.2421,-0.005,-0.1117,0.0,0.0,0.0,0.000169,0.0,0.0,0.0,0.0,0.0,0.0,0.000169,0.0,0.0,0.0,0.0,0.0,0.0,0.0001,0.0,0.0,0.0,0.0,0.0,0.0,0.0,0.0,0.0,0.0,0.0,0.0,0.0,0.0,0.0,0.0,0.0,0.0,0.0,0.0,0.0
1672943958361375772,104941,1672943958373325280,enu,-3.2766,-0.0021,-0.1161,0.0,0.0,0.0,0.000169,0.0,0.0,0.0,0.0,0.0,0.0,0.000169,0.0,0.0,0.0,0.0,0.0,0.0,0.0001,0.0,0.0,0.0,0.0,0.0,0.0,0.0,0.0,0.0,0.0,0.0,0.0,0.0,0.0,0.0,0.0,0.0,0.0,0.0,0.0,0.0
1672943958381407946,104942,1672943958393356679,enu,-3.3029,0.0039,-0.1225,0.0,0.0,0.0,0.000169,0.0,0.0,0.0,0.0,0.0,0.0,0.000169,0.0,0.0,0.0,0.0,0.0,0.0,0.0001,0.0,0.0,0.0,0.0,0.0,0.0,0.0,0.0,0.0,0.0,0.0,0.0,0.0,0.0,0.0,0.0,0.0,0.0,0.0,0.0,0.0
1672943958401404561,104943,1672943958413413115,enu,-3.3403,0.0074,-0.125,0.0,0.0,0.0,0.000169,0.0,0.0,0.0,0.0,0.0,0.0,0.000169,0.0,0.0,0.0,0.0,0.0,0.0,0.0001,0.0,0.0,0.0,0.0,0.0,0.0,0.0,0.0,0.0,0.0,0.0,0.0,0.0,0.0,0.0,0.0,0.0,0.0,0.0,0.0,0.0
1672943958421465622,104944,1672943958433457900,enu,-3.3719,0.0141,-0.1269,0.0,0.0,0.0,0.000169,0.0,0.0,0.0,0.0,0.0,0.0,0.000169,0.0,0.0,0.0,0.0,0.0,0.0,0.0001,0.0,0.0,0.0,0.0,0.0,0.0,0.0,0.0,0.0,0.0,0.0,0.0,0.0,0.0,0.0,0.0,0.0,0.0,0.0,0.0,0.0
1672943958441309007,104945,1672943958453331032,enu,-3.4031,0.0205,-0.1251,0.0,0.0,0.0,0.000169,0.0,0.0,0.0,0.0,0.0,0.0,0.000169,0.0,0.0,0.0,0.0,0.0,0.0,0.0001,0.0,0.0,0.0,0.0,0.0,0.0,0.0,0.0,0.0,0.0,0.0,0.0,0.0,0.0,0.0,0.0,0.0,0.0,0.0,0.0,0.0
1672943958461351988,104946,1672943958473392105,enu,-3.4431,0.0248,-0.1268,0.0,0.0,0.0,0.000169,0.0,0.0,0.0,0.0,0.0,0.0,0.000169,0.0,0.0,0.0,0.0,0.0,0.0,0.0001,0.0,0.0,0.0,0.0,0.0,0.0,0.0,0.0,0.0,0.0,0.0,0.0,0.0,0.0,0.0,0.0,0.0,0.0,0.0,0.0,0.0
1672943958481189889,104947,1672943958493322830,enu,-3.4736,0.0331,-0.1231,0.0,0.0,0.0,0.000169,0.0,0.0,0.0,0.0,0.0,0.0,0.000169,0.0,0.0,0.0,0.0,0.0,0.0,0.0001,0.0,0.0,0.0,0.0,0.0,0.0,0.0,0.0,0.0,0.0,0.0,0.0,0.0,0.0,0.0,0.0,0.0,0.0,0.0,0.0,0.0
1672943958501453678,104948,1672943958513392538,enu,-3.5041,0.0382,-0.1206,0.0,0.0,0.0,0.000169,0.0,0.0,0.0,0.0,0.0,0.0,0.000169,0.0,0.0,0.0,0.0,0.0,0.0,0.0001,0.0,0.0,0.0,0.0,0.0,0.0,0.0,0.0,0.0,0.0,0.0,0.0,0.0,0.0,0.0,0.0,0.0,0.0,0.0,0.0,0.0
1672943958521126743,104949,1672943958533465537,enu,-3.5419,0.0433,-0.124,0.0,0.0,0.0,0.000169,0.0,0.0,0.0,0.0,0.0,0.0,0.000169,0.0,0.0,0.0,0.0,0.0,0.0,0.0001,0.0,0.0,0.0,0.0,0.0,0.0,0.0,0.0,0.0,0.0,0.0,0.0,0.0,0.0,0.0,0.0,0.0,0.0,0.0,0.0,0.0
1672943958541462607,104950,1672943958553322694,enu,-3.5717,0.0534,-0.1186,0.0,0.0,0.0,0.000169,0.0,0.0,0.0,0.0,0.0,0.0,0.000169,0.0,0.0,0.0,0.0,0.0,0.0,0.0001,0.0,0.0,0.0,0.0,0.0,0.0,0.0,0.0,0.0,0.0,0.0,0.0,0.0,0.0,0.0,0.0,0.0,0.0,0.0,0.0,0.0
1672943958561323337,104951,1672943958573426022,enu,-3.6046,0.0535,-0.1127,0.0,0.0,0.0,0.000169,0.0,0.0,0.0,0.0,0.0,0.0,0.000169,0.0,0.0,0.0,0.0,0.0,0.0,0.0001,0.0,0.0,0.0,0.0,0.0,0.0,0.0,0.0,0.0,0.0,0.0,0.0,0.0,0.0,0.0,0.0,0.0,0.0,0.0,0.0,0.0
1672943958581342202,104952,1672943958593437566,enu,-3.6422,0.0538,-0.1119,0.0,0.0,0.0,0.000169,0.0,0.0,0.0,0.0,0.0,0.0,0.000169,0.0,0.0,0.0,0.0,0.0,0.0,0.0001,0.0,0.0,0.0,0.0,0.0,0.0,0.0,0.0,0.0,0.0,0.0,0.0,0.0,0.0,0.0,0.0,0.0,0.0,0.0,0.0,0.0
1672943958601338394,104953,1672943958613352077,enu,-3.674,0.0649,-0.1123,0.0,0.0,0.0,0.000169,0.0,0.0,0.0,0.0,0.0,0.0,0.000169,0.0,0.0,0.0,0.0,0.0,0.0,0.0001,0.0,0.0,0.0,0.0,0.0,0.0,0.0,0.0,0.0,0.0,0.0,0.0,0.0,0.0,0.0,0.0,0.0,0.0,0.0,0.0,0.0
1672943958621211723,104954,1672943958633429165,enu,-3.7034,0.0685,-0.1095,0.0,0.0,0.0,0.000169,0.0,0.0,0.0,0.0,0.0,0.0,0.000169,0.0,0.0,0.0,0.0,0.0,0.0,0.0001,0.0,0.0,0.0,0.0,0.0,0.0,0.0,0.0,0.0,0.0,0.0,0.0,0.0,0.0,0.0,0.0,0.0,0.0,0.0,0.0,0.0
1672943958641414991,104955,1672943958653409047,enu,-3.7396,0.0663,-0.1074,0.0,0.0,0.0,0.000169,0.0,0.0,0.0,0.0,0.0,0.0,0.000169,0.0,0.0,0.0,0.0,0.0,0.0,0.0001,0.0,0.0,0.0,0.0,0.0,0.0,0.0,0.0,0.0,0.0,0.0,0.0,0.0,0.0,0.0,0.0,0.0,0.0,0.0,0.0,0.0
1672943958661040760,104956,1672943958673296656,enu,-3.7744,0.0788,-0.1153,0.0,0.0,0.0,0.000169,0.0,0.0,0.0,0.0,0.0,0.0,0.000169,0.0,0.0,0.0,0.0,0.0,0.0,0.0001,0.0,0.0,0.0,0.0,0.0,0.0,0.0,0.0,0.0,0.0,0.0,0.0,0.0,0.0,0.0,0.0,0.0,0.0,0.0,0.0,0.0
1672943958681381434,104957,1672943958693341056,enu,-3.8189,0.0932,-0.1236,0.0,0.0,0.0,0.000169,0.0,0.0,0.0,0.0,0.0,0.0,0.000169,0.0,0.0,0.0,0.0,0.0,0.0,0.0001,0.0,0.0,0.0,0.0,0.0,0.0,0.0,0.0,0.0,0.0,0.0,0.0,0.0,0.0,0.0,0.0,0.0,0.0,0.0,0.0,0.0
1672943958701461824,104958,1672943958713303433,enu,-3.8362,0.0984,-0.1238,0.0,0.0,0.0,0.000169,0.0,0.0,0.0,0.0,0.0,0.0,0.000169,0.0,0.0,0.0,0.0,0.0,0.0,0.0001,0.0,0.0,0.0,0.0,0.0,0.0,0.0,0.0,0.0,0.0,0.0,0.0,0.0,0.0,0.0,0.0,0.0,0.0,0.0,0.0,0.0
1672943958721436069,104959,1672943958733309357,enu,-3.8599,0.1087,-0.1154,0.0,0.0,0.0,0.000169,0.0,0.0,0.0,0.0,0.0,0.0,0.000169,0.0,0.0,0.0,0.0,0.0,0.0,0.0001,0.0,0.0,0.0,0.0,0.0,0.0,0.0,0.0,0.0,0.0,0.0,0.0,0.0,0.0,0.0,0.0,0.0,0.0,0.0,0.0,0.0
1672943958741338993,104960,1672943958753408054,enu,-3.8993,0.1204,-0.1126,0.0,0.0,0.0,0.000169,0.0,0.0,0.0,0.0,0.0,0.0,0.000169,0.0,0.0,0.0,0.0,0.0,0.0,0.0001,0.0,0.0,0.0,0.0,0.0,0.0,0.0,0.0,0.0,0.0,0.0,0.0,0.0,0.0,0.0,0.0,0.0,0.0,0.0,0.0,0.0
1672943958761289469,104961,1672943958773427963,enu,-3.9122,0.1362,-0.1142,0.0,0.0,0.0,0.000169,0.0,0.0,0.0,0.0,0.0,0.0,0.000169,0.0,0.0,0.0,0.0,0.0,0.0,0.0001,0.0,0.0,0.0,0.0,0.0,0.0,0.0,0.0,0.0,0.0,0.0,0.0,0.0,0.0,0.0,0.0,0.0,0.0,0.0,0.0,0.0
1672943958781569515,104962,1672943958793418478,enu,-3.9533,0.1468,-0.1084,0.0,0.0,0.0,0.000169,0.0,0.0,0.0,0.0,0.0,0.0,0.000169,0.0,0.0,0.0,0.0,0.0,0.0,0.0001,0.0,0.0,0.0,0.0,0.0,0.0,0.0,0.0,0.0,0.0,0.0,0.0,0.0,0.0,0.0,0.0,0.0,0.0,0.0,0.0,0.0
1672943958801486469,104963,1672943958813389992,enu,-3.9754,0.1527,-0.1016,0.0,0.0,0.0,0.000169,0.0,0.0,0.0,0.0,0.0,0.0,0.000169,0.0,0.0,0.0,0.0,0.0,0.0,0.0001,0.0,0.0,0.0,0.0,0.0,0.0,0.0,0.0,0.0,0.0,0.0,0.0,0.0,0.0,0.0,0.0,0.0,0.0,0.0,0.0,0.0
1672943958821085360,104964,1672943958833387840,enu,-3.9987,0.1618,-0.0946,0.0,0.0,0.0,0.000169,0.0,0.0,0.0,0.0,0.0,0.0,0.000169,0.0,0.0,0.0,0.0,0.0,0.0,0.0001,0.0,0.0,0.0,0.0,0.0,0.0,0.0,0.0,0.0,0.0,0.0,0.0,0.0,0.0,0.0,0.0,0.0,0.0,0.0,0.0,0.0
1672943958841284720,104965,1672943958853344666,enu,-4.0277,0.1731,-0.0877,0.0,0.0,0.0,0.000169,0.0,0.0,0.0,0.0,0.0,0.0,0.000169,0.0,0.0,0.0,0.0,0.0,0.0,0.0001,0.0,0.0,0.0,0.0,0.0,0.0,0.0,0.0,0.0,0.0,0.0,0.0,0.0,0.0,0.0,0.0,0.0,0.0,0.0,0.0,0.0
1672943958861362987,104966,1672943958873344306,enu,-4.0539,0.1826,-0.0831,0.0,0.0,0.0,0.000169,0.0,0.0,0.0,0.0,0.0,0.0,0.000169,0.0,0.0,0.0,0.0,0.0,0.0,0.0001,0.0,0.0,0.0,0.0,0.0,0.0,0.0,0.0,0.0,0.0,0.0,0.0,0.0,0.0,0.0,0.0,0.0,0.0,0.0,0.0,0.0
1672943958881333017,104967,1672943958893404674,enu,-4.0828,0.1882,-0.0761,0.0,0.0,0.0,0.000169,0.0,0.0,0.0,0.0,0.0,0.0,0.000169,0.0,0.0,0.0,0.0,0.0,0.0,0.0001,0.0,0.0,0.0,0.0,0.0,0.0,0.0,0.0,0.0,0.0,0.0,0.0,0.0,0.0,0.0,0.0,0.0,0.0,0.0,0.0,0.0
1672943958901348578,104968,1672943958913340718,enu,-4.1115,0.1906,-0.0648,0.0,0.0,0.0,0.000169,0.0,0.0,0.0,0.0,0.0,0.0,0.000169,0.0,0.0,0.0,0.0,0.0,0.0,0.0001,0.0,0.0,0.0,0.0,0.0,0.0,0.0,0.0,0.0,0.0,0.0,0.0,0.0,0.0,0.0,0.0,0.0,0.0,0.0,0.0,0.0
1672943958921367384,104969,1672943958933313807,enu,-4.1334,0.194,-0.0578,0.0,0.0,0.0,0.000169,0.0,0.0,0.0,0.0,0.0,0.0,0.000169,0.0,0.0,0.0,0.0,0.0,0.0,0.0001,0.0,0.0,0.0,0.0,0.0,0.0,0.0,0.0,0.0,0.0,0.0,0.0,0.0,0.0,0.0,0.0,0.0,0.0,0.0,0.0,0.0
1672943958941278719,104970,1672943958953299644,enu,-4.1638,0.2002,-0.0549,0.0,0.0,0.0,0.000169,0.0,0.0,0.0,0.0,0.0,0.0,0.000169,0.0,0.0,0.0,0.0,0.0,0.0,0.0001,0.0,0.0,0.0,0.0,0.0,0.0,0.0,0.0,0.0,0.0,0.0,0.0,0.0,0.0,0.0,0.0,0.0,0.0,0.0,0.0,0.0
1672943958961447283,104971,1672943958973403466,enu,-4.1916,0.2083,-0.0564,0.0,0.0,0.0,0.000169,0.0,0.0,0.0,0.0,0.0,0.0,0.000169,0.0,0.0,0.0,0.0,0.0,0.0,0.0001,0.0,0.0,0.0,0.0,0.0,0.0,0.0,0.0,0.0,0.0,0.0,0.0,0.0,0.0,0.0,0.0,0.0,0.0,0.0,0.0,0.0
1672943958981364382,104972,1672943958993302294,enu,-4.2231,0.2127,-0.0623,0.0,0.0,0.0,0.000169,0.0,0.0,0.0,0.0,0.0,0.0,0.000169,0.0,0.0,0.0,0.0,0.0,0.0,0.0001,0.0,0.0,0.0,0.0,0.0,0.0,0.0,0.0,0.0,0.0,0.0,0.0,0.0,0.0,0.0,0.0,0.0,0.0,0.0,0.0,0.0
1672943959001443281,104973,1672943959013331806,enu,-4.2501,0.2185,-0.0678,0.0,0.0,0.0,0.000169,0.0,0.0,0.0,0.0,0.0,0.0,0.000169,0.0,0.0,0.0,0.0,0.0,0.0,0.0001,0.0,0.0,0.0,0.0,0.0,0.0,0.0,0.0,0.0,0.0,0.0,0.0,0.0,0.0,0.0,0.0,0.0,0.0,0.0,0.0,0.0
1672943959021397680,104974,1672943959033307982,enu,-4.2743,0.2197,-0.0646,0.0,0.0,0.0,0.000169,0.0,0.0,0.0,0.0,0.0,0.0,0.000169,0.0,0.0,0.0,0.0,0.0,0.0,0.0001,0.0,0.0,0.0,0.0,0.0,0.0,0.0,0.0,0.0,0.0,0.0,0.0,0.0,0.0,0.0,0.0,0.0,0.0,0.0,0.0,0.0
1672943959041266832,104975,1672943959053482657,enu,-4.3015,0.224,-0.0672,0.0,0.0,0.0,0.000169,0.0,0.0,0.0,0.0,0.0,0.0,0.000169,0.0,0.0,0.0,0.0,0.0,0.0,0.0001,0.0,0.0,0.0,0.0,0.0,0.0,0.0,0.0,0.0,0.0,0.0,0.0,0.0,0.0,0.0,0.0,0.0,0.0,0.0,0.0,0.0
1672943959061456370,104976,1672943959073461808,enu,-4.3291,0.2321,-0.071,0.0,0.0,0.0,0.000169,0.0,0.0,0.0,0.0,0.0,0.0,0.000169,0.0,0.0,0.0,0.0,0.0,0.0,0.0001,0.0,0.0,0.0,0.0,0.0,0.0,0.0,0.0,0.0,0.0,0.0,0.0,0.0,0.0,0.0,0.0,0.0,0.0,0.0,0.0,0.0
1672943959081819894,104977,1672943959093387815,enu,-4.3576,0.2453,-0.0766,0.0,0.0,0.0,0.000169,0.0,0.0,0.0,0.0,0.0,0.0,0.000169,0.0,0.0,0.0,0.0,0.0,0.0,0.0001,0.0,0.0,0.0,0.0,0.0,0.0,0.0,0.0,0.0,0.0,0.0,0.0,0.0,0.0,0.0,0.0,0.0,0.0,0.0,0.0,0.0
1672943959101070145,104978,1672943959113445601,enu,-4.3846,0.2564,-0.0799,0.0,0.0,0.0,0.000169,0.0,0.0,0.0,0.0,0.0,0.0,0.000169,0.0,0.0,0.0,0.0,0.0,0.0,0.0001,0.0,0.0,0.0,0.0,0.0,0.0,0.0,0.0,0.0,0.0,0.0,0.0,0.0,0.0,0.0,0.0,0.0,0.0,0.0,0.0,0.0
1672943959121452005,104979,1672943959133397453,enu,-4.4073,0.2637,-0.0815,0.0,0.0,0.0,0.000169,0.0,0.0,0.0,0.0,0.0,0.0,0.000169,0.0,0.0,0.0,0.0,0.0,0.0,0.0001,0.0,0.0,0.0,0.0,0.0,0.0,0.0,0.0,0.0,0.0,0.0,0.0,0.0,0.0,0.0,0.0,0.0,0.0,0.0,0.0,0.0
1672943959141354588,104980,1672943959153379683,enu,-4.4308,0.2745,-0.0794,0.0,0.0,0.0,0.000169,0.0,0.0,0.0,0.0,0.0,0.0,0.000169,0.0,0.0,0.0,0.0,0.0,0.0,0.0001,0.0,0.0,0.0,0.0,0.0,0.0,0.0,0.0,0.0,0.0,0.0,0.0,0.0,0.0,0.0,0.0,0.0,0.0,0.0,0.0,0.0
1672943959161343243,104981,1672943959173322819,enu,-4.4523,0.2862,-0.0761,0.0,0.0,0.0,0.000169,0.0,0.0,0.0,0.0,0.0,0.0,0.000169,0.0,0.0,0.0,0.0,0.0,0.0,0.0001,0.0,0.0,0.0,0.0,0.0,0.0,0.0,0.0,0.0,0.0,0.0,0.0,0.0,0.0,0.0,0.0,0.0,0.0,0.0,0.0,0.0
1672943959181503611,104982,1672943959193443845,enu,-4.474,0.2964,-0.072,0.0,0.0,0.0,0.000169,0.0,0.0,0.0,0.0,0.0,0.0,0.000169,0.0,0.0,0.0,0.0,0.0,0.0,0.0001,0.0,0.0,0.0,0.0,0.0,0.0,0.0,0.0,0.0,0.0,0.0,0.0,0.0,0.0,0.0,0.0,0.0,0.0,0.0,0.0,0.0
1672943959201138157,104983,1672943959213380019,enu,-4.4996,0.3029,-0.0659,0.0,0.0,0.0,0.000169,0.0,0.0,0.0,0.0,0.0,0.0,0.000169,0.0,0.0,0.0,0.0,0.0,0.0,0.0001,0.0,0.0,0.0,0.0,0.0,0.0,0.0,0.0,0.0,0.0,0.0,0.0,0.0,0.0,0.0,0.0,0.0,0.0,0.0,0.0,0.0
1672943959221090122,104984,1672943959233378061,enu,-4.5182,0.3081,-0.0611,0.0,0.0,0.0,0.000169,0.0,0.0,0.0,0.0,0.0,0.0,0.000169,0.0,0.0,0.0,0.0,0.0,0.0,0.0001,0.0,0.0,0.0,0.0,0.0,0.0,0.0,0.0,0.0,0.0,0.0,0.0,0.0,0.0,0.0,0.0,0.0,0.0,0.0,0.0,0.0
1672943959241486995,104985,1672943959253377292,enu,-4.5419,0.3139,-0.0558,0.0,0.0,0.0,0.000169,0.0,0.0,0.0,0.0,0.0,0.0,0.000169,0.0,0.0,0.0,0.0,0.0,0.0,0.0001,0.0,0.0,0.0,0.0,0.0,0.0,0.0,0.0,0.0,0.0,0.0,0.0,0.0,0.0,0.0,0.0,0.0,0.0,0.0,0.0,0.0
1672943959261663805,104986,1672943959273433262,enu,-4.5643,0.3195,-0.0557,0.0,0.0,0.0,0.000169,0.0,0.0,0.0,0.0,0.0,0.0,0.000169,0.0,0.0,0.0,0.0,0.0,0.0,0.0001,0.0,0.0,0.0,0.0,0.0,0.0,0.0,0.0,0.0,0.0,0.0,0.0,0.0,0.0,0.0,0.0,0.0,0.0,0.0,0.0,0.0
1672943959281593665,104987,1672943959293435751,enu,-4.5904,0.3232,-0.0616,0.0,0.0,0.0,0.000169,0.0,0.0,0.0,0.0,0.0,0.0,0.000169,0.0,0.0,0.0,0.0,0.0,0.0,0.0001,0.0,0.0,0.0,0.0,0.0,0.0,0.0,0.0,0.0,0.0,0.0,0.0,0.0,0.0,0.0,0.0,0.0,0.0,0.0,0.0,0.0
1672943959301557664,104988,1672943959313434912,enu,-4.6127,0.3288,-0.0666,0.0,0.0,0.0,0.000169,0.0,0.0,0.0,0.0,0.0,0.0,0.000169,0.0,0.0,0.0,0.0,0.0,0.0,0.0001,0.0,0.0,0.0,0.0,0.0,0.0,0.0,0.0,0.0,0.0,0.0,0.0,0.0,0.0,0.0,0.0,0.0,0.0,0.0,0.0,0.0
1672943959321530182,104989,1672943959333336956,enu,-4.6366,0.3345,-0.0713,0.0,0.0,0.0,0.000169,0.0,0.0,0.0,0.0,0.0,0.0,0.000169,0.0,0.0,0.0,0.0,0.0,0.0,0.0001,0.0,0.0,0.0,0.0,0.0,0.0,0.0,0.0,0.0,0.0,0.0,0.0,0.0,0.0,0.0,0.0,0.0,0.0,0.0,0.0,0.0
1672943959341237493,104990,1672943959353363179,enu,-4.6633,0.3355,-0.0822,0.0,0.0,0.0,0.000169,0.0,0.0,0.0,0.0,0.0,0.0,0.000169,0.0,0.0,0.0,0.0,0.0,0.0,0.0001,0.0,0.0,0.0,0.0,0.0,0.0,0.0,0.0,0.0,0.0,0.0,0.0,0.0,0.0,0.0,0.0,0.0,0.0,0.0,0.0,0.0
1672943959361455493,104991,1672943959373438843,enu,-4.6864,0.3422,-0.0962,0.0,0.0,0.0,0.000169,0.0,0.0,0.0,0.0,0.0,0.0,0.000169,0.0,0.0,0.0,0.0,0.0,0.0,0.0001,0.0,0.0,0.0,0.0,0.0,0.0,0.0,0.0,0.0,0.0,0.0,0.0,0.0,0.0,0.0,0.0,0.0,0.0,0.0,0.0,0.0
1672943959381022482,104992,1672943959393306960,enu,-4.7072,0.3599,-0.0923,0.0,0.0,0.0,0.000169,0.0,0.0,0.0,0.0,0.0,0.0,0.000169,0.0,0.0,0.0,0.0,0.0,0.0,0.0001,0.0,0.0,0.0,0.0,0.0,0.0,0.0,0.0,0.0,0.0,0.0,0.0,0.0,0.0,0.0,0.0,0.0,0.0,0.0,0.0,0.0
1672943959401265723,104993,1672943959413387432,enu,-4.7214,0.3734,-0.0728,0.0,0.0,0.0,0.000169,0.0,0.0,0.0,0.0,0.0,0.0,0.000169,0.0,0.0,0.0,0.0,0.0,0.0,0.0001,0.0,0.0,0.0,0.0,0.0,0.0,0.0,0.0,0.0,0.0,0.0,0.0,0.0,0.0,0.0,0.0,0.0,0.0,0.0,0.0,0.0
1672943959421414147,104994,1672943959433364270,enu,-4.7462,0.3796,-0.0578,0.0,0.0,0.0,0.000169,0.0,0.0,0.0,0.0,0.0,0.0,0.000169,0.0,0.0,0.0,0.0,0.0,0.0,0.0001,0.0,0.0,0.0,0.0,0.0,0.0,0.0,0.0,0.0,0.0,0.0,0.0,0.0,0.0,0.0,0.0,0.0,0.0,0.0,0.0,0.0
1672943959441482910,104995,1672943959453304096,enu,-4.7739,0.3908,-0.0452,0.0,0.0,0.0,0.000169,0.0,0.0,0.0,0.0,0.0,0.0,0.000169,0.0,0.0,0.0,0.0,0.0,0.0,0.0001,0.0,0.0,0.0,0.0,0.0,0.0,0.0,0.0,0.0,0.0,0.0,0.0,0.0,0.0,0.0,0.0,0.0,0.0,0.0,0.0,0.0
1672943959461317714,104996,1672943959473342365,enu,-4.7953,0.4008,-0.0297,0.0,0.0,0.0,0.000169,0.0,0.0,0.0,0.0,0.0,0.0,0.000169,0.0,0.0,0.0,0.0,0.0,0.0,0.0001,0.0,0.0,0.0,0.0,0.0,0.0,0.0,0.0,0.0,0.0,0.0,0.0,0.0,0.0,0.0,0.0,0.0,0.0,0.0,0.0,0.0
1672943959481305912,104997,1672943959493410203,enu,-4.8148,0.4066,-0.0175,0.0,0.0,0.0,0.000169,0.0,0.0,0.0,0.0,0.0,0.0,0.000169,0.0,0.0,0.0,0.0,0.0,0.0,0.0001,0.0,0.0,0.0,0.0,0.0,0.0,0.0,0.0,0.0,0.0,0.0,0.0,0.0,0.0,0.0,0.0,0.0,0.0,0.0,0.0,0.0
1672943959501134311,104998,1672943959513339686,enu,-4.8397,0.4096,-0.0059,0.0,0.0,0.0,0.000169,0.0,0.0,0.0,0.0,0.0,0.0,0.000169,0.0,0.0,0.0,0.0,0.0,0.0,0.0001,0.0,0.0,0.0,0.0,0.0,0.0,0.0,0.0,0.0,0.0,0.0,0.0,0.0,0.0,0.0,0.0,0.0,0.0,0.0,0.0,0.0
1672943959521611538,104999,1672943959533397629,enu,-4.8634,0.4124,0.0041,0.0,0.0,0.0,0.000169,0.0,0.0,0.0,0.0,0.0,0.0,0.000169,0.0,0.0,0.0,0.0,0.0,0.0,0.0001,0.0,0.0,0.0,0.0,0.0,0.0,0.0,0.0,0.0,0.0,0.0,0.0,0.0,0.0,0.0,0.0,0.0,0.0,0.0,0.0,0.0
1672943959541454938,105000,1672943959553460093,enu,-4.8889,0.4117,0.0111,0.0,0.0,0.0,0.000169,0.0,0.0,0.0,0.0,0.0,0.0,0.000169,0.0,0.0,0.0,0.0,0.0,0.0,0.0001,0.0,0.0,0.0,0.0,0.0,0.0,0.0,0.0,0.0,0.0,0.0,0.0,0.0,0.0,0.0,0.0,0.0,0.0,0.0,0.0,0.0
1672943959561471815,105001,1672943959573446006,enu,-4.9063,0.414,0.0128,0.0,0.0,0.0,0.000169,0.0,0.0,0.0,0.0,0.0,0.0,0.000169,0.0,0.0,0.0,0.0,0.0,0.0,0.0001,0.0,0.0,0.0,0.0,0.0,0.0,0.0,0.0,0.0,0.0,0.0,0.0,0.0,0.0,0.0,0.0,0.0,0.0,0.0,0.0,0.0
1672943959581537826,105002,1672943959593393514,enu,-4.9287,0.4125,0.0087,0.0,0.0,0.0,0.000169,0.0,0.0,0.0,0.0,0.0,0.0,0.000169,0.0,0.0,0.0,0.0,0.0,0.0,0.0001,0.0,0.0,0.0,0.0,0.0,0.0,0.0,0.0,0.0,0.0,0.0,0.0,0.0,0.0,0.0,0.0,0.0,0.0,0.0,0.0,0.0
1672943959601341234,105003,1672943959613388919,enu,-4.9532,0.409,0.0015,0.0,0.0,0.0,0.000169,0.0,0.0,0.0,0.0,0.0,0.0,0.000169,0.0,0.0,0.0,0.0,0.0,0.0,0.0001,0.0,0.0,0.0,0.0,0.0,0.0,0.0,0.0,0.0,0.0,0.0,0.0,0.0,0.0,0.0,0.0,0.0,0.0,0.0,0.0,0.0
1672943959621243331,105004,1672943959633381528,enu,-4.9713,0.4139,-0.0081,0.0,0.0,0.0,0.000169,0.0,0.0,0.0,0.0,0.0,0.0,0.000169,0.0,0.0,0.0,0.0,0.0,0.0,0.0001,0.0,0.0,0.0,0.0,0.0,0.0,0.0,0.0,0.0,0.0,0.0,0.0,0.0,0.0,0.0,0.0,0.0,0.0,0.0,0.0,0.0
1672943959641421729,105005,1672943959653397660,enu,-4.9931,0.4225,-0.0145,0.0,0.0,0.0,0.000169,0.0,0.0,0.0,0.0,0.0,0.0,0.000169,0.0,0.0,0.0,0.0,0.0,0.0,0.0001,0.0,0.0,0.0,0.0,0.0,0.0,0.0,0.0,0.0,0.0,0.0,0.0,0.0,0.0,0.0,0.0,0.0,0.0,0.0,0.0,0.0
1672943959661510900,105006,1672943959673415941,enu,-5.0089,0.4265,-0.0167,0.0,0.0,0.0,0.000169,0.0,0.0,0.0,0.0,0.0,0.0,0.000169,0.0,0.0,0.0,0.0,0.0,0.0,0.0001,0.0,0.0,0.0,0.0,0.0,0.0,0.0,0.0,0.0,0.0,0.0,0.0,0.0,0.0,0.0,0.0,0.0,0.0,0.0,0.0,0.0
1672943959681458487,105007,1672943959693406093,enu,-5.0312,0.4299,-0.0236,0.0,0.0,0.0,0.000169,0.0,0.0,0.0,0.0,0.0,0.0,0.000169,0.0,0.0,0.0,0.0,0.0,0.0,0.0001,0.0,0.0,0.0,0.0,0.0,0.0,0.0,0.0,0.0,0.0,0.0,0.0,0.0,0.0,0.0,0.0,0.0,0.0,0.0,0.0,0.0
1672943959701478183,105008,1672943959713426762,enu,-5.0499,0.4398,-0.0295,0.0,0.0,0.0,0.000169,0.0,0.0,0.0,0.0,0.0,0.0,0.000169,0.0,0.0,0.0,0.0,0.0,0.0,0.0001,0.0,0.0,0.0,0.0,0.0,0.0,0.0,0.0,0.0,0.0,0.0,0.0,0.0,0.0,0.0,0.0,0.0,0.0,0.0,0.0,0.0
1672943959721503860,105009,1672943959733383006,enu,-5.0677,0.452,-0.036,0.0,0.0,0.0,0.000169,0.0,0.0,0.0,0.0,0.0,0.0,0.000169,0.0,0.0,0.0,0.0,0.0,0.0,0.0001,0.0,0.0,0.0,0.0,0.0,0.0,0.0,0.0,0.0,0.0,0.0,0.0,0.0,0.0,0.0,0.0,0.0,0.0,0.0,0.0,0.0
1672943959741360045,105010,1672943959753380061,enu,-5.0847,0.466,-0.0385,0.0,0.0,0.0,0.000169,0.0,0.0,0.0,0.0,0.0,0.0,0.000169,0.0,0.0,0.0,0.0,0.0,0.0,0.0001,0.0,0.0,0.0,0.0,0.0,0.0,0.0,0.0,0.0,0.0,0.0,0.0,0.0,0.0,0.0,0.0,0.0,0.0,0.0,0.0,0.0
1672943959761286902,105011,1672943959773381178,enu,-5.1039,0.4785,-0.0348,0.0,0.0,0.0,0.000169,0.0,0.0,0.0,0.0,0.0,0.0,0.000169,0.0,0.0,0.0,0.0,0.0,0.0,0.0001,0.0,0.0,0.0,0.0,0.0,0.0,0.0,0.0,0.0,0.0,0.0,0.0,0.0,0.0,0.0,0.0,0.0,0.0,0.0,0.0,0.0
1672943959781620093,105012,1672943959793516711,enu,-5.1225,0.4857,-0.0275,0.0,0.0,0.0,0.000169,0.0,0.0,0.0,0.0,0.0,0.0,0.000169,0.0,0.0,0.0,0.0,0.0,0.0,0.0001,0.0,0.0,0.0,0.0,0.0,0.0,0.0,0.0,0.0,0.0,0.0,0.0,0.0,0.0,0.0,0.0,0.0,0.0,0.0,0.0,0.0
1672943959801556539,105013,1672943959813383271,enu,-5.1382,0.4929,-0.0169,0.0,0.0,0.0,0.000196,0.0,0.0,0.0,0.0,0.0,0.0,0.000225,0.0,0.0,0.0,0.0,0.0,0.0,0.0001,0.0,0.0,0.0,0.0,0.0,0.0,0.0,0.0,0.0,0.0,0.0,0.0,0.0,0.0,0.0,0.0,0.0,0.0,0.0,0.0,0.0
1672943959821529292,105014,1672943959833387590,enu,-5.1569,0.4989,-0.0097,0.0,0.0,0.0,0.000196,0.0,0.0,0.0,0.0,0.0,0.0,0.000225,0.0,0.0,0.0,0.0,0.0,0.0,0.0001,0.0,0.0,0.0,0.0,0.0,0.0,0.0,0.0,0.0,0.0,0.0,0.0,0.0,0.0,0.0,0.0,0.0,0.0,0.0,0.0,0.0
1672943959841469576,105015,1672943959853423344,enu,-5.1785,0.5028,-0.0096,0.0,0.0,0.0,0.000196,0.0,0.0,0.0,0.0,0.0,0.0,0.000225,0.0,0.0,0.0,0.0,0.0,0.0,0.0001,0.0,0.0,0.0,0.0,0.0,0.0,0.0,0.0,0.0,0.0,0.0,0.0,0.0,0.0,0.0,0.0,0.0,0.0,0.0,0.0,0.0
1672943959861390565,105016,1672943959873336915,enu,-5.1995,0.5057,-0.0115,0.0,0.0,0.0,0.000196,0.0,0.0,0.0,0.0,0.0,0.0,0.000225,0.0,0.0,0.0,0.0,0.0,0.0,0.0001,0.0,0.0,0.0,0.0,0.0,0.0,0.0,0.0,0.0,0.0,0.0,0.0,0.0,0.0,0.0,0.0,0.0,0.0,0.0,0.0,0.0
1672943959881420773,105017,1672943959893367039,enu,-5.2154,0.5076,-0.013,0.0,0.0,0.0,0.000196,0.0,0.0,0.0,0.0,0.0,0.0,0.000225,0.0,0.0,0.0,0.0,0.0,0.0,0.0001,0.0,0.0,0.0,0.0,0.0,0.0,0.0,0.0,0.0,0.0,0.0,0.0,0.0,0.0,0.0,0.0,0.0,0.0,0.0,0.0,0.0
1672943959901301404,105018,1672943959913397060,enu,-5.2332,0.5106,-0.0175,0.0,0.0,0.0,0.000196,0.0,0.0,0.0,0.0,0.0,0.0,0.000225,0.0,0.0,0.0,0.0,0.0,0.0,0.0001,0.0,0.0,0.0,0.0,0.0,0.0,0.0,0.0,0.0,0.0,0.0,0.0,0.0,0.0,0.0,0.0,0.0,0.0,0.0,0.0,0.0
1672943959921165703,105019,1672943959933335467,enu,-5.2503,0.5139,-0.0207,0.0,0.0,0.0,0.000196,0.0,0.0,0.0,0.0,0.0,0.0,0.000225,0.0,0.0,0.0,0.0,0.0,0.0,0.0001,0.0,0.0,0.0,0.0,0.0,0.0,0.0,0.0,0.0,0.0,0.0,0.0,0.0,0.0,0.0,0.0,0.0,0.0,0.0,0.0,0.0
1672943959941107107,105020,1672943959953333640,enu,-5.2649,0.5168,-0.0238,0.0,0.0,0.0,0.000196,0.0,0.0,0.0,0.0,0.0,0.0,0.000225,0.0,0.0,0.0,0.0,0.0,0.0,0.0001,0.0,0.0,0.0,0.0,0.0,0.0,0.0,0.0,0.0,0.0,0.0,0.0,0.0,0.0,0.0,0.0,0.0,0.0,0.0,0.0,0.0
1672943959961383772,105021,1672943959973431861,enu,-5.2818,0.5196,-0.0267,0.0,0.0,0.0,0.000196,0.0,0.0,0.0,0.0,0.0,0.0,0.000225,0.0,0.0,0.0,0.0,0.0,0.0,0.0001,0.0,0.0,0.0,0.0,0.0,0.0,0.0,0.0,0.0,0.0,0.0,0.0,0.0,0.0,0.0,0.0,0.0,0.0,0.0,0.0,0.0
1672943959981352770,105022,1672943959993308868,enu,-5.2944,0.5248,-0.0302,0.0,0.0,0.0,0.000196,0.0,0.0,0.0,0.0,0.0,0.0,0.000225,0.0,0.0,0.0,0.0,0.0,0.0,0.0001,0.0,0.0,0.0,0.0,0.0,0.0,0.0,0.0,0.0,0.0,0.0,0.0,0.0,0.0,0.0,0.0,0.0,0.0,0.0,0.0,0.0
1672943960001384385,105023,1672943960013380338,enu,-5.308,0.5296,-0.0343,0.0,0.0,0.0,0.000196,0.0,0.0,0.0,0.0,0.0,0.0,0.000225,0.0,0.0,0.0,0.0,0.0,0.0,0.0001,0.0,0.0,0.0,0.0,0.0,0.0,0.0,0.0,0.0,0.0,0.0,0.0,0.0,0.0,0.0,0.0,0.0,0.0,0.0,0.0,0.0
1672943960021508653,105024,1672943960033468346,enu,-5.3188,0.5335,-0.0401,0.0,0.0,0.0,0.000196,0.0,0.0,0.0,0.0,0.0,0.0,0.000225,0.0,0.0,0.0,0.0,0.0,0.0,0.0001,0.0,0.0,0.0,0.0,0.0,0.0,0.0,0.0,0.0,0.0,0.0,0.0,0.0,0.0,0.0,0.0,0.0,0.0,0.0,0.0,0.0
1672943960041318218,105025,1672943960053376032,enu,-5.3317,0.5349,-0.0473,0.0,0.0,0.0,0.000196,0.0,0.0,0.0,0.0,0.0,0.0,0.000225,0.0,0.0,0.0,0.0,0.0,0.0,0.0001,0.0,0.0,0.0,0.0,0.0,0.0,0.0,0.0,0.0,0.0,0.0,0.0,0.0,0.0,0.0,0.0,0.0,0.0,0.0,0.0,0.0
1672943960061181668,105026,1672943960073379535,enu,-5.3449,0.5362,-0.0589,0.0,0.0,0.0,0.000196,0.0,0.0,0.0,0.0,0.0,0.0,0.000225,0.0,0.0,0.0,0.0,0.0,0.0,0.0001,0.0,0.0,0.0,0.0,0.0,0.0,0.0,0.0,0.0,0.0,0.0,0.0,0.0,0.0,0.0,0.0,0.0,0.0,0.0,0.0,0.0
1672943960081576777,105027,1672943960093477219,enu,-5.3558,0.5389,-0.069,0.0,0.0,0.0,0.000196,0.0,0.0,0.0,0.0,0.0,0.0,0.000225,0.0,0.0,0.0,0.0,0.0,0.0,0.0001,0.0,0.0,0.0,0.0,0.0,0.0,0.0,0.0,0.0,0.0,0.0,0.0,0.0,0.0,0.0,0.0,0.0,0.0,0.0,0.0,0.0
1672943960101477214,105028,1672943960113420826,enu,-5.3691,0.5384,-0.0748,0.0,0.0,0.0,0.000196,0.0,0.0,0.0,0.0,0.0,0.0,0.000225,0.0,0.0,0.0,0.0,0.0,0.0,0.0001,0.0,0.0,0.0,0.0,0.0,0.0,0.0,0.0,0.0,0.0,0.0,0.0,0.0,0.0,0.0,0.0,0.0,0.0,0.0,0.0,0.0
1672943960121416490,105029,1672943960133315152,enu,-5.3783,0.5369,-0.0805,0.0,0.0,0.0,0.000196,0.0,0.0,0.0,0.0,0.0,0.0,0.000225,0.0,0.0,0.0,0.0,0.0,0.0,0.0001,0.0,0.0,0.0,0.0,0.0,0.0,0.0,0.0,0.0,0.0,0.0,0.0,0.0,0.0,0.0,0.0,0.0,0.0,0.0,0.0,0.0
1672943960141374073,105030,1672943960153412229,enu,-5.3911,0.5362,-0.0892,0.0,0.0,0.0,0.000196,0.0,0.0,0.0,0.0,0.0,0.0,0.000225,0.0,0.0,0.0,0.0,0.0,0.0,0.0001,0.0,0.0,0.0,0.0,0.0,0.0,0.0,0.0,0.0,0.0,0.0,0.0,0.0,0.0,0.0,0.0,0.0,0.0,0.0,0.0,0.0
1672943960161307391,105031,1672943960173362131,enu,-5.3997,0.5391,-0.0978,0.0,0.0,0.0,0.000196,0.0,0.0,0.0,0.0,0.0,0.0,0.000225,0.0,0.0,0.0,0.0,0.0,0.0,0.0001,0.0,0.0,0.0,0.0,0.0,0.0,0.0,0.0,0.0,0.0,0.0,0.0,0.0,0.0,0.0,0.0,0.0,0.0,0.0,0.0,0.0
1672943960181386193,105032,1672943960193329155,enu,-5.4081,0.5403,-0.1025,0.0,0.0,0.0,0.000196,0.0,0.0,0.0,0.0,0.0,0.0,0.000225,0.0,0.0,0.0,0.0,0.0,0.0,0.0001,0.0,0.0,0.0,0.0,0.0,0.0,0.0,0.0,0.0,0.0,0.0,0.0,0.0,0.0,0.0,0.0,0.0,0.0,0.0,0.0,0.0
1672943960201156712,105033,1672943960213358186,enu,-5.4146,0.5442,-0.1017,0.0,0.0,0.0,0.000196,0.0,0.0,0.0,0.0,0.0,0.0,0.000225,0.0,0.0,0.0,0.0,0.0,0.0,0.0001,0.0,0.0,0.0,0.0,0.0,0.0,0.0,0.0,0.0,0.0,0.0,0.0,0.0,0.0,0.0,0.0,0.0,0.0,0.0,0.0,0.0
1672943960221060002,105034,1672943960233327035,enu,-5.4221,0.5498,-0.0993,0.0,0.0,0.0,0.000196,0.0,0.0,0.0,0.0,0.0,0.0,0.000225,0.0,0.0,0.0,0.0,0.0,0.0,0.0001,0.0,0.0,0.0,0.0,0.0,0.0,0.0,0.0,0.0,0.0,0.0,0.0,0.0,0.0,0.0,0.0,0.0,0.0,0.0,0.0,0.0
1672943960241480362,105035,1672943960253407005,enu,-5.4305,0.5557,-0.097,0.0,0.0,0.0,0.000196,0.0,0.0,0.0,0.0,0.0,0.0,0.000225,0.0,0.0,0.0,0.0,0.0,0.0,0.0001,0.0,0.0,0.0,0.0,0.0,0.0,0.0,0.0,0.0,0.0,0.0,0.0,0.0,0.0,0.0,0.0,0.0,0.0,0.0,0.0,0.0
