%time,field.header.seq,field.header.stamp,field.header.frame_id,field.status.status,field.status.service,field.latitude,field.longitude,field.altitude,field.position_covariance0,field.position_covariance1,field.position_covariance2,field.position_covariance3,field.position_covariance4,field.position_covariance5,field.position_covariance6,field.position_covariance7,field.position_covariance8,field.position_covariance_type
1672945164366543643,165242,1672945164398474914,gps,2,1,42.2999667719,-83.6985265079,270.373046875,0.0009,0.0,0.0,0.0,0.0009,0.0,0.0,0.0,0.004489,2
1672945164386449769,165243,1672945164418518734,gps,2,1,42.2999667881,-83.6985265152,270.373016357,0.0009,0.0,0.0,0.0,0.0009,0.0,0.0,0.0,0.004489,2
1672945164406349211,165244,1672945164438596656,gps,2,1,42.2999668099,-83.6985265282,270.37298584,0.0009,0.0,0.0,0.0,0.0009,0.0,0.0,0.0,0.004489,2
1672945164426530375,165245,1672945164458521857,gps,2,1,42.2999668319,-83.6985265412,270.37298584,0.0009,0.0,0.0,0.0,0.0009,0.0,0.0,0.0,0.004489,2
1672945164446770054,165246,1672945164478484729,gps,2,1,42.2999668556,-83.6985265524,270.372955322,0.0009,0.0,0.0,0.0,0.0009,0.0,0.0,0.0,0.004489,2
1672945164466748683,165247,1672945164498586075,gps,2,1,42.2999668841,-83.6985265689,270.37298584,0.0009,0.0,0.0,0.0,0.0009,0.0,0.0,0.0,0.004489,2
1672945164486703789,165248,1672945164518573980,gps,2,1,42.2999669143,-83.6985265869,270.37298584,0.0009,0.0,0.0,0.0,0.0009,0.0,0.0,0.0,0.004489,2
1672945164506991564,165249,1672945164538730797,gps,2,1,42.2999669459,-83.6985266027,270.373046875,0.0009,0.0,0.0,0.0,0.0009,0.0,0.0,0.0,0.004489,2
1672945164526427236,165250,1672945164558621961,gps,2,1,42.2999669839,-83.6985266254,270.373077393,0.0009,0.0,0.0,0.0,0.0009,0.0,0.0,0.0,0.004489,2
1672945164546340087,165251,1672945164578586656,gps,2,1,42.2999670238,-83.6985266488,270.373046875,0.0009,0.0,0.0,0.0,0.0009,0.0,0.0,0.0,0.004489,2
1672945164566520355,165252,1672945164598592373,gps,2,1,42.2999670644,-83.6985266693,270.373168945,0.0009,0.0,0.0,0.0,0.0009,0.0,0.0,0.0,0.004489,2
1672945164586858341,165253,1672945164618573349,gps,2,1,42.2999671133,-83.6985266972,270.373199463,0.0009,0.0,0.0,0.0,0.0009,0.0,0.0,0.0,0.004489,2
1672945164606795825,165254,1672945164638611035,gps,2,1,42.2999671603,-83.6985267232,270.373291016,0.0009,0.0,0.0,0.0,0.0009,0.0,0.0,0.0,0.004489,2
1672945164626784476,165255,1672945164658640538,gps,2,1,42.2999672134,-83.6985267498,270.373413086,0.0009,0.0,0.0,0.0,0.0009,0.0,0.0,0.0,0.004489,2
1672945164646662252,165256,1672945164678555718,gps,2,1,42.2999672722,-83.6985267821,270.373535156,0.0009,0.0,0.0,0.0,0.0009,0.0,0.0,0.0,0.004489,2
1672945164666499952,165257,1672945164698549128,gps,2,1,42.2999673326,-83.6985268153,270.373535156,0.0009,0.0,0.0,0.0,0.0009,0.0,0.0,0.0,0.004489,2
1672945164686700851,165258,1672945164718761006,gps,2,1,42.2999673953,-83.6985268478,270.373779297,0.0009,0.0,0.0,0.0,0.0009,0.0,0.0,0.0,0.004489,2
1672945164706305036,165259,1672945164738574379,gps,2,1,42.2999674675,-83.6985268867,270.374053955,0.0009,0.0,0.0,0.0,0.0009,0.0,0.0,0.0,0.004489,2
1672945164726653092,165260,1672945164758516999,gps,2,1,42.2999675394,-83.6985269263,270.374206543,0.0009,0.0,0.0,0.0,0.0009,0.0,0.0,0.0,0.004489,2
1672945164746221933,165261,1672945164778538734,gps,2,1,42.2999676153,-83.698526964,270.374511719,0.0009,0.0,0.0,0.0,0.0009,0.0,0.0,0.0,0.004489,2
1672945164766917305,165262,1672945164798663653,gps,2,1,42.2999676998,-83.6985270093,270.374816895,0.0009,0.0,0.0,0.0,0.0009,0.0,0.0,0.0,0.004489,2
1672945164786530098,165263,1672945164818611238,gps,2,1,42.2999677848,-83.6985270543,270.375061035,0.0009,0.0,0.0,0.0,0.0009,0.0,0.0,0.0,0.004489,2
1672945164806606972,165264,1672945164838634045,gps,2,1,42.2999678747,-83.6985270995,270.375396729,0.0009,0.0,0.0,0.0,0.0009,0.0,0.0,0.0,0.004489,2
1672945164826352413,165265,1672945164858533765,gps,2,1,42.2999679735,-83.6985271519,270.375732422,0.0009,0.0,0.0,0.0,0.0009,0.0,0.0,0.0,0.004489,2
1672945164846675978,165266,1672945164878526517,gps,2,1,42.2999680726,-83.698527205,270.376068115,0.0009,0.0,0.0,0.0,0.0009,0.0,0.0,0.0,0.004489,2
1672945164866298043,165267,1672945164898572238,gps,2,1,42.2999681768,-83.6985272575,270.376525879,0.0009,0.0,0.0,0.0,0.0009,0.0,0.0,0.0,0.004489,2
1672945164886562679,165268,1672945164918553281,gps,2,1,42.2999682904,-83.6985273168,270.376953125,0.0009,0.0,0.0,0.0,0.0009,0.0,0.0,0.0,0.004489,2
1672945164906900541,165269,1672945164938627525,gps,2,1,42.2999684042,-83.6985273766,270.377349854,0.0009,0.0,0.0,0.0,0.0009,0.0,0.0,0.0,0.004489,2
1672945164926575290,165270,1672945164958626519,gps,2,1,42.2999685238,-83.698527436,270.377929688,0.0009,0.0,0.0,0.0,0.0009,0.0,0.0,0.0,0.004489,2
1672945164946340925,165271,1672945164978539258,gps,2,1,42.2999686524,-83.6985275021,270.378417969,0.0009,0.0,0.0,0.0,0.0009,0.0,0.0,0.0,0.004489,2
1672945164966732426,165272,1672945164998512579,gps,2,1,42.2999687817,-83.698527568,270.37890625,0.0009,0.0,0.0,0.0,0.0009,0.0,0.0,0.0,0.004489,2
1672945164986834072,165273,1672945165018564520,gps,2,1,42.2999689174,-83.6985276337,270.379547119,0.0009,0.0,0.0,0.0,0.0009,0.0,0.0,0.0,0.004489,2
1672945165006981003,165274,1672945165038710362,gps,2,1,42.2999690622,-83.6985277061,270.380187988,0.0009,0.0,0.0,0.0,0.0009,0.0,0.0,0.0,0.004489,2
1672945165026260635,165275,1672945165058579817,gps,2,1,42.2999692079,-83.6985277791,270.380767822,0.0009,0.0,0.0,0.0,0.0009,0.0,0.0,0.0,0.004489,2
1672945165046814975,165276,1672945165078664597,gps,2,1,42.2999693602,-83.6985278518,270.381469727,0.0009,0.0,0.0,0.0,0.0009,0.0,0.0,0.0,0.004489,2
1672945165066898143,165277,1672945165098564884,gps,2,1,42.2999695224,-83.6985279315,270.382110596,0.0009,0.0,0.0,0.0,0.0009,0.0,0.0,0.0,0.004489,2
1672945165086618062,165278,1672945165118612521,gps,2,1,42.2999696854,-83.6985280115,270.382751465,0.0009,0.0,0.0,0.0,0.0009,0.0,0.0,0.0,0.004489,2
1672945165106370830,165279,1672945165138675346,gps,2,1,42.2999698551,-83.6985280911,270.383514404,0.0009,0.0,0.0,0.0,0.0009,0.0,0.0,0.0,0.004489,2
1672945165126927199,165280,1672945165158601119,gps,2,1,42.2999700354,-83.6985281782,270.384185791,0.0009,0.0,0.0,0.0,0.0009,0.0,0.0,0.0,0.004489,2
1672945165146247042,165281,1672945165178532568,gps,2,1,42.2999702164,-83.6985282655,270.38482666,0.0009,0.0,0.0,0.0,0.0009,0.0,0.0,0.0,0.004489,2
1672945165166615306,165282,1672945165198563029,gps,2,1,42.299970404,-83.6985283525,270.385620117,0.0009,0.0,0.0,0.0,0.0009,0.0,0.0,0.0,0.004489,2
1672945165186810998,165283,1672945165218623063,gps,2,1,42.2999706022,-83.6985284468,270.386291504,0.0009,0.0,0.0,0.0,0.0009,0.0,0.0,0.0,0.004489,2
1672945165206750760,165284,1672945165238522414,gps,2,1,42.2999708009,-83.6985285424,270.386962891,0.0009,0.0,0.0,0.0,0.0009,0.0,0.0,0.0,0.004489,2
1672945165226443767,165285,1672945165258607019,gps,2,1,42.2999710065,-83.698528637,270.387786865,0.0009,0.0,0.0,0.0,0.0009,0.0,0.0,0.0,0.004489,2
1672945165246275744,165286,1672945165278524510,gps,2,1,42.2999712228,-83.6985287395,270.38848877,0.0009,0.0,0.0,0.0,0.0009,0.0,0.0,0.0,0.004489,2
1672945165266954116,165287,1672945165298549946,gps,2,1,42.2999714394,-83.6985288424,270.389190674,0.0009,0.0,0.0,0.0,0.0009,0.0,0.0,0.0,0.004489,2
1672945165286763624,165288,1672945165318579074,gps,2,1,42.2999716639,-83.6985289443,270.390075684,0.0009,0.0,0.0,0.0,0.0009,0.0,0.0,0.0,0.004489,2
1672945165306560673,165289,1672945165338530375,gps,2,1,42.2999718991,-83.6985290525,270.390899658,0.0009,0.0,0.0,0.0,0.0009,0.0,0.0,0.0,0.004489,2
1672945165326557369,165290,1672945165358568538,gps,2,1,42.2999721353,-83.6985291609,270.39175415,0.0009,0.0,0.0,0.0,0.0009,0.0,0.0,0.0,0.004489,2
1672945165346512962,165291,1672945165378610980,gps,2,1,42.2999723786,-83.6985292696,270.392700195,0.0009,0.0,0.0,0.0,0.0009,0.0,0.0,0.0,0.004489,2
1672945165366658967,165292,1672945165398488792,gps,2,1,42.299972633,-83.6985293842,270.393615723,0.0009,0.0,0.0,0.0,0.0009,0.0,0.0,0.0,0.004489,2
1672945165386298873,165293,1672945165418589419,gps,2,1,42.2999728879,-83.6985294991,270.39453125,0.0009,0.0,0.0,0.0,0.0009,0.0,0.0,0.0,0.004489,2
1672945165406644552,165294,1672945165438634098,gps,2,1,42.2999731503,-83.6985296142,270.39553833,0.0009,0.0,0.0,0.0,0.0009,0.0,0.0,0.0,0.004489,2
1672945165426557647,165295,1672945165458514328,gps,2,1,42.299973424,-83.6985297357,270.39654541,0.0009,0.0,0.0,0.0,0.0009,0.0,0.0,0.0,0.004489,2
1672945165446279813,165296,1672945165478522294,gps,2,1,42.2999736986,-83.6985298575,270.39755249,0.0009,0.0,0.0,0.0,0.0009,0.0,0.0,0.0,0.004489,2
1672945165466688863,165297,1672945165498711863,gps,2,1,42.2999739803,-83.6985299787,270.398681641,0.0009,0.0,0.0,0.0,0.0009,0.0,0.0,0.0,0.004489,2
1672945165486597049,165298,1672945165518570604,gps,2,1,42.2999742731,-83.6985301059,270.399841309,0.0009,0.0,0.0,0.0,0.0009,0.0,0.0,0.0,0.004489,2
1672945165506993258,165299,1672945165538688318,gps,2,1,42.2999745668,-83.6985302336,270.401031494,0.0009,0.0,0.0,0.0,0.0009,0.0,0.0,0.0,0.004489,2
1672945165526793644,165300,1672945165558633687,gps,2,1,42.2999748676,-83.6985303607,270.402282715,0.0009,0.0,0.0,0.0,0.0009,0.0,0.0,0.0,0.004489,2
1672945165546816473,165301,1672945165578732609,gps,2,1,42.2999751799,-83.698530494,270.403564453,0.0009,0.0,0.0,0.0,0.0009,0.0,0.0,0.0,0.004489,2
1672945165566291121,165302,1672945165598606934,gps,2,1,42.2999754929,-83.6985306279,270.404815674,0.0009,0.0,0.0,0.0,0.0009,0.0,0.0,0.0,0.004489,2
1672945165586883378,165303,1672945165618668560,gps,2,1,42.2999758134,-83.6985307609,270.40612793,0.0009,0.0,0.0,0.0,0.0009,0.0,0.0,0.0,0.004489,2
1672945165606684583,165304,1672945165638576735,gps,2,1,42.2999761463,-83.6985309018,270.407531738,0.0009,0.0,0.0,0.0,0.0009,0.0,0.0,0.0,0.004489,2
1672945165626804582,165305,1672945165658536133,gps,2,1,42.2999764798,-83.6985310425,270.408874512,0.0009,0.0,0.0,0.0,0.0009,0.0,0.0,0.0,0.004489,2
1672945165646677129,165306,1672945165678629158,gps,2,1,42.2999768195,-83.6985311815,270.410247803,0.0009,0.0,0.0,0.0,0.0009,0.0,0.0,0.0,0.004489,2
1672945165666572757,165307,1672945165698485248,gps,2,1,42.2999771716,-83.6985313278,270.411651611,0.0009,0.0,0.0,0.0,0.0009,0.0,0.0,0.0,0.004489,2
1672945165686991723,165308,1672945165718705757,gps,2,1,42.2999775244,-83.6985314744,270.413085938,0.0009,0.0,0.0,0.0,0.0009,0.0,0.0,0.0,0.004489,2
1672945165706295840,165309,1672945165738590242,gps,2,1,42.2999778839,-83.698531619,270.414489746,0.0009,0.0,0.0,0.0,0.0009,0.0,0.0,0.0,0.004489,2
1672945165726305432,165310,1672945165758567230,gps,2,1,42.2999782557,-83.6985317706,270.415893555,0.0009,0.0,0.0,0.0,0.0009,0.0,0.0,0.0,0.004489,2
1672945165746882364,165311,1672945165778475554,gps,2,1,42.2999786285,-83.6985319222,270.417297363,0.0009,0.0,0.0,0.0,0.0009,0.0,0.0,0.0,0.004489,2
1672945165766575512,165312,1672945165798562576,gps,2,1,42.2999790075,-83.6985320717,270.418731689,0.001089,0.0,0.0,0.0,0.001089,0.0,0.0,0.0,0.004761,2
1672945165786535416,165313,1672945165818591319,gps,2,1,42.2999793989,-83.6985322269,270.420135498,0.001089,0.0,0.0,0.0,0.001089,0.0,0.0,0.0,0.004761,2
1672945165806607595,165314,1672945165838494881,gps,2,1,42.299979791,-83.6985323826,270.421539307,0.001089,0.0,0.0,0.0,0.001089,0.0,0.0,0.0,0.004761,2
1672945165826799749,165315,1672945165858605789,gps,2,1,42.2999801896,-83.6985325355,270.423065186,0.001089,0.0,0.0,0.0,0.001089,0.0,0.0,0.0,0.004761,2
1672945165846669125,165316,1672945165878486792,gps,2,1,42.2999806006,-83.6985326941,270.424560547,0.001089,0.0,0.0,0.0,0.001089,0.0,0.0,0.0,0.004761,2
1672945165866560695,165317,1672945165898540683,gps,2,1,42.2999810122,-83.6985328524,270.426086426,0.001089,0.0,0.0,0.0,0.001089,0.0,0.0,0.0,0.004761,2
1672945165886208450,165318,1672945165918517043,gps,2,1,42.2999814302,-83.6985330085,270.427703857,0.001089,0.0,0.0,0.0,0.001089,0.0,0.0,0.0,0.004761,2
1672945165906642058,165319,1672945165938565669,gps,2,1,42.299981861,-83.6985331697,270.429321289,0.001089,0.0,0.0,0.0,0.001089,0.0,0.0,0.0,0.004761,2
1672945165926526718,165320,1672945165958577024,gps,2,1,42.2999822924,-83.6985333308,270.430938721,0.001089,0.0,0.0,0.0,0.001089,0.0,0.0,0.0,0.004761,2
1672945165946652678,165321,1672945165978555425,gps,2,1,42.2999827293,-83.698533491,270.432617188,0.001089,0.0,0.0,0.0,0.001089,0.0,0.0,0.0,0.004761,2
1672945165966470605,165322,1672945165998541119,gps,2,1,42.2999831784,-83.6985336567,270.434265137,0.001089,0.0,0.0,0.0,0.001089,0.0,0.0,0.0,0.004761,2
1672945165986713213,165323,1672945166018597835,gps,2,1,42.2999836281,-83.6985338222,270.435943604,0.001089,0.0,0.0,0.0,0.001089,0.0,0.0,0.0,0.004761,2
1672945166006956699,165324,1672945166038717141,gps,2,1,42.2999840834,-83.6985339871,270.437591553,0.001089,0.0,0.0,0.0,0.001089,0.0,0.0,0.0,0.004761,2
1672945166026896413,165325,1672945166058689578,gps,2,1,42.2999845514,-83.6985341584,270.439208984,0.001089,0.0,0.0,0.0,0.001089,0.0,0.0,0.0,0.004761,2
1672945166046917703,165326,1672945166078631997,gps,2,1,42.2999850209,-83.698534331,270.440856934,0.001089,0.0,0.0,0.0,0.001089,0.0,0.0,0.0,0.004761,2
1672945166066690027,165327,1672945166098669236,gps,2,1,42.2999854938,-83.6985345011,270.442474365,0.001089,0.0,0.0,0.0,0.001089,0.0,0.0,0.0,0.004761,2
1672945166086489934,165328,1672945166118656261,gps,2,1,42.2999859798,-83.6985346778,270.444091797,0.001089,0.0,0.0,0.0,0.001089,0.0,0.0,0.0,0.004761,2
1672945166106731629,165329,1672945166138596604,gps,2,1,42.2999864651,-83.6985348549,270.445709229,0.001089,0.0,0.0,0.0,0.001089,0.0,0.0,0.0,0.004761,2
1672945166127051986,165330,1672945166158663300,gps,2,1,42.2999869549,-83.6985350296,270.447509766,0.001089,0.0,0.0,0.0,0.001089,0.0,0.0,0.0,0.004761,2
1672945166146251627,165331,1672945166178611952,gps,2,1,42.2999874564,-83.698535211,270.449310303,0.001089,0.0,0.0,0.0,0.001089,0.0,0.0,0.0,0.004761,2
1672945166166204732,165332,1672945166198581978,gps,2,1,42.299987959,-83.6985353918,270.45111084,0.001089,0.0,0.0,0.0,0.001089,0.0,0.0,0.0,0.004761,2
1672945166186518149,165333,1672945166218688275,gps,2,1,42.2999884655,-83.6985355716,270.453063965,0.001089,0.0,0.0,0.0,0.001089,0.0,0.0,0.0,0.004761,2
1672945166206714219,165334,1672945166238568956,gps,2,1,42.2999889835,-83.6985357569,270.455078125,0.001089,0.0,0.0,0.0,0.001089,0.0,0.0,0.0,0.004761,2
1672945166226597873,165335,1672945166258574671,gps,2,1,42.2999895023,-83.6985359425,270.457061768,0.001089,0.0,0.0,0.0,0.001089,0.0,0.0,0.0,0.004761,2
1672945166246321925,165336,1672945166278611303,gps,2,1,42.2999900252,-83.6985361258,270.459075928,0.001089,0.0,0.0,0.0,0.001089,0.0,0.0,0.0,0.004761,2
1672945166266649746,165337,1672945166298593275,gps,2,1,42.2999905593,-83.6985363139,270.461181641,0.001089,0.0,0.0,0.0,0.001089,0.0,0.0,0.0,0.004761,2
1672945166286625791,165338,1672945166318555967,gps,2,1,42.2999910942,-83.6985365034,270.463256836,0.001089,0.0,0.0,0.0,0.001089,0.0,0.0,0.0,0.004761,2
1672945166306251052,165339,1672945166338586698,gps,2,1,42.2999916337,-83.6985366894,270.465393066,0.001089,0.0,0.0,0.0,0.001089,0.0,0.0,0.0,0.004761,2
1672945166326407124,165340,1672945166358632458,gps,2,1,42.2999921841,-83.6985368808,270.467498779,0.001089,0.0,0.0,0.0,0.001089,0.0,0.0,0.0,0.004761,2
1672945166346655012,165341,1672945166378560600,gps,2,1,42.2999927353,-83.6985370718,270.469604492,0.001089,0.0,0.0,0.0,0.001089,0.0,0.0,0.0,0.004761,2
1672945166366478508,165342,1672945166398632139,gps,2,1,42.2999932908,-83.6985372601,270.471710205,0.001089,0.0,0.0,0.0,0.001089,0.0,0.0,0.0,0.004761,2
1672945166386818538,165343,1672945166418622286,gps,2,1,42.2999938569,-83.6985374536,270.4737854,0.001089,0.0,0.0,0.0,0.001089,0.0,0.0,0.0,0.004761,2
1672945166406741797,165344,1672945166438585324,gps,2,1,42.2999944242,-83.6985376483,270.475921631,0.001089,0.0,0.0,0.0,0.001089,0.0,0.0,0.0,0.004761,2
1672945166426656654,165345,1672945166458628667,gps,2,1,42.2999949954,-83.6985378394,270.477966309,0.001089,0.0,0.0,0.0,0.001089,0.0,0.0,0.0,0.004761,2
1672945166446628689,165346,1672945166478635578,gps,2,1,42.2999955773,-83.6985380364,270.480010986,0.001089,0.0,0.0,0.0,0.001089,0.0,0.0,0.0,0.004761,2
1672945166466187769,165347,1672945166498527234,gps,2,1,42.2999961604,-83.6985382326,270.482025146,0.001089,0.0,0.0,0.0,0.001089,0.0,0.0,0.0,0.004761,2
1672945166486702772,165348,1672945166518601144,gps,2,1,42.299996747,-83.6985384258,270.484039307,0.001089,0.0,0.0,0.0,0.001089,0.0,0.0,0.0,0.004761,2
1672945166506941282,165349,1672945166538755045,gps,2,1,42.2999973446,-83.6985386232,270.48614502,0.001089,0.0,0.0,0.0,0.001089,0.0,0.0,0.0,0.004761,2
1672945166526305700,165350,1672945166558641126,gps,2,1,42.2999979432,-83.6985388219,270.488220215,0.001089,0.0,0.0,0.0,0.001089,0.0,0.0,0.0,0.004761,2
1672945166546947631,165351,1672945166578757802,gps,2,1,42.2999985447,-83.6985390165,270.490386963,0.001089,0.0,0.0,0.0,0.001089,0.0,0.0,0.0,0.004761,2
1672945166566855982,165352,1672945166598619872,gps,2,1,42.2999991571,-83.6985392163,270.492706299,0.001089,0.0,0.0,0.0,0.001089,0.0,0.0,0.0,0.004761,2
1672945166586665056,165353,1672945166618602137,gps,2,1,42.2999997695,-83.6985394174,270.495056152,0.001089,0.0,0.0,0.0,0.001089,0.0,0.0,0.0,0.004761,2
1672945166606510142,165354,1672945166638639544,gps,2,1,42.3000003851,-83.6985396138,270.497406006,0.001089,0.0,0.0,0.0,0.001089,0.0,0.0,0.0,0.004761,2
1672945166626573808,165355,1672945166658585612,gps,2,1,42.3000010103,-83.6985398167,270.499908447,0.001089,0.0,0.0,0.0,0.001089,0.0,0.0,0.0,0.004761,2
1672945166646458457,165356,1672945166678555922,gps,2,1,42.300001636,-83.6985400195,270.502441406,0.001089,0.0,0.0,0.0,0.001089,0.0,0.0,0.0,0.004761,2
1672945166666331554,165357,1672945166698607187,gps,2,1,42.3000022649,-83.6985402184,270.504882812,0.001089,0.0,0.0,0.0,0.001089,0.0,0.0,0.0,0.004761,2
1672945166686921245,165358,1672945166718740716,gps,2,1,42.300002903,-83.6985404237,270.507415771,0.001089,0.0,0.0,0.0,0.001089,0.0,0.0,0.0,0.004761,2
1672945166706299815,165359,1672945166738524615,gps,2,1,42.3000035415,-83.6985406296,270.509979248,0.001089,0.0,0.0,0.0,0.001089,0.0,0.0,0.0,0.004761,2
1672945166726619654,165360,1672945166758591875,gps,2,1,42.3000041832,-83.6985408314,270.512481689,0.001089,0.0,0.0,0.0,0.001089,0.0,0.0,0.0,0.004761,2
1672945166746797907,165361,1672945166778586505,gps,2,1,42.3000048338,-83.6985410404,270.515075684,0.001089,0.0,0.0,0.0,0.001089,0.0,0.0,0.0,0.004761,2
1672945166766745115,165362,1672945166798618156,gps,2,1,42.3000054861,-83.6985412477,270.517669678,0.001089,0.0,0.0,0.0,0.001089,0.0,0.0,0.0,0.004761,2
1672945166786400281,165363,1672945166818601091,gps,2,1,42.3000061405,-83.6985414531,270.520202637,0.001089,0.0,0.0,0.0,0.001089,0.0,0.0,0.0,0.004761,2
1672945166806479172,165364,1672945166838591240,gps,2,1,42.3000068047,-83.6985416643,270.522766113,0.001089,0.0,0.0,0.0,0.001089,0.0,0.0,0.0,0.004761,2
1672945166826667354,165365,1672945166858525062,gps,2,1,42.3000074695,-83.6985418756,270.52532959,0.001089,0.0,0.0,0.0,0.001089,0.0,0.0,0.0,0.004761,2
1672945166846720887,165366,1672945166878577748,gps,2,1,42.3000081366,-83.6985420849,270.527801514,0.001089,0.0,0.0,0.0,0.001089,0.0,0.0,0.0,0.004761,2
1672945166866196332,165367,1672945166898507006,gps,2,1,42.3000088134,-83.6985422991,270.530181885,0.001089,0.0,0.0,0.0,0.001089,0.0,0.0,0.0,0.004761,2
1672945166886496628,165368,1672945166918515269,gps,2,1,42.3000094907,-83.6985425135,270.532623291,0.001089,0.0,0.0,0.0,0.001089,0.0,0.0,0.0,0.004761,2
1672945166906706712,165369,1672945166938589204,gps,2,1,42.3000101704,-83.6985427253,270.534973145,0.001089,0.0,0.0,0.0,0.001089,0.0,0.0,0.0,0.004761,2
1672945166926640447,165370,1672945166958594274,gps,2,1,42.3000108597,-83.6985429442,270.537353516,0.001089,0.0,0.0,0.0,0.001089,0.0,0.0,0.0,0.004761,2
1672945166946220520,165371,1672945166978541112,gps,2,1,42.3000115497,-83.6985431629,270.539794922,0.001089,0.0,0.0,0.0,0.001089,0.0,0.0,0.0,0.004761,2
1672945166966287930,165372,1672945166998589116,gps,2,1,42.300012242,-83.6985433761,270.542144775,0.001089,0.0,0.0,0.0,0.001089,0.0,0.0,0.0,0.004761,2
1672945166986579826,165373,1672945167018619675,gps,2,1,42.300012944,-83.6985435939,270.544616699,0.001089,0.0,0.0,0.0,0.001089,0.0,0.0,0.0,0.004761,2
1672945167006538680,165374,1672945167038597089,gps,2,1,42.3000136466,-83.6985438117,270.547058105,0.001089,0.0,0.0,0.0,0.001089,0.0,0.0,0.0,0.004761,2
1672945167026779626,165375,1672945167058633712,gps,2,1,42.3000143509,-83.6985440258,270.549530029,0.001089,0.0,0.0,0.0,0.001089,0.0,0.0,0.0,0.004761,2
1672945167046773219,165376,1672945167078678299,gps,2,1,42.3000150649,-83.6985442442,270.552124023,0.001089,0.0,0.0,0.0,0.001089,0.0,0.0,0.0,0.004761,2
1672945167066491959,165377,1672945167098666303,gps,2,1,42.3000157798,-83.6985444641,270.554779053,0.001089,0.0,0.0,0.0,0.001089,0.0,0.0,0.0,0.004761,2
1672945167086895067,165378,1672945167118585814,gps,2,1,42.3000164962,-83.6985446789,270.557281494,0.001089,0.0,0.0,0.0,0.001089,0.0,0.0,0.0,0.004761,2
1672945167106809237,165379,1672945167138664470,gps,2,1,42.3000172225,-83.6985448996,270.559844971,0.001089,0.0,0.0,0.0,0.001089,0.0,0.0,0.0,0.004761,2
1672945167126332518,165380,1672945167158636738,gps,2,1,42.3000179494,-83.6985451202,270.562438965,0.001089,0.0,0.0,0.0,0.001089,0.0,0.0,0.0,0.004761,2
1672945167146599037,165381,1672945167178647897,gps,2,1,42.300018677,-83.6985453358,270.564788818,0.001089,0.0,0.0,0.0,0.001089,0.0,0.0,0.0,0.004761,2
1672945167166574631,165382,1672945167198647458,gps,2,1,42.3000194142,-83.6985455571,270.56729126,0.001089,0.0,0.0,0.0,0.001089,0.0,0.0,0.0,0.004761,2
1672945167186751661,165383,1672945167218721373,gps,2,1,42.3000201518,-83.6985457785,270.569732666,0.001089,0.0,0.0,0.0,0.001089,0.0,0.0,0.0,0.004761,2
1672945167206645980,165384,1672945167238601700,gps,2,1,42.3000208901,-83.6985459957,270.572021484,0.001089,0.0,0.0,0.0,0.001089,0.0,0.0,0.0,0.004761,2
1672945167226496302,165385,1672945167258572992,gps,2,1,42.3000216362,-83.6985462185,270.574554443,0.001089,0.0,0.0,0.0,0.001089,0.0,0.0,0.0,0.004761,2
1672945167246707589,165386,1672945167278554494,gps,2,1,42.3000223822,-83.6985464413,270.577056885,0.001089,0.0,0.0,0.0,0.001089,0.0,0.0,0.0,0.004761,2
1672945167266590211,165387,1672945167298605132,gps,2,1,42.3000231306,-83.6985466609,270.579406738,0.001089,0.0,0.0,0.0,0.001089,0.0,0.0,0.0,0.004761,2
1672945167286530416,165388,1672945167318576207,gps,2,1,42.3000238858,-83.6985468862,270.582092285,0.001089,0.0,0.0,0.0,0.001089,0.0,0.0,0.0,0.004761,2
1672945167306178577,165389,1672945167338564939,gps,2,1,42.3000246425,-83.6985471127,270.584716797,0.001089,0.0,0.0,0.0,0.001089,0.0,0.0,0.0,0.004761,2
1672945167326533362,165390,1672945167358613525,gps,2,1,42.3000253993,-83.6985473357,270.587341309,0.001089,0.0,0.0,0.0,0.001089,0.0,0.0,0.0,0.004761,2
1672945167346297778,165391,1672945167378562565,gps,2,1,42.3000261638,-83.6985475652,270.590301514,0.001089,0.0,0.0,0.0,0.001089,0.0,0.0,0.0,0.004761,2
1672945167366606519,165392,1672945167398585802,gps,2,1,42.3000269284,-83.6985477946,270.593231201,0.001089,0.0,0.0,0.0,0.001089,0.0,0.0,0.0,0.004761,2
1672945167386467868,165393,1672945167418632250,gps,2,1,42.3000276934,-83.698548021,270.596191406,0.001089,0.0,0.0,0.0,0.001089,0.0,0.0,0.0,0.004761,2
1672945167406727325,165394,1672945167438610878,gps,2,1,42.3000284659,-83.6985482538,270.599395752,0.001089,0.0,0.0,0.0,0.001089,0.0,0.0,0.0,0.004761,2
1672945167426242712,165395,1672945167458558259,gps,2,1,42.3000292383,-83.6985484862,270.602600098,0.001089,0.0,0.0,0.0,0.001089,0.0,0.0,0.0,0.004761,2
1672945167446284326,165396,1672945167478556308,gps,2,1,42.3000300107,-83.698548715,270.605743408,0.001089,0.0,0.0,0.0,0.001089,0.0,0.0,0.0,0.004761,2
1672945167466499874,165397,1672945167498605829,gps,2,1,42.30003079,-83.698548949,270.608978271,0.001089,0.0,0.0,0.0,0.001089,0.0,0.0,0.0,0.004761,2
1672945167486691499,165398,1672945167518595539,gps,2,1,42.3000315698,-83.6985491826,270.612213135,0.001089,0.0,0.0,0.0,0.001089,0.0,0.0,0.0,0.004761,2
1672945167506757808,165399,1672945167538816907,gps,2,1,42.3000323489,-83.6985494119,270.61529541,0.001089,0.0,0.0,0.0,0.001089,0.0,0.0,0.0,0.004761,2
1672945167526305805,165400,1672945167558546522,gps,2,1,42.3000331357,-83.6985496446,270.618438721,0.001089,0.0,0.0,0.0,0.001089,0.0,0.0,0.0,0.004761,2
1672945167546593203,165401,1672945167578701846,gps,2,1,42.3000339237,-83.6985498785,270.621704102,0.001089,0.0,0.0,0.0,0.001089,0.0,0.0,0.0,0.004761,2
1672945167566945305,165402,1672945167598703209,gps,2,1,42.3000347094,-83.6985501078,270.624694824,0.001089,0.0,0.0,0.0,0.001089,0.0,0.0,0.0,0.004761,2
1672945167586490465,165403,1672945167618530399,gps,2,1,42.3000355031,-83.6985503406,270.627807617,0.001089,0.0,0.0,0.0,0.001089,0.0,0.0,0.0,0.004761,2
1672945167606438520,165404,1672945167638596459,gps,2,1,42.300036298,-83.6985505734,270.630859375,0.001089,0.0,0.0,0.0,0.001089,0.0,0.0,0.0,0.004761,2
1672945167626510362,165405,1672945167658614382,gps,2,1,42.3000370896,-83.6985508018,270.633666992,0.001089,0.0,0.0,0.0,0.001089,0.0,0.0,0.0,0.004761,2
1672945167646270602,165406,1672945167678558117,gps,2,1,42.3000378899,-83.698551034,270.636474609,0.001089,0.0,0.0,0.0,0.001089,0.0,0.0,0.0,0.004761,2
1672945167666858186,165407,1672945167698629494,gps,2,1,42.3000386904,-83.6985512657,270.639312744,0.001089,0.0,0.0,0.0,0.001089,0.0,0.0,0.0,0.004761,2
1672945167686726883,165408,1672945167718663284,gps,2,1,42.3000394881,-83.6985514934,270.641906738,0.001089,0.0,0.0,0.0,0.001089,0.0,0.0,0.0,0.004761,2
1672945167706996939,165409,1672945167738606612,gps,2,1,42.3000402937,-83.6985517247,270.64453125,0.001089,0.0,0.0,0.0,0.001089,0.0,0.0,0.0,0.004761,2
1672945167726684257,165410,1672945167758585789,gps,2,1,42.3000410994,-83.6985519563,270.647155762,0.001089,0.0,0.0,0.0,0.001089,0.0,0.0,0.0,0.004761,2
1672945167746550320,165411,1672945167778621274,gps,2,1,42.3000419031,-83.6985521834,270.649627686,0.001089,0.0,0.0,0.0,0.001089,0.0,0.0,0.0,0.004761,2
1672945167766461901,165412,1672945167798585361,gps,2,1,42.3000427146,-83.6985524148,270.652160645,0.001089,0.0,0.0,0.0,0.001089,0.0,0.0,0.0,0.004761,2
1672945167786394675,165413,1672945167818646023,gps,2,1,42.3000435261,-83.6985526459,270.654724121,0.001089,0.0,0.0,0.0,0.001089,0.0,0.0,0.0,0.004761,2
1672945167806504542,165414,1672945167838721610,gps,2,1,42.3000443361,-83.6985528739,270.65713501,0.001089,0.0,0.0,0.0,0.001089,0.0,0.0,0.0,0.004761,2
1672945167826532032,165415,1672945167858582603,gps,2,1,42.3000451528,-83.6985531061,270.659698486,0.001089,0.0,0.0,0.0,0.001089,0.0,0.0,0.0,0.004761,2
1672945167846597284,165416,1672945167878548393,gps,2,1,42.3000459695,-83.6985533388,270.662261963,0.001089,0.0,0.0,0.0,0.001089,0.0,0.0,0.0,0.004761,2
1672945167866244484,165417,1672945167898623550,gps,2,1,42.3000467852,-83.698553569,270.664764404,0.001089,0.0,0.0,0.0,0.001089,0.0,0.0,0.0,0.004761,2
1672945167886477212,165418,1672945167918523337,gps,2,1,42.3000476071,-83.6985538043,270.667419434,0.001089,0.0,0.0,0.0,0.001089,0.0,0.0,0.0,0.004761,2
1672945167906713268,165419,1672945167938547895,gps,2,1,42.3000484273,-83.6985540419,270.67010498,0.001089,0.0,0.0,0.0,0.001089,0.0,0.0,0.0,0.004761,2
1672945167926658768,165420,1672945167958609952,gps,2,1,42.3000492481,-83.6985542755,270.672729492,0.001089,0.0,0.0,0.0,0.001089,0.0,0.0,0.0,0.004761,2
1672945167946733257,165421,1672945167978574261,gps,2,1,42.3000500732,-83.6985545158,270.675537109,0.001089,0.0,0.0,0.0,0.001089,0.0,0.0,0.0,0.004761,2
1672945167966372873,165422,1672945167998604058,gps,2,1,42.3000508981,-83.6985547561,270.678283691,0.001089,0.0,0.0,0.0,0.001089,0.0,0.0,0.0,0.004761,2
1672945167986316570,165423,1672945168018635840,gps,2,1,42.3000517241,-83.6985549917,270.681030273,0.001089,0.0,0.0,0.0,0.001089,0.0,0.0,0.0,0.004761,2
1672945168006810155,165424,1672945168038591732,gps,2,1,42.3000525563,-83.6985552303,270.683959961,0.001089,0.0,0.0,0.0,0.001089,0.0,0.0,0.0,0.004761,2
1672945168026524041,165425,1672945168058622643,gps,2,1,42.3000533883,-83.698555469,270.686859131,0.001089,0.0,0.0,0.0,0.001089,0.0,0.0,0.0,0.004761,2
1672945168046705829,165426,1672945168078703411,gps,2,1,42.3000542194,-83.6985557056,270.689666748,0.001089,0.0,0.0,0.0,0.001089,0.0,0.0,0.0,0.004761,2
1672945168066547395,165427,1672945168098565066,gps,2,1,42.3000550563,-83.6985559454,270.692565918,0.001089,0.0,0.0,0.0,0.001089,0.0,0.0,0.0,0.004761,2
1672945168086810624,165428,1672945168118749529,gps,2,1,42.3000558932,-83.698556185,270.695495605,0.001089,0.0,0.0,0.0,0.001089,0.0,0.0,0.0,0.004761,2
1672945168106605726,165429,1672945168138599010,gps,2,1,42.3000567297,-83.6985564213,270.69833374,0.001089,0.0,0.0,0.0,0.001089,0.0,0.0,0.0,0.004761,2
1672945168126746417,165430,1672945168158637817,gps,2,1,42.300057571,-83.6985566622,270.701293945,0.001089,0.0,0.0,0.0,0.001089,0.0,0.0,0.0,0.004761,2
1672945168146305401,165431,1672945168178585219,gps,2,1,42.300058412,-83.6985569016,270.704345703,0.001089,0.0,0.0,0.0,0.001089,0.0,0.0,0.0,0.004761,2
1672945168166600841,165432,1672945168198569026,gps,2,1,42.3000592539,-83.6985571377,270.707275391,0.001089,0.0,0.0,0.0,0.001089,0.0,0.0,0.0,0.004761,2
1672945168186696576,165433,1672945168218607608,gps,2,1,42.3000601017,-83.6985573758,270.710388184,0.001089,0.0,0.0,0.0,0.001089,0.0,0.0,0.0,0.004761,2
1672945168206449492,165434,1672945168238526311,gps,2,1,42.3000609501,-83.6985576142,270.713531494,0.001089,0.0,0.0,0.0,0.001089,0.0,0.0,0.0,0.004761,2
1672945168226634622,165435,1672945168258600646,gps,2,1,42.3000617968,-83.6985578526,270.71673584,0.001089,0.0,0.0,0.0,0.001089,0.0,0.0,0.0,0.004761,2
1672945168246489840,165436,1672945168278562301,gps,2,1,42.3000626497,-83.698558094,270.720062256,0.001089,0.0,0.0,0.0,0.001089,0.0,0.0,0.0,0.004761,2
1672945168266325112,165437,1672945168298565022,gps,2,1,42.3000635027,-83.6985583357,270.723419189,0.001089,0.0,0.0,0.0,0.001089,0.0,0.0,0.0,0.004761,2
1672945168286790977,165438,1672945168318643636,gps,2,1,42.3000643544,-83.6985585776,270.726745605,0.001089,0.0,0.0,0.0,0.001089,0.0,0.0,0.0,0.004761,2
1672945168306868804,165439,1672945168338515721,gps,2,1,42.3000652113,-83.6985588244,270.730133057,0.001089,0.0,0.0,0.0,0.001089,0.0,0.0,0.0,0.004761,2
1672945168326568762,165440,1672945168358545161,gps,2,1,42.300066068,-83.6985590712,270.733520508,0.001089,0.0,0.0,0.0,0.001089,0.0,0.0,0.0,0.004761,2
1672945168346729872,165441,1672945168378595289,gps,2,1,42.3000669248,-83.6985593157,270.736816406,0.001089,0.0,0.0,0.0,0.001089,0.0,0.0,0.0,0.004761,2
1672945168366508000,165442,1672945168398543498,gps,2,1,42.3000677865,-83.6985595636,270.740112305,0.001089,0.0,0.0,0.0,0.001089,0.0,0.0,0.0,0.004761,2
1672945168386694824,165443,1672945168418606774,gps,2,1,42.3000686484,-83.698559811,270.743377686,0.001089,0.0,0.0,0.0,0.001089,0.0,0.0,0.0,0.004761,2
1672945168406467536,165444,1672945168438598193,gps,2,1,42.3000695109,-83.6985600547,270.746490479,0.001089,0.0,0.0,0.0,0.001089,0.0,0.0,0.0,0.004761,2
1672945168426259980,165445,1672945168458573801,gps,2,1,42.300070379,-83.6985603013,270.749481201,0.001089,0.0,0.0,0.0,0.001089,0.0,0.0,0.0,0.004761,2
1672945168446188154,165446,1672945168478527804,gps,2,1,42.3000712475,-83.698560548,270.752502441,0.001089,0.0,0.0,0.0,0.001089,0.0,0.0,0.0,0.004761,2
1672945168466698646,165447,1672945168498592463,gps,2,1,42.3000721167,-83.6985607888,270.755249023,0.001089,0.0,0.0,0.0,0.001089,0.0,0.0,0.0,0.004761,2
1672945168486596844,165448,1672945168518583824,gps,2,1,42.3000729914,-83.6985610323,270.757904053,0.001089,0.0,0.0,0.0,0.001089,0.0,0.0,0.0,0.004761,2
1672945168506549434,165449,1672945168538674049,gps,2,1,42.3000738662,-83.6985612756,270.760650635,0.001089,0.0,0.0,0.0,0.001089,0.0,0.0,0.0,0.004761,2
1672945168526272292,165450,1672945168558636040,gps,2,1,42.300074742,-83.6985615141,270.763153076,0.001089,0.0,0.0,0.0,0.001089,0.0,0.0,0.0,0.004761,2
1672945168546780134,165451,1672945168578616196,gps,2,1,42.3000756227,-83.6985617555,270.765777588,0.001089,0.0,0.0,0.0,0.001089,0.0,0.0,0.0,0.004761,2
1672945168567190351,165452,1672945168598705137,gps,2,1,42.3000765032,-83.6985619986,270.768493652,0.001089,0.0,0.0,0.0,0.001089,0.0,0.0,0.0,0.004761,2
1672945168586187209,165453,1672945168618574414,gps,2,1,42.3000773849,-83.6985622356,270.771087646,0.001089,0.0,0.0,0.0,0.001089,0.0,0.0,0.0,0.004761,2
1672945168606272904,165454,1672945168638640703,gps,2,1,42.3000782703,-83.6985624776,270.774017334,0.001089,0.0,0.0,0.0,0.001089,0.0,0.0,0.0,0.004761,2
1672945168626631108,165455,1672945168658545491,gps,2,1,42.3000791562,-83.6985627198,270.776947021,0.001089,0.0,0.0,0.0,0.001089,0.0,0.0,0.0,0.004761,2
1672945168646270078,165456,1672945168678515134,gps,2,1,42.3000800429,-83.6985629572,270.779815674,0.001089,0.0,0.0,0.0,0.001089,0.0,0.0,0.0,0.004761,2
1672945168666444757,165457,1672945168698546964,gps,2,1,42.3000809338,-83.6985632003,270.782989502,0.001089,0.0,0.0,0.0,0.001089,0.0,0.0,0.0,0.004761,2
1672945168686351878,165458,1672945168718640791,gps,2,1,42.3000818249,-83.6985634434,270.786102295,0.001089,0.0,0.0,0.0,0.001089,0.0,0.0,0.0,0.004761,2
1672945168706247609,165459,1672945168738600554,gps,2,1,42.3000827173,-83.6985636824,270.789154053,0.001089,0.0,0.0,0.0,0.001089,0.0,0.0,0.0,0.004761,2
1672945168726196278,165460,1672945168758569692,gps,2,1,42.3000836122,-83.6985639272,270.792388916,0.001089,0.0,0.0,0.0,0.001089,0.0,0.0,0.0,0.004761,2
1672945168746704533,165461,1672945168778591219,gps,2,1,42.3000845079,-83.6985641722,270.795562744,0.001089,0.0,0.0,0.0,0.001089,0.0,0.0,0.0,0.004761,2
1672945168766719330,165462,1672945168798632397,gps,2,1,42.3000854054,-83.6985644131,270.798736572,0.001089,0.0,0.0,0.0,0.001089,0.0,0.0,0.0,0.004761,2
1672945168786537175,165463,1672945168818571466,gps,2,1,42.3000863057,-83.6985646598,270.802062988,0.001089,0.0,0.0,0.0,0.001089,0.0,0.0,0.0,0.004761,2
1672945168806172683,165464,1672945168838592918,gps,2,1,42.3000872079,-83.6985649067,270.805358887,0.001089,0.0,0.0,0.0,0.001089,0.0,0.0,0.0,0.004761,2
1672945168826874959,165465,1672945168858631934,gps,2,1,42.3000881109,-83.6985651502,270.808624268,0.001089,0.0,0.0,0.0,0.001089,0.0,0.0,0.0,0.004761,2
1672945168846207013,165466,1672945168878556218,gps,2,1,42.3000890179,-83.6985653988,270.811981201,0.001089,0.0,0.0,0.0,0.001089,0.0,0.0,0.0,0.004761,2
1672945168866200436,165467,1672945168898589319,gps,2,1,42.3000899257,-83.6985656474,270.815307617,0.001089,0.0,0.0,0.0,0.001089,0.0,0.0,0.0,0.004761,2
1672945168886964744,165468,1672945168918602264,gps,2,1,42.3000908345,-83.6985658918,270.818481445,0.001089,0.0,0.0,0.0,0.001089,0.0,0.0,0.0,0.004761,2
1672945168906568028,165469,1672945168938584067,gps,2,1,42.3000917468,-83.698566142,270.821746826,0.001089,0.0,0.0,0.0,0.001089,0.0,0.0,0.0,0.004761,2
1672945168926408281,165470,1672945168958583629,gps,2,1,42.300092659,-83.6985663916,270.825012207,0.001089,0.0,0.0,0.0,0.001089,0.0,0.0,0.0,0.004761,2
1672945168946292585,165471,1672945168978590005,gps,2,1,42.300093574,-83.6985666351,270.828094482,0.001089,0.0,0.0,0.0,0.001089,0.0,0.0,0.0,0.004761,2
1672945168966362625,165472,1672945168998587463,gps,2,1,42.3000944926,-83.6985668819,270.831176758,0.001089,0.0,0.0,0.0,0.001089,0.0,0.0,0.0,0.004761,2
1672945168986198060,165473,1672945169018554757,gps,2,1,42.3000954126,-83.6985671295,270.834136963,0.001089,0.0,0.0,0.0,0.001089,0.0,0.0,0.0,0.004761,2
1672945169006559784,165474,1672945169038628294,gps,2,1,42.3000963343,-83.6985673692,270.836853027,0.001089,0.0,0.0,0.0,0.001089,0.0,0.0,0.0,0.004761,2
1672945169026786458,165475,1672945169058659631,gps,2,1,42.3000972601,-83.6985676123,270.839416504,0.001089,0.0,0.0,0.0,0.001089,0.0,0.0,0.0,0.004761,2
1672945169046471983,165476,1672945169078596677,gps,2,1,42.300098186,-83.6985678578,270.84185791,0.001089,0.0,0.0,0.0,0.001089,0.0,0.0,0.0,0.004761,2
1672945169066902901,165477,1672945169098714709,gps,2,1,42.300099113,-83.6985680946,270.844421387,0.001089,0.0,0.0,0.0,0.001089,0.0,0.0,0.0,0.004761,2
1672945169086673100,165478,1672945169118676259,gps,2,1,42.3001000438,-83.6985683374,270.846862793,0.001089,0.0,0.0,0.0,0.001089,0.0,0.0,0.0,0.004761,2
1672945169106136639,165479,1672945169138552607,gps,2,1,42.3001009728,-83.6985685809,270.849334717,0.001089,0.0,0.0,0.0,0.001089,0.0,0.0,0.0,0.004761,2
1672945169126265227,165480,1672945169158626761,gps,2,1,42.3001019054,-83.6985688161,270.851959229,0.001089,0.0,0.0,0.0,0.001089,0.0,0.0,0.0,0.004761,2
1672945169146196089,165481,1672945169178547695,gps,2,1,42.3001028401,-83.6985690587,270.854675293,0.001089,0.0,0.0,0.0,0.001089,0.0,0.0,0.0,0.004761,2
1672945169166192634,165482,1672945169198599302,gps,2,1,42.3001037754,-83.6985693015,270.857330322,0.001089,0.0,0.0,0.0,0.001089,0.0,0.0,0.0,0.004761,2
1672945169186672542,165483,1672945169218576662,gps,2,1,42.3001047137,-83.6985695369,270.860198975,0.001089,0.0,0.0,0.0,0.001089,0.0,0.0,0.0,0.004761,2
1672945169206620302,165484,1672945169238605917,gps,2,1,42.3001056558,-83.6985697764,270.863098145,0.001089,0.0,0.0,0.0,0.001089,0.0,0.0,0.0,0.004761,2
1672945169226321859,165485,1672945169258573602,gps,2,1,42.3001065987,-83.6985700159,270.866027832,0.001089,0.0,0.0,0.0,0.001089,0.0,0.0,0.0,0.004761,2
1672945169246334993,165486,1672945169278630553,gps,2,1,42.3001075434,-83.6985702505,270.869018555,0.001089,0.0,0.0,0.0,0.001089,0.0,0.0,0.0,0.004761,2
1672945169266262543,165487,1672945169298621127,gps,2,1,42.300108492,-83.6985704881,270.87197876,0.001089,0.0,0.0,0.0,0.001089,0.0,0.0,0.0,0.004761,2
1672945169286156058,165488,1672945169318552543,gps,2,1,42.3001094412,-83.6985707274,270.874908447,0.001089,0.0,0.0,0.0,0.001089,0.0,0.0,0.0,0.004761,2
1672945169306546508,165489,1672945169338639469,gps,2,1,42.3001103926,-83.6985709597,270.877868652,0.001089,0.0,0.0,0.0,0.001089,0.0,0.0,0.0,0.004761,2
1672945169326668431,165490,1672945169358609735,gps,2,1,42.300111348,-83.6985711963,270.880645752,0.001089,0.0,0.0,0.0,0.001089,0.0,0.0,0.0,0.004761,2
1672945169346574516,165491,1672945169378574742,gps,2,1,42.3001123036,-83.6985714323,270.883422852,0.001089,0.0,0.0,0.0,0.001089,0.0,0.0,0.0,0.004761,2
1672945169366270450,165492,1672945169398616246,gps,2,1,42.3001132617,-83.6985716616,270.886169434,0.001089,0.0,0.0,0.0,0.001089,0.0,0.0,0.0,0.004761,2
1672945169386450247,165493,1672945169418607348,gps,2,1,42.3001142233,-83.6985718948,270.888702393,0.001089,0.0,0.0,0.0,0.001089,0.0,0.0,0.0,0.004761,2
1672945169406291546,165494,1672945169438601477,gps,2,1,42.3001151849,-83.698572128,270.891357422,0.001089,0.0,0.0,0.0,0.001089,0.0,0.0,0.0,0.004761,2
1672945169426967290,165495,1672945169458554141,gps,2,1,42.3001161486,-83.6985723555,270.893951416,0.001089,0.0,0.0,0.0,0.001089,0.0,0.0,0.0,0.004761,2
1672945169446795759,165496,1672945169478572301,gps,2,1,42.3001171156,-83.6985725877,270.89654541,0.001089,0.0,0.0,0.0,0.001089,0.0,0.0,0.0,0.004761,2
1672945169466697938,165497,1672945169498613589,gps,2,1,42.3001180827,-83.6985728195,270.899078369,0.001089,0.0,0.0,0.0,0.001089,0.0,0.0,0.0,0.004761,2
1672945169486752157,165498,1672945169518633935,gps,2,1,42.3001190527,-83.6985730461,270.901519775,0.001089,0.0,0.0,0.0,0.001089,0.0,0.0,0.0,0.004761,2
1672945169506359744,165499,1672945169538715419,gps,2,1,42.3001200261,-83.6985732764,270.903808594,0.001089,0.0,0.0,0.0,0.001089,0.0,0.0,0.0,0.004761,2
1672945169526450115,165500,1672945169558628362,gps,2,1,42.3001209993,-83.6985735079,270.905914307,0.001089,0.0,0.0,0.0,0.001089,0.0,0.0,0.0,0.004761,2
1672945169546567369,165501,1672945169578634184,gps,2,1,42.3001219755,-83.6985737337,270.90814209,0.001089,0.0,0.0,0.0,0.001089,0.0,0.0,0.0,0.004761,2
1672945169566737124,165502,1672945169598747830,gps,2,1,42.3001229544,-83.6985739649,270.910308838,0.001089,0.0,0.0,0.0,0.001089,0.0,0.0,0.0,0.004761,2
1672945169586753275,165503,1672945169618584734,gps,2,1,42.3001239341,-83.6985741961,270.912414551,0.001089,0.0,0.0,0.0,0.001089,0.0,0.0,0.0,0.004761,2
1672945169606728588,165504,1672945169638629892,gps,2,1,42.3001249158,-83.698574421,270.915039062,0.001089,0.0,0.0,0.0,0.001089,0.0,0.0,0.0,0.004761,2
1672945169626419929,165505,1672945169658611891,gps,2,1,42.3001259022,-83.6985746502,270.917724609,0.001089,0.0,0.0,0.0,0.001089,0.0,0.0,0.0,0.004761,2
1672945169646540139,165506,1672945169678575649,gps,2,1,42.3001268872,-83.698574879,270.920501709,0.001089,0.0,0.0,0.0,0.001089,0.0,0.0,0.0,0.004761,2
1672945169666171175,165507,1672945169698624574,gps,2,1,42.3001278756,-83.6985751014,270.923400879,0.001089,0.0,0.0,0.0,0.001089,0.0,0.0,0.0,0.004761,2
1672945169686334037,165508,1672945169718720139,gps,2,1,42.3001288674,-83.6985753272,270.926269531,0.001089,0.0,0.0,0.0,0.001089,0.0,0.0,0.0,0.004761,2
1672945169706211513,165509,1672945169738524835,gps,2,1,42.3001298581,-83.6985755521,270.929138184,0.001089,0.0,0.0,0.0,0.001089,0.0,0.0,0.0,0.004761,2
1672945169726620481,165510,1672945169758614403,gps,2,1,42.3001308525,-83.698575771,270.932159424,0.001089,0.0,0.0,0.0,0.001089,0.0,0.0,0.0,0.004761,2
1672945169746199046,165511,1672945169778539284,gps,2,1,42.3001318496,-83.6985759909,270.935028076,0.001089,0.0,0.0,0.0,0.001089,0.0,0.0,0.0,0.004761,2
1672945169766390203,165512,1672945169798579268,gps,2,1,42.3001328468,-83.6985762109,270.937896729,0.000841,0.0,0.0,0.0,0.0009,0.0,0.0,0.0,0.004624,2
1672945169786435030,165513,1672945169818605698,gps,2,1,42.3001338468,-83.6985764239,270.940826416,0.000841,0.0,0.0,0.0,0.0009,0.0,0.0,0.0,0.004624,2
1672945169806304232,165514,1672945169838603044,gps,2,1,42.3001348494,-83.6985766382,270.94354248,0.000841,0.0,0.0,0.0,0.0009,0.0,0.0,0.0,0.004624,2
1672945169826324472,165515,1672945169858521818,gps,2,1,42.3001358517,-83.6985768521,270.946258545,0.000841,0.0,0.0,0.0,0.0009,0.0,0.0,0.0,0.004624,2
1672945169846211652,165516,1672945169878584268,gps,2,1,42.3001368581,-83.6985770597,270.948883057,0.000841,0.0,0.0,0.0,0.0009,0.0,0.0,0.0,0.004624,2
1672945169866446959,165517,1672945169898561186,gps,2,1,42.3001378669,-83.6985772683,270.951263428,0.000841,0.0,0.0,0.0,0.0009,0.0,0.0,0.0,0.004624,2
1672945169886648228,165518,1672945169918641086,gps,2,1,42.3001388758,-83.6985774765,270.953613281,0.000841,0.0,0.0,0.0,0.0009,0.0,0.0,0.0,0.004624,2
1672945169906561549,165519,1672945169938629021,gps,2,1,42.3001398879,-83.6985776791,270.9559021,0.000841,0.0,0.0,0.0,0.0009,0.0,0.0,0.0,0.004624,2
1672945169926356543,165520,1672945169958564922,gps,2,1,42.3001409041,-83.6985778837,270.95803833,0.000841,0.0,0.0,0.0,0.0009,0.0,0.0,0.0,0.004624,2
1672945169946218126,165521,1672945169978566585,gps,2,1,42.3001419197,-83.6985780883,270.960205078,0.000841,0.0,0.0,0.0,0.0009,0.0,0.0,0.0,0.004624,2
1672945169966773301,165522,1672945169998631016,gps,2,1,42.3001429376,-83.6985782867,270.962493896,0.000841,0.0,0.0,0.0,0.0009,0.0,0.0,0.0,0.004624,2
1672945169986458901,165523,1672945170018576916,gps,2,1,42.3001439592,-83.6985784876,270.964752197,0.000841,0.0,0.0,0.0,0.0009,0.0,0.0,0.0,0.004624,2
1672945170006775724,165524,1672945170038623013,gps,2,1,42.3001449807,-83.6985786887,270.967041016,0.000841,0.0,0.0,0.0,0.0009,0.0,0.0,0.0,0.004624,2
1672945170026582326,165525,1672945170058691598,gps,2,1,42.300146004,-83.6985788841,270.969268799,0.000841,0.0,0.0,0.0,0.0009,0.0,0.0,0.0,0.004624,2
1672945170046244105,165526,1672945170078561785,gps,2,1,42.3001470315,-83.6985790836,270.971313477,0.000841,0.0,0.0,0.0,0.0009,0.0,0.0,0.0,0.004624,2
1672945170066372215,165527,1672945170098716817,gps,2,1,42.3001480588,-83.6985792826,270.973388672,0.000841,0.0,0.0,0.0,0.0009,0.0,0.0,0.0,0.004624,2
1672945170086615621,165528,1672945170118740821,gps,2,1,42.3001490864,-83.6985794761,270.975646973,0.000841,0.0,0.0,0.0,0.0009,0.0,0.0,0.0,0.004624,2
1672945170106654318,165529,1672945170138611645,gps,2,1,42.3001501163,-83.6985796725,270.977783203,0.000841,0.0,0.0,0.0,0.0009,0.0,0.0,0.0,0.004624,2
1672945170126209063,165530,1672945170158598536,gps,2,1,42.3001511464,-83.6985798688,270.979888916,0.000841,0.0,0.0,0.0,0.0009,0.0,0.0,0.0,0.004624,2
1672945170146609837,165531,1672945170178635242,gps,2,1,42.3001521779,-83.6985800602,270.982055664,0.000841,0.0,0.0,0.0,0.0009,0.0,0.0,0.0,0.004624,2
1672945170166632959,165532,1672945170198529331,gps,2,1,42.3001532117,-83.6985802542,270.984069824,0.000841,0.0,0.0,0.0,0.0009,0.0,0.0,0.0,0.004624,2
1672945170186623283,165533,1672945170218673248,gps,2,1,42.3001542457,-83.6985804482,270.986175537,0.000841,0.0,0.0,0.0,0.0009,0.0,0.0,0.0,0.004624,2
1672945170206510212,165534,1672945170238602185,gps,2,1,42.3001552812,-83.6985806369,270.988494873,0.000841,0.0,0.0,0.0,0.0009,0.0,0.0,0.0,0.004624,2
1672945170226266338,165535,1672945170258566483,gps,2,1,42.3001563198,-83.6985808288,270.990844727,0.000841,0.0,0.0,0.0,0.0009,0.0,0.0,0.0,0.004624,2
1672945170246161929,165536,1672945170278589435,gps,2,1,42.3001573599,-83.6985810195,270.993225098,0.000841,0.0,0.0,0.0,0.0009,0.0,0.0,0.0,0.004624,2
1672945170266805702,165537,1672945170298600769,gps,2,1,42.3001583986,-83.6985812064,270.995788574,0.000841,0.0,0.0,0.0,0.0009,0.0,0.0,0.0,0.004624,2
1672945170286320595,165538,1672945170318562959,gps,2,1,42.3001594407,-83.6985813955,270.998352051,0.000841,0.0,0.0,0.0,0.0009,0.0,0.0,0.0,0.004624,2
1672945170306482902,165539,1672945170338537309,gps,2,1,42.3001604826,-83.698581582,271.000976562,0.000841,0.0,0.0,0.0,0.0009,0.0,0.0,0.0,0.004624,2
1672945170326807056,165540,1672945170358646183,gps,2,1,42.3001615246,-83.6985817654,271.003631592,0.000841,0.0,0.0,0.0,0.0009,0.0,0.0,0.0,0.004624,2
1672945170346716895,165541,1672945170378613906,gps,2,1,42.3001625695,-83.6985819472,271.006134033,0.000841,0.0,0.0,0.0,0.0009,0.0,0.0,0.0,0.004624,2
1672945170366979314,165542,1672945170398605157,gps,2,1,42.3001636139,-83.698582128,271.008728027,0.000841,0.0,0.0,0.0,0.0009,0.0,0.0,0.0,0.004624,2
1672945170386555256,165543,1672945170418658863,gps,2,1,42.3001646587,-83.6985823049,271.011230469,0.000841,0.0,0.0,0.0,0.0009,0.0,0.0,0.0,0.004624,2
1672945170406695434,165544,1672945170438575564,gps,2,1,42.3001657055,-83.6985824808,271.013519287,0.000841,0.0,0.0,0.0,0.0009,0.0,0.0,0.0,0.004624,2
1672945170426490613,165545,1672945170458532362,gps,2,1,42.3001667522,-83.6985826559,271.015777588,0.000841,0.0,0.0,0.0,0.0009,0.0,0.0,0.0,0.004624,2
1672945170446842766,165546,1672945170478672530,gps,2,1,42.3001677999,-83.6985828247,271.018035889,0.000841,0.0,0.0,0.0,0.0009,0.0,0.0,0.0,0.004624,2
1672945170466647345,165547,1672945170498572472,gps,2,1,42.3001688495,-83.6985829932,271.020080566,0.000841,0.0,0.0,0.0,0.0009,0.0,0.0,0.0,0.004624,2
1672945170486605789,165548,1672945170518597916,gps,2,1,42.3001698994,-83.6985831613,271.022064209,0.000841,0.0,0.0,0.0,0.0009,0.0,0.0,0.0,0.004624,2
1672945170506266648,165549,1672945170538680172,gps,2,1,42.3001709498,-83.6985833248,271.024078369,0.000841,0.0,0.0,0.0,0.0009,0.0,0.0,0.0,0.004624,2
1672945170526740771,165550,1672945170558630931,gps,2,1,42.3001720008,-83.6985834878,271.025909424,0.000841,0.0,0.0,0.0,0.0009,0.0,0.0,0.0,0.004624,2
1672945170546776951,165551,1672945170578708325,gps,2,1,42.3001730533,-83.6985836515,271.027801514,0.000841,0.0,0.0,0.0,0.0009,0.0,0.0,0.0,0.004624,2
1672945170566786530,165552,1672945170598657292,gps,2,1,42.300174106,-83.6985838111,271.029632568,0.000841,0.0,0.0,0.0,0.0009,0.0,0.0,0.0,0.004624,2
1672945170586717180,165553,1672945170618637832,gps,2,1,42.3001751604,-83.6985839719,271.031616211,0.000841,0.0,0.0,0.0,0.0009,0.0,0.0,0.0,0.004624,2
1672945170606646472,165554,1672945170638584058,gps,2,1,42.3001762154,-83.6985841324,271.033538818,0.000841,0.0,0.0,0.0,0.0009,0.0,0.0,0.0,0.004624,2
1672945170626254315,165555,1672945170658582688,gps,2,1,42.3001772705,-83.6985842889,271.035491943,0.000841,0.0,0.0,0.0,0.0009,0.0,0.0,0.0,0.004624,2
1672945170646328549,165556,1672945170678696712,gps,2,1,42.3001783281,-83.698584447,271.037445068,0.000841,0.0,0.0,0.0,0.0009,0.0,0.0,0.0,0.004624,2
1672945170666188559,165557,1672945170698636409,gps,2,1,42.3001793844,-83.6985846041,271.039489746,0.000841,0.0,0.0,0.0,0.0009,0.0,0.0,0.0,0.004624,2
1672945170686281429,165558,1672945170718695848,gps,2,1,42.3001804409,-83.6985847581,271.041503906,0.000841,0.0,0.0,0.0,0.0009,0.0,0.0,0.0,0.004624,2
1672945170706226977,165559,1672945170738607705,gps,2,1,42.3001815002,-83.6985849135,271.043518066,0.000841,0.0,0.0,0.0,0.0009,0.0,0.0,0.0,0.004624,2
1672945170726101316,165560,1672945170758533443,gps,2,1,42.3001825584,-83.6985850684,271.045593262,0.000841,0.0,0.0,0.0,0.0009,0.0,0.0,0.0,0.004624,2
1672945170746472788,165561,1672945170778638323,gps,2,1,42.3001836162,-83.698585221,271.047637939,0.000841,0.0,0.0,0.0,0.0009,0.0,0.0,0.0,0.004624,2
1672945170766483881,165562,1672945170798646878,gps,2,1,42.3001846757,-83.6985853741,271.049713135,0.000841,0.0,0.0,0.0,0.0009,0.0,0.0,0.0,0.004624,2
1672945170786724336,165563,1672945170818569112,gps,2,1,42.3001857345,-83.6985855282,271.051879883,0.000841,0.0,0.0,0.0,0.0009,0.0,0.0,0.0,0.004624,2
1672945170806234611,165564,1672945170838617884,gps,2,1,42.3001867932,-83.6985856778,271.053985596,0.000841,0.0,0.0,0.0,0.0009,0.0,0.0,0.0,0.004624,2
1672945170826754935,165565,1672945170858565157,gps,2,1,42.300187853,-83.698585827,271.056243896,0.000841,0.0,0.0,0.0,0.0009,0.0,0.0,0.0,0.004624,2
1672945170846166412,165566,1672945170878534570,gps,2,1,42.3001889129,-83.6985859765,271.058441162,0.000841,0.0,0.0,0.0,0.0009,0.0,0.0,0.0,0.004624,2
1672945170866568883,165567,1672945170898635044,gps,2,1,42.3001899729,-83.6985861207,271.060638428,0.000841,0.0,0.0,0.0,0.0009,0.0,0.0,0.0,0.004624,2
1672945170886660847,165568,1672945170918522581,gps,2,1,42.3001910344,-83.698586265,271.062957764,0.000841,0.0,0.0,0.0,0.0009,0.0,0.0,0.0,0.004624,2
1672945170906595117,165569,1672945170938538882,gps,2,1,42.3001920958,-83.6985864092,271.065216064,0.000841,0.0,0.0,0.0,0.0009,0.0,0.0,0.0,0.004624,2
1672945170926681837,165570,1672945170958582979,gps,2,1,42.300193158,-83.6985865492,271.067443848,0.000841,0.0,0.0,0.0,0.0009,0.0,0.0,0.0,0.004624,2
1672945170946195696,165571,1672945170978545202,gps,2,1,42.3001942219,-83.6985866896,271.069549561,0.000841,0.0,0.0,0.0,0.0009,0.0,0.0,0.0,0.004624,2
1672945170966940175,165572,1672945170998526915,gps,2,1,42.3001952853,-83.6985868291,271.071777344,0.000841,0.0,0.0,0.0,0.0009,0.0,0.0,0.0,0.004624,2
1672945170986477870,165573,1672945171018589755,gps,2,1,42.3001963491,-83.698586966,271.073913574,0.000841,0.0,0.0,0.0,0.0009,0.0,0.0,0.0,0.004624,2
1672945171006507848,165574,1672945171038555732,gps,2,1,42.3001974147,-83.6985871019,271.076171875,0.000841,0.0,0.0,0.0,0.0009,0.0,0.0,0.0,0.004624,2
1672945171026676991,165575,1672945171058609501,gps,2,1,42.3001984807,-83.6985872376,271.078369141,0.000841,0.0,0.0,0.0,0.0009,0.0,0.0,0.0,0.004624,2
1672945171046382343,165576,1672945171078691931,gps,2,1,42.3001995459,-83.6985873712,271.080535889,0.000841,0.0,0.0,0.0,0.0009,0.0,0.0,0.0,0.004624,2
1672945171066564126,165577,1672945171098591528,gps,2,1,42.3002006138,-83.6985875034,271.082733154,0.000841,0.0,0.0,0.0,0.0009,0.0,0.0,0.0,0.004624,2
1672945171086647509,165578,1672945171118616190,gps,2,1,42.3002016824,-83.6985876354,271.08493042,0.000841,0.0,0.0,0.0,0.0009,0.0,0.0,0.0,0.004624,2
1672945171106374927,165579,1672945171138677825,gps,2,1,42.300202749,-83.6985877644,271.08706665,0.000841,0.0,0.0,0.0,0.0009,0.0,0.0,0.0,0.004624,2
1672945171126767470,165580,1672945171158622901,gps,2,1,42.3002038175,-83.6985878915,271.089263916,0.000841,0.0,0.0,0.0,0.0009,0.0,0.0,0.0,0.004624,2
1672945171146476702,165581,1672945171178534087,gps,2,1,42.3002048858,-83.6985880184,271.091491699,0.000841,0.0,0.0,0.0,0.0009,0.0,0.0,0.0,0.004624,2
1672945171166397303,165582,1672945171198613361,gps,2,1,42.3002059543,-83.6985881432,271.09362793,0.000841,0.0,0.0,0.0,0.0009,0.0,0.0,0.0,0.004624,2
1672945171186372148,165583,1672945171218690342,gps,2,1,42.3002070247,-83.6985882669,271.096008301,0.000841,0.0,0.0,0.0,0.0009,0.0,0.0,0.0,0.004624,2
1672945171206495518,165584,1672945171238536279,gps,2,1,42.3002080962,-83.6985883896,271.098266602,0.000841,0.0,0.0,0.0,0.0009,0.0,0.0,0.0,0.004624,2
1672945171226196202,165585,1672945171258550802,gps,2,1,42.3002091671,-83.6985885119,271.100616455,0.000841,0.0,0.0,0.0,0.0009,0.0,0.0,0.0,0.004624,2
1672945171246245702,165586,1672945171278619794,gps,2,1,42.3002102401,-83.6985886323,271.103149414,0.000841,0.0,0.0,0.0,0.0009,0.0,0.0,0.0,0.004624,2
1672945171266198032,165587,1672945171298572562,gps,2,1,42.3002113129,-83.6985887524,271.105712891,0.000841,0.0,0.0,0.0,0.0009,0.0,0.0,0.0,0.004624,2
1672945171286662714,165588,1672945171318612988,gps,2,1,42.3002123851,-83.6985888732,271.108276367,0.000841,0.0,0.0,0.0,0.0009,0.0,0.0,0.0,0.004624,2
1672945171306384777,165589,1672945171338603286,gps,2,1,42.3002134586,-83.6985889918,271.110992432,0.000841,0.0,0.0,0.0,0.0009,0.0,0.0,0.0,0.004624,2
1672945171326617295,165590,1672945171358541814,gps,2,1,42.300214533,-83.6985891109,271.113708496,0.000841,0.0,0.0,0.0,0.0009,0.0,0.0,0.0,0.004624,2
1672945171346537681,165591,1672945171378622461,gps,2,1,42.3002156065,-83.6985892299,271.116271973,0.000841,0.0,0.0,0.0,0.0009,0.0,0.0,0.0,0.004624,2
1672945171366921270,165592,1672945171398620858,gps,2,1,42.3002166817,-83.6985893468,271.118835449,0.000841,0.0,0.0,0.0,0.0009,0.0,0.0,0.0,0.004624,2
1672945171386242593,165593,1672945171418585894,gps,2,1,42.300217757,-83.6985894635,271.121429443,0.000841,0.0,0.0,0.0,0.0009,0.0,0.0,0.0,0.004624,2
1672945171406262300,165594,1672945171438653657,gps,2,1,42.3002188322,-83.6985895807,271.123718262,0.000841,0.0,0.0,0.0,0.0009,0.0,0.0,0.0,0.004624,2
1672945171426517975,165595,1672945171458546276,gps,2,1,42.3002199098,-83.6985896979,271.125976562,0.000841,0.0,0.0,0.0,0.0009,0.0,0.0,0.0,0.004624,2
1672945171446587826,165596,1672945171478598044,gps,2,1,42.300220987,-83.6985898141,271.128234863,0.000841,0.0,0.0,0.0,0.0009,0.0,0.0,0.0,0.004624,2
1672945171466417913,165597,1672945171498624068,gps,2,1,42.3002220638,-83.6985899288,271.130249023,0.000841,0.0,0.0,0.0,0.0009,0.0,0.0,0.0,0.004624,2
1672945171486579637,165598,1672945171518623451,gps,2,1,42.3002231421,-83.6985900417,271.132232666,0.000841,0.0,0.0,0.0,0.0009,0.0,0.0,0.0,0.004624,2
1672945171506546417,165599,1672945171538685705,gps,2,1,42.30022422,-83.6985901543,271.134246826,0.000841,0.0,0.0,0.0,0.0009,0.0,0.0,0.0,0.004624,2
1672945171526757090,165600,1672945171558680350,gps,2,1,42.3002252983,-83.6985902672,271.136260986,0.000841,0.0,0.0,0.0,0.0009,0.0,0.0,0.0,0.004624,2
1672945171546621509,165601,1672945171578595467,gps,2,1,42.3002263785,-83.6985903784,271.138000488,0.000841,0.0,0.0,0.0,0.0009,0.0,0.0,0.0,0.004624,2
1672945171566515268,165602,1672945171598674745,gps,2,1,42.3002274587,-83.6985904895,271.139801025,0.000841,0.0,0.0,0.0,0.0009,0.0,0.0,0.0,0.004624,2
1672945171586518512,165603,1672945171618633179,gps,2,1,42.3002285387,-83.6985906001,271.141723633,0.000841,0.0,0.0,0.0,0.0009,0.0,0.0,0.0,0.004624,2
1672945171606390064,165604,1672945171638584229,gps,2,1,42.3002296212,-83.6985907084,271.143432617,0.000841,0.0,0.0,0.0,0.0009,0.0,0.0,0.0,0.004624,2
1672945171626276525,165605,1672945171658547889,gps,2,1,42.300230703,-83.698590816,271.145172119,0.000841,0.0,0.0,0.0,0.0009,0.0,0.0,0.0,0.004624,2
1672945171646447837,165606,1672945171678584316,gps,2,1,42.3002317847,-83.6985909231,271.146942139,0.000841,0.0,0.0,0.0,0.0009,0.0,0.0,0.0,0.004624,2
1672945171666373158,165607,1672945171698524708,gps,2,1,42.3002328683,-83.6985910269,271.148406982,0.000841,0.0,0.0,0.0,0.0009,0.0,0.0,0.0,0.004624,2
1672945171686131266,165608,1672945171718638846,gps,2,1,42.3002339519,-83.6985911304,271.149902344,0.000841,0.0,0.0,0.0,0.0009,0.0,0.0,0.0,0.004624,2
1672945171706454629,165609,1672945171738573802,gps,2,1,42.300235035,-83.6985912333,271.151489258,0.000841,0.0,0.0,0.0,0.0009,0.0,0.0,0.0,0.004624,2
1672945171726464930,165610,1672945171758624916,gps,2,1,42.3002361196,-83.6985913345,271.152984619,0.000841,0.0,0.0,0.0,0.0009,0.0,0.0,0.0,0.004624,2
1672945171746321011,165611,1672945171778539298,gps,2,1,42.300237204,-83.6985914355,271.154449463,0.000841,0.0,0.0,0.0,0.0009,0.0,0.0,0.0,0.004624,2
1672945171766513863,165612,1672945171798651010,gps,2,1,42.3002382886,-83.698591535,271.156097412,0.001089,0.0,0.0,0.0,0.001089,0.0,0.0,0.0,0.004761,2
1672945171786345936,165613,1672945171818592052,gps,2,1,42.3002393739,-83.6985916331,271.157653809,0.001089,0.0,0.0,0.0,0.001089,0.0,0.0,0.0,0.004761,2
1672945171806529651,165614,1672945171838616658,gps,2,1,42.3002404602,-83.6985917307,271.159332275,0.001089,0.0,0.0,0.0,0.001089,0.0,0.0,0.0,0.004761,2
1672945171826500369,165615,1672945171858629520,gps,2,1,42.3002415459,-83.6985918277,271.160919189,0.001089,0.0,0.0,0.0,0.001089,0.0,0.0,0.0,0.004761,2
1672945171846318785,165616,1672945171878528064,gps,2,1,42.3002426329,-83.6985919236,271.162414551,0.001089,0.0,0.0,0.0,0.001089,0.0,0.0,0.0,0.004761,2
1672945171866449264,165617,1672945171898665469,gps,2,1,42.3002437202,-83.698592019,271.163909912,0.001089,0.0,0.0,0.0,0.001089,0.0,0.0,0.0,0.004761,2
1672945171886227480,165618,1672945171918587328,gps,2,1,42.3002448082,-83.6985921148,271.165283203,0.001089,0.0,0.0,0.0,0.001089,0.0,0.0,0.0,0.004761,2
1672945171906299284,165619,1672945171938578658,gps,2,1,42.3002458979,-83.6985922108,271.166351318,0.001089,0.0,0.0,0.0,0.001089,0.0,0.0,0.0,0.004761,2
1672945171926586140,165620,1672945171958542614,gps,2,1,42.3002469875,-83.6985923066,271.167449951,0.001089,0.0,0.0,0.0,0.001089,0.0,0.0,0.0,0.004761,2
1672945171946309250,165621,1672945171978539940,gps,2,1,42.3002480777,-83.6985924016,271.168579102,0.001089,0.0,0.0,0.0,0.001089,0.0,0.0,0.0,0.004761,2
1672945171966358214,165622,1672945171998595513,gps,2,1,42.30024917,-83.6985924962,271.169433594,0.001089,0.0,0.0,0.0,0.001089,0.0,0.0,0.0,0.004761,2
1672945171986427907,165623,1672945172018570281,gps,2,1,42.3002502609,-83.6985925896,271.170379639,0.001089,0.0,0.0,0.0,0.001089,0.0,0.0,0.0,0.004761,2
1672945172006207620,165624,1672945172038658355,gps,2,1,42.3002513533,-83.6985926834,271.171295166,0.001089,0.0,0.0,0.0,0.001089,0.0,0.0,0.0,0.004761,2
1672945172026379902,165625,1672945172058687603,gps,2,1,42.3002524466,-83.6985927755,271.17199707,0.001089,0.0,0.0,0.0,0.001089,0.0,0.0,0.0,0.004761,2
1672945172046447837,165626,1672945172078614282,gps,2,1,42.30025354,-83.6985928675,271.172698975,0.001089,0.0,0.0,0.0,0.001089,0.0,0.0,0.0,0.004761,2
1672945172066440316,165627,1672945172098649895,gps,2,1,42.3002546346,-83.6985929592,271.173370361,0.001089,0.0,0.0,0.0,0.001089,0.0,0.0,0.0,0.004761,2
1672945172086537691,165628,1672945172118670786,gps,2,1,42.3002557294,-83.6985930513,271.173858643,0.001089,0.0,0.0,0.0,0.001089,0.0,0.0,0.0,0.004761,2
1672945172106427753,165629,1672945172138536964,gps,2,1,42.3002568242,-83.6985931434,271.174316406,0.001089,0.0,0.0,0.0,0.001089,0.0,0.0,0.0,0.004761,2
1672945172126557066,165630,1672945172158652995,gps,2,1,42.300257921,-83.6985932311,271.174957275,0.001089,0.0,0.0,0.0,0.001089,0.0,0.0,0.0,0.004761,2
1672945172146421277,165631,1672945172178619487,gps,2,1,42.3002590185,-83.6985933188,271.175476074,0.001089,0.0,0.0,0.0,0.001089,0.0,0.0,0.0,0.004761,2
1672945172166386228,165632,1672945172198609716,gps,2,1,42.3002601145,-83.6985934045,271.176147461,0.001089,0.0,0.0,0.0,0.001089,0.0,0.0,0.0,0.004761,2
1672945172186813992,165633,1672945172218742941,gps,2,1,42.3002612134,-83.6985934878,271.17678833,0.001089,0.0,0.0,0.0,0.001089,0.0,0.0,0.0,0.004761,2
1672945172206505294,165634,1672945172238595414,gps,2,1,42.300262312,-83.69859357,271.177581787,0.001089,0.0,0.0,0.0,0.001089,0.0,0.0,0.0,0.004761,2
1672945172226581415,165635,1672945172258521575,gps,2,1,42.3002634105,-83.6985936521,271.178375244,0.001089,0.0,0.0,0.0,0.001089,0.0,0.0,0.0,0.004761,2
1672945172246389899,165636,1672945172278596808,gps,2,1,42.3002645115,-83.6985937324,271.179290771,0.001089,0.0,0.0,0.0,0.001089,0.0,0.0,0.0,0.004761,2
1672945172266470633,165637,1672945172298612639,gps,2,1,42.300265612,-83.6985938124,271.180389404,0.001089,0.0,0.0,0.0,0.001089,0.0,0.0,0.0,0.004761,2
1672945172286379788,165638,1672945172318540510,gps,2,1,42.300266713,-83.6985938912,271.181335449,0.001089,0.0,0.0,0.0,0.001089,0.0,0.0,0.0,0.004761,2
1672945172306348992,165639,1672945172338621111,gps,2,1,42.3002678159,-83.6985939693,271.182434082,0.001089,0.0,0.0,0.0,0.001089,0.0,0.0,0.0,0.004761,2
