%time,field.header.seq,field.header.stamp,field.header.frame_id,field.status.status,field.status.service,field.latitude,field.longitude,field.altitude,field.position_covariance0,field.position_covariance1,field.position_covariance2,field.position_covariance3,field.position_covariance4,field.position_covariance5,field.position_covariance6,field.position_covariance7,field.position_covariance8,field.position_covariance_type
1672944304918880394,122269,1672944304934992475,gps,2,1,42.3009765354,-83.6977814556,272.77331543,0.001156,0.0,0.0,0.0,0.001156,0.0,0.0,0.0,0.005329,2
1672944304939533665,122270,1672944304954999376,gps,2,1,42.3009765352,-83.6977814553,272.773345947,0.001156,0.0,0.0,0.0,0.001156,0.0,0.0,0.0,0.005329,2
1672944304959229330,122271,1672944304974983792,gps,2,1,42.3009765333,-83.697781454,272.773376465,0.001156,0.0,0.0,0.0,0.001156,0.0,0.0,0.0,0.005329,2
1672944304979295887,122272,1672944304994985669,gps,2,1,42.300976533,-83.6977814541,272.773406982,0.001156,0.0,0.0,0.0,0.001156,0.0,0.0,0.0,0.005329,2
1672944304999210804,122273,1672944305014988400,gps,2,1,42.3009765326,-83.6977814543,272.773406982,0.001156,0.0,0.0,0.0,0.001156,0.0,0.0,0.0,0.005329,2
1672944305019681721,122274,1672944305035107348,gps,2,1,42.3009765306,-83.6977814538,272.7734375,0.001156,0.0,0.0,0.0,0.001156,0.0,0.0,0.0,0.005329,2
1672944305039479840,122275,1672944305055187885,gps,2,1,42.3009765301,-83.6977814553,272.773406982,0.001156,0.0,0.0,0.0,0.001156,0.0,0.0,0.0,0.005329,2
1672944305059486585,122276,1672944305074978257,gps,2,1,42.3009765302,-83.6977814576,272.773284912,0.001156,0.0,0.0,0.0,0.001156,0.0,0.0,0.0,0.005329,2
1672944305079593813,122277,1672944305095097611,gps,2,1,42.3009765283,-83.697781459,272.773284912,0.001156,0.0,0.0,0.0,0.001156,0.0,0.0,0.0,0.005329,2
1672944305099355026,122278,1672944305115102374,gps,2,1,42.3009765285,-83.6977814635,272.773132324,0.001156,0.0,0.0,0.0,0.001156,0.0,0.0,0.0,0.005329,2
1672944305119085450,122279,1672944305135143972,gps,2,1,42.3009765285,-83.6977814683,272.773010254,0.001156,0.0,0.0,0.0,0.001156,0.0,0.0,0.0,0.005329,2
1672944305139558683,122280,1672944305155083049,gps,2,1,42.3009765268,-83.6977814728,272.772979736,0.001156,0.0,0.0,0.0,0.001156,0.0,0.0,0.0,0.005329,2
1672944305159453538,122281,1672944305175046053,gps,2,1,42.300976527,-83.6977814811,272.772857666,0.001156,0.0,0.0,0.0,0.001156,0.0,0.0,0.0,0.005329,2
1672944305179495972,122282,1672944305194971082,gps,2,1,42.3009765279,-83.69778149,272.772705078,0.001156,0.0,0.0,0.0,0.001156,0.0,0.0,0.0,0.005329,2
1672944305199618673,122283,1672944305214974362,gps,2,1,42.3009765264,-83.6977814985,272.772674561,0.001156,0.0,0.0,0.0,0.001156,0.0,0.0,0.0,0.005329,2
1672944305219594484,122284,1672944305235043087,gps,2,1,42.3009765275,-83.6977815114,272.772491455,0.001156,0.0,0.0,0.0,0.001156,0.0,0.0,0.0,0.005329,2
1672944305239290217,122285,1672944305254984181,gps,2,1,42.3009765285,-83.6977815243,272.772369385,0.001156,0.0,0.0,0.0,0.001156,0.0,0.0,0.0,0.005329,2
1672944305259457897,122286,1672944305274993454,gps,2,1,42.3009765272,-83.6977815374,272.77230835,0.001156,0.0,0.0,0.0,0.001156,0.0,0.0,0.0,0.005329,2
1672944305279442098,122287,1672944305295064453,gps,2,1,42.3009765285,-83.6977815548,272.772155762,0.001156,0.0,0.0,0.0,0.001156,0.0,0.0,0.0,0.005329,2
1672944305299143470,122288,1672944305314959864,gps,2,1,42.3009765294,-83.6977815724,272.772003174,0.001156,0.0,0.0,0.0,0.001156,0.0,0.0,0.0,0.005329,2
1672944305318998280,122289,1672944305335060470,gps,2,1,42.3009765287,-83.6977815902,272.771972656,0.001156,0.0,0.0,0.0,0.001156,0.0,0.0,0.0,0.005329,2
1672944305339469084,122290,1672944305355029651,gps,2,1,42.3009765304,-83.6977816125,272.771850586,0.001156,0.0,0.0,0.0,0.001156,0.0,0.0,0.0,0.005329,2
1672944305359297454,122291,1672944305374978359,gps,2,1,42.300976532,-83.6977816351,272.771697998,0.001156,0.0,0.0,0.0,0.001156,0.0,0.0,0.0,0.005329,2
1672944305379093029,122292,1672944305395065547,gps,2,1,42.3009765322,-83.6977816581,272.77166748,0.001156,0.0,0.0,0.0,0.001156,0.0,0.0,0.0,0.005329,2
1672944305399111824,122293,1672944305415115472,gps,2,1,42.3009765346,-83.6977816857,272.77154541,0.001156,0.0,0.0,0.0,0.001156,0.0,0.0,0.0,0.005329,2
1672944305419023797,122294,1672944305435041691,gps,2,1,42.3009765369,-83.6977817132,272.771453857,0.001156,0.0,0.0,0.0,0.001156,0.0,0.0,0.0,0.005329,2
1672944305439561745,122295,1672944305455088415,gps,2,1,42.3009765379,-83.6977817418,272.77142334,0.001156,0.0,0.0,0.0,0.001156,0.0,0.0,0.0,0.005329,2
1672944305459208357,122296,1672944305474972025,gps,2,1,42.3009765407,-83.6977817748,272.771331787,0.001156,0.0,0.0,0.0,0.001156,0.0,0.0,0.0,0.005329,2
1672944305480020332,122297,1672944305495012105,gps,2,1,42.3009765435,-83.6977818082,272.771240234,0.001156,0.0,0.0,0.0,0.001156,0.0,0.0,0.0,0.005329,2
1672944305499426391,122298,1672944305515067059,gps,2,1,42.3009765449,-83.6977818432,272.771240234,0.001156,0.0,0.0,0.0,0.001156,0.0,0.0,0.0,0.005329,2
1672944305519234466,122299,1672944305534994419,gps,2,1,42.3009765474,-83.6977818844,272.771148682,0.001156,0.0,0.0,0.0,0.001156,0.0,0.0,0.0,0.005329,2
1672944305539272390,122300,1672944305555148371,gps,2,1,42.3009765499,-83.6977819259,272.771057129,0.001156,0.0,0.0,0.0,0.001156,0.0,0.0,0.0,0.005329,2
1672944305559095570,122301,1672944305575111175,gps,2,1,42.3009765512,-83.697781969,272.771026611,0.001156,0.0,0.0,0.0,0.001156,0.0,0.0,0.0,0.005329,2
1672944305579223512,122302,1672944305595097577,gps,2,1,42.300976554,-83.6977820199,272.770965576,0.001156,0.0,0.0,0.0,0.001156,0.0,0.0,0.0,0.005329,2
1672944305599200133,122303,1672944305614966737,gps,2,1,42.300976557,-83.6977820713,272.770812988,0.001156,0.0,0.0,0.0,0.001156,0.0,0.0,0.0,0.005329,2
1672944305619320595,122304,1672944305635232130,gps,2,1,42.3009765578,-83.697782124,272.770812988,0.001156,0.0,0.0,0.0,0.001156,0.0,0.0,0.0,0.005329,2
1672944305639168867,122305,1672944305655000048,gps,2,1,42.3009765602,-83.6977821852,272.770690918,0.001156,0.0,0.0,0.0,0.001156,0.0,0.0,0.0,0.005329,2
1672944305659214538,122306,1672944305675006402,gps,2,1,42.3009765624,-83.6977822468,272.770568848,0.001156,0.0,0.0,0.0,0.001156,0.0,0.0,0.0,0.005329,2
1672944305679436122,122307,1672944305695066779,gps,2,1,42.3009765629,-83.6977823103,272.77053833,0.001156,0.0,0.0,0.0,0.001156,0.0,0.0,0.0,0.005329,2
1672944305699085288,122308,1672944305714994322,gps,2,1,42.300976565,-83.6977823827,272.770385742,0.001156,0.0,0.0,0.0,0.001156,0.0,0.0,0.0,0.005329,2
1672944305719088353,122309,1672944305734984989,gps,2,1,42.3009765677,-83.6977824553,272.770233154,0.001156,0.0,0.0,0.0,0.001156,0.0,0.0,0.0,0.005329,2
1672944305738898919,122310,1672944305755068483,gps,2,1,42.3009765686,-83.6977825307,272.770172119,0.001156,0.0,0.0,0.0,0.001156,0.0,0.0,0.0,0.005329,2
1672944305759335051,122311,1672944305775033232,gps,2,1,42.3009765722,-83.6977826151,272.770019531,0.001156,0.0,0.0,0.0,0.001156,0.0,0.0,0.0,0.005329,2
1672944305779221856,122312,1672944305795057996,gps,2,1,42.3009765758,-83.6977827,272.769897461,0.0009,0.0,0.0,0.0,0.000961,0.0,0.0,0.0,0.005041,2
1672944305799135825,122313,1672944305815109379,gps,2,1,42.3009765781,-83.6977827882,272.769836426,0.0009,0.0,0.0,0.0,0.000961,0.0,0.0,0.0,0.005041,2
1672944305819155399,122314,1672944305834990408,gps,2,1,42.3009765838,-83.6977828865,272.76965332,0.0009,0.0,0.0,0.0,0.000961,0.0,0.0,0.0,0.005041,2
1672944305839179862,122315,1672944305854979601,gps,2,1,42.3009765896,-83.6977829851,272.769500732,0.0009,0.0,0.0,0.0,0.000961,0.0,0.0,0.0,0.005041,2
1672944305859312717,122316,1672944305875099898,gps,2,1,42.300976594,-83.6977830871,272.76940918,0.0009,0.0,0.0,0.0,0.000961,0.0,0.0,0.0,0.005041,2
1672944305879189663,122317,1672944305894997135,gps,2,1,42.3009766016,-83.6977831995,272.769195557,0.0009,0.0,0.0,0.0,0.000961,0.0,0.0,0.0,0.005041,2
1672944305899347748,122318,1672944305915039909,gps,2,1,42.3009766091,-83.6977833125,272.768951416,0.0009,0.0,0.0,0.0,0.000961,0.0,0.0,0.0,0.005041,2
1672944305919008721,122319,1672944305935089975,gps,2,1,42.3009766151,-83.6977834297,272.768768311,0.0009,0.0,0.0,0.0,0.000961,0.0,0.0,0.0,0.005041,2
1672944305939373060,122320,1672944305954988325,gps,2,1,42.300976623,-83.6977835578,272.768463135,0.0009,0.0,0.0,0.0,0.000961,0.0,0.0,0.0,0.005041,2
1672944305959097770,122321,1672944305975001457,gps,2,1,42.300976631,-83.6977836868,272.768188477,0.0009,0.0,0.0,0.0,0.000961,0.0,0.0,0.0,0.005041,2
1672944305979544278,122322,1672944305995060241,gps,2,1,42.3009766379,-83.6977838213,272.767883301,0.0009,0.0,0.0,0.0,0.000961,0.0,0.0,0.0,0.005041,2
1672944305999249744,122323,1672944306015007489,gps,2,1,42.3009766465,-83.6977839679,272.767486572,0.0009,0.0,0.0,0.0,0.000961,0.0,0.0,0.0,0.005041,2
1672944306019429464,122324,1672944306035010235,gps,2,1,42.3009766562,-83.697784116,272.767059326,0.0009,0.0,0.0,0.0,0.000961,0.0,0.0,0.0,0.005041,2
1672944306039369198,122325,1672944306055258364,gps,2,1,42.3009766641,-83.6977842692,272.766662598,0.0009,0.0,0.0,0.0,0.000961,0.0,0.0,0.0,0.005041,2
1672944306059230018,122326,1672944306075055226,gps,2,1,42.3009766756,-83.6977844361,272.766143799,0.0009,0.0,0.0,0.0,0.000961,0.0,0.0,0.0,0.005041,2
1672944306079154929,122327,1672944306095117284,gps,2,1,42.3009766868,-83.6977846036,272.765625,0.0009,0.0,0.0,0.0,0.000961,0.0,0.0,0.0,0.005041,2
1672944306099060636,122328,1672944306115178990,gps,2,1,42.3009766955,-83.6977847762,272.765197754,0.0009,0.0,0.0,0.0,0.000961,0.0,0.0,0.0,0.005041,2
1672944306119376177,122329,1672944306135157772,gps,2,1,42.3009767078,-83.6977849625,272.764648438,0.0009,0.0,0.0,0.0,0.000961,0.0,0.0,0.0,0.005041,2
1672944306139441737,122330,1672944306155073443,gps,2,1,42.3009767201,-83.6977851499,272.764068604,0.0009,0.0,0.0,0.0,0.000961,0.0,0.0,0.0,0.005041,2
1672944306159358929,122331,1672944306175100117,gps,2,1,42.3009767298,-83.6977853428,272.763580322,0.0009,0.0,0.0,0.0,0.000961,0.0,0.0,0.0,0.005041,2
1672944306179223156,122332,1672944306195018945,gps,2,1,42.3009767427,-83.6977855506,272.762969971,0.0009,0.0,0.0,0.0,0.000961,0.0,0.0,0.0,0.005041,2
1672944306199227127,122333,1672944306215039986,gps,2,1,42.3009767552,-83.697785759,272.762359619,0.0009,0.0,0.0,0.0,0.000961,0.0,0.0,0.0,0.005041,2
1672944306219145103,122334,1672944306235144744,gps,2,1,42.3009767652,-83.6977859744,272.76184082,0.0009,0.0,0.0,0.0,0.000961,0.0,0.0,0.0,0.005041,2
1672944306239227648,122335,1672944306254967100,gps,2,1,42.3009767778,-83.6977862053,272.761199951,0.0009,0.0,0.0,0.0,0.000961,0.0,0.0,0.0,0.005041,2
1672944306259018944,122336,1672944306275000048,gps,2,1,42.3009767903,-83.6977864371,272.760620117,0.0009,0.0,0.0,0.0,0.000961,0.0,0.0,0.0,0.005041,2
1672944306279296139,122337,1672944306295063518,gps,2,1,42.3009767997,-83.6977866768,272.760101318,0.0009,0.0,0.0,0.0,0.000961,0.0,0.0,0.0,0.005041,2
1672944306299181246,122338,1672944306315021509,gps,2,1,42.3009768112,-83.6977869327,272.759460449,0.0009,0.0,0.0,0.0,0.000961,0.0,0.0,0.0,0.005041,2
1672944306319256755,122339,1672944306335024304,gps,2,1,42.3009768232,-83.6977871903,272.758789062,0.0009,0.0,0.0,0.0,0.000961,0.0,0.0,0.0,0.005041,2
1672944306339186496,122340,1672944306355059473,gps,2,1,42.3009768317,-83.6977874563,272.758178711,0.0009,0.0,0.0,0.0,0.000961,0.0,0.0,0.0,0.005041,2
1672944306359119827,122341,1672944306374991592,gps,2,1,42.3009768425,-83.6977877396,272.757354736,0.0009,0.0,0.0,0.0,0.000961,0.0,0.0,0.0,0.005041,2
1672944306379105921,122342,1672944306395027876,gps,2,1,42.3009768532,-83.6977880234,272.756561279,0.0009,0.0,0.0,0.0,0.000961,0.0,0.0,0.0,0.005041,2
1672944306399225115,122343,1672944306415054790,gps,2,1,42.3009768608,-83.6977883167,272.755767822,0.0009,0.0,0.0,0.0,0.000961,0.0,0.0,0.0,0.005041,2
1672944306419294117,122344,1672944306435011509,gps,2,1,42.3009768701,-83.6977886283,272.754852295,0.0009,0.0,0.0,0.0,0.000961,0.0,0.0,0.0,0.005041,2
1672944306439187494,122345,1672944306454980732,gps,2,1,42.3009768788,-83.6977889413,272.753936768,0.0009,0.0,0.0,0.0,0.000961,0.0,0.0,0.0,0.005041,2
1672944306459344975,122346,1672944306475085233,gps,2,1,42.3009768846,-83.6977892641,272.753082275,0.0009,0.0,0.0,0.0,0.000961,0.0,0.0,0.0,0.005041,2
1672944306479155255,122347,1672944306494994404,gps,2,1,42.3009768919,-83.6977896052,272.752075195,0.0009,0.0,0.0,0.0,0.000961,0.0,0.0,0.0,0.005041,2
1672944306499156169,122348,1672944306515013372,gps,2,1,42.3009768987,-83.6977899481,272.751037598,0.0009,0.0,0.0,0.0,0.000961,0.0,0.0,0.0,0.005041,2
1672944306519173197,122349,1672944306535095003,gps,2,1,42.3009769033,-83.6977903017,272.750061035,0.0009,0.0,0.0,0.0,0.000961,0.0,0.0,0.0,0.005041,2
1672944306539521048,122350,1672944306555103790,gps,2,1,42.3009769096,-83.6977906746,272.748901367,0.0009,0.0,0.0,0.0,0.000961,0.0,0.0,0.0,0.005041,2
1672944306558988173,122351,1672944306575070800,gps,2,1,42.3009769167,-83.6977910494,272.747711182,0.0009,0.0,0.0,0.0,0.000961,0.0,0.0,0.0,0.005041,2
1672944306579413406,122352,1672944306595073508,gps,2,1,42.30097692,-83.6977914346,272.746643066,0.0009,0.0,0.0,0.0,0.000961,0.0,0.0,0.0,0.005041,2
1672944306599202602,122353,1672944306615056347,gps,2,1,42.3009769256,-83.6977918402,272.745361328,0.0009,0.0,0.0,0.0,0.000961,0.0,0.0,0.0,0.005041,2
1672944306619298469,122354,1672944306635150038,gps,2,1,42.3009769308,-83.697792247,272.74420166,0.0009,0.0,0.0,0.0,0.000961,0.0,0.0,0.0,0.005041,2
1672944306639281007,122355,1672944306655101297,gps,2,1,42.3009769331,-83.6977926652,272.74307251,0.0009,0.0,0.0,0.0,0.000961,0.0,0.0,0.0,0.005041,2
1672944306659434403,122356,1672944306675035413,gps,2,1,42.300976938,-83.6977931034,272.741760254,0.0009,0.0,0.0,0.0,0.000961,0.0,0.0,0.0,0.005041,2
1672944306678978554,122357,1672944306695058230,gps,2,1,42.3009769429,-83.6977935431,272.740478516,0.0009,0.0,0.0,0.0,0.000961,0.0,0.0,0.0,0.005041,2
1672944306698942239,122358,1672944306715128731,gps,2,1,42.3009769448,-83.6977939938,272.739349365,0.0009,0.0,0.0,0.0,0.000961,0.0,0.0,0.0,0.005041,2
1672944306719150923,122359,1672944306735044275,gps,2,1,42.3009769507,-83.697794464,272.738098145,0.0009,0.0,0.0,0.0,0.000961,0.0,0.0,0.0,0.005041,2
1672944306739239988,122360,1672944306755017535,gps,2,1,42.3009769555,-83.6977949364,272.736785889,0.0009,0.0,0.0,0.0,0.000961,0.0,0.0,0.0,0.005041,2
1672944306759290753,122361,1672944306775055743,gps,2,1,42.3009769591,-83.6977954161,272.735687256,0.0009,0.0,0.0,0.0,0.000961,0.0,0.0,0.0,0.005041,2
1672944306779195476,122362,1672944306795142540,gps,2,1,42.3009769672,-83.6977959155,272.73449707,0.0009,0.0,0.0,0.0,0.000961,0.0,0.0,0.0,0.005041,2
1672944306799074335,122363,1672944306815115831,gps,2,1,42.3009769747,-83.6977964141,272.73336792,0.0009,0.0,0.0,0.0,0.000961,0.0,0.0,0.0,0.005041,2
1672944306819535138,122364,1672944306835140930,gps,2,1,42.3009769812,-83.6977969222,272.732421875,0.0009,0.0,0.0,0.0,0.000961,0.0,0.0,0.0,0.005041,2
1672944306839107804,122365,1672944306855003846,gps,2,1,42.3009769931,-83.6977974482,272.731262207,0.0009,0.0,0.0,0.0,0.000961,0.0,0.0,0.0,0.005041,2
1672944306859225600,122366,1672944306875050677,gps,2,1,42.3009770044,-83.6977979736,272.730072021,0.0009,0.0,0.0,0.0,0.000961,0.0,0.0,0.0,0.005041,2
1672944306879359603,122367,1672944306895113315,gps,2,1,42.3009770137,-83.697798508,272.729003906,0.0009,0.0,0.0,0.0,0.000961,0.0,0.0,0.0,0.005041,2
1672944306899271735,122368,1672944306915059254,gps,2,1,42.3009770277,-83.6977990586,272.727661133,0.0009,0.0,0.0,0.0,0.000961,0.0,0.0,0.0,0.005041,2
1672944306919299949,122369,1672944306935070690,gps,2,1,42.3009770412,-83.6977996094,272.726226807,0.0009,0.0,0.0,0.0,0.000961,0.0,0.0,0.0,0.005041,2
1672944306939219899,122370,1672944306955083942,gps,2,1,42.3009770532,-83.6978001676,272.72479248,0.0009,0.0,0.0,0.0,0.000961,0.0,0.0,0.0,0.005041,2
1672944306959076212,122371,1672944306975048176,gps,2,1,42.3009770687,-83.6978007405,272.723205566,0.0009,0.0,0.0,0.0,0.000961,0.0,0.0,0.0,0.005041,2
1672944306979394966,122372,1672944306995078819,gps,2,1,42.3009770831,-83.6978013148,272.721557617,0.0009,0.0,0.0,0.0,0.000961,0.0,0.0,0.0,0.005041,2
1672944306999372762,122373,1672944307015061715,gps,2,1,42.3009770948,-83.6978018945,272.720062256,0.0009,0.0,0.0,0.0,0.000961,0.0,0.0,0.0,0.005041,2
1672944307019231127,122374,1672944307035078125,gps,2,1,42.3009771091,-83.6978024891,272.718200684,0.0009,0.0,0.0,0.0,0.000961,0.0,0.0,0.0,0.005041,2
1672944307039305388,122375,1672944307055122965,gps,2,1,42.3009771239,-83.6978030852,272.716491699,0.0009,0.0,0.0,0.0,0.000961,0.0,0.0,0.0,0.005041,2
1672944307059230968,122376,1672944307075181649,gps,2,1,42.3009771337,-83.6978036882,272.714569092,0.0009,0.0,0.0,0.0,0.000961,0.0,0.0,0.0,0.005041,2
1672944307079211629,122377,1672944307095054682,gps,2,1,42.3009771474,-83.6978043049,272.712463379,0.0009,0.0,0.0,0.0,0.000961,0.0,0.0,0.0,0.005041,2
1672944307099480191,122378,1672944307115117453,gps,2,1,42.3009771593,-83.6978049221,272.710296631,0.0009,0.0,0.0,0.0,0.000961,0.0,0.0,0.0,0.005041,2
1672944307119355387,122379,1672944307135141630,gps,2,1,42.3009771653,-83.6978055431,272.708465576,0.0009,0.0,0.0,0.0,0.000961,0.0,0.0,0.0,0.005041,2
1672944307139289697,122380,1672944307155156431,gps,2,1,42.3009771731,-83.6978061753,272.706451416,0.0009,0.0,0.0,0.0,0.000961,0.0,0.0,0.0,0.005041,2
1672944307159325598,122381,1672944307175094102,gps,2,1,42.3009771812,-83.6978068074,272.704437256,0.0009,0.0,0.0,0.0,0.000961,0.0,0.0,0.0,0.005041,2
1672944307179132380,122382,1672944307195055225,gps,2,1,42.3009771828,-83.6978074446,272.702789307,0.0009,0.0,0.0,0.0,0.000961,0.0,0.0,0.0,0.005041,2
1672944307199330271,122383,1672944307215062585,gps,2,1,42.3009771851,-83.6978080927,272.701019287,0.0009,0.0,0.0,0.0,0.000961,0.0,0.0,0.0,0.005041,2
1672944307219119646,122384,1672944307235107098,gps,2,1,42.3009771862,-83.6978087431,272.699249268,0.0009,0.0,0.0,0.0,0.000961,0.0,0.0,0.0,0.005041,2
1672944307239066712,122385,1672944307255097412,gps,2,1,42.3009771816,-83.6978093958,272.697692871,0.0009,0.0,0.0,0.0,0.000961,0.0,0.0,0.0,0.005041,2
1672944307259274598,122386,1672944307275048407,gps,2,1,42.3009771774,-83.6978100611,272.696105957,0.0009,0.0,0.0,0.0,0.000961,0.0,0.0,0.0,0.005041,2
1672944307278915698,122387,1672944307294985558,gps,2,1,42.3009771729,-83.6978107263,272.694519043,0.0009,0.0,0.0,0.0,0.000961,0.0,0.0,0.0,0.005041,2
1672944307299369417,122388,1672944307315125544,gps,2,1,42.3009771629,-83.6978113945,272.69329834,0.0009,0.0,0.0,0.0,0.000961,0.0,0.0,0.0,0.005041,2
1672944307319251176,122389,1672944307335026536,gps,2,1,42.3009771538,-83.6978120713,272.692016602,0.0009,0.0,0.0,0.0,0.000961,0.0,0.0,0.0,0.005041,2
1672944307339165975,122390,1672944307354991919,gps,2,1,42.3009771443,-83.69781275,272.690856934,0.0009,0.0,0.0,0.0,0.000961,0.0,0.0,0.0,0.005041,2
1672944307359222322,122391,1672944307375027877,gps,2,1,42.3009771298,-83.6978134322,272.689727783,0.0009,0.0,0.0,0.0,0.000961,0.0,0.0,0.0,0.005041,2
1672944307379279702,122392,1672944307395044974,gps,2,1,42.3009771181,-83.697814124,272.688873291,0.0009,0.0,0.0,0.0,0.000961,0.0,0.0,0.0,0.005041,2
1672944307399437686,122393,1672944307415016079,gps,2,1,42.3009771051,-83.6978148161,272.687744141,0.0009,0.0,0.0,0.0,0.000961,0.0,0.0,0.0,0.005041,2
1672944307419255093,122394,1672944307434987008,gps,2,1,42.3009770895,-83.6978155131,272.686981201,0.0009,0.0,0.0,0.0,0.000961,0.0,0.0,0.0,0.005041,2
1672944307438905204,122395,1672944307455006077,gps,2,1,42.3009770768,-83.6978162215,272.686035156,0.0009,0.0,0.0,0.0,0.000961,0.0,0.0,0.0,0.005041,2
1672944307459221409,122396,1672944307474991539,gps,2,1,42.3009770648,-83.6978169296,272.685241699,0.0009,0.0,0.0,0.0,0.000961,0.0,0.0,0.0,0.005041,2
1672944307479118735,122397,1672944307494976578,gps,2,1,42.3009770501,-83.6978176423,272.684387207,0.0009,0.0,0.0,0.0,0.000961,0.0,0.0,0.0,0.005041,2
1672944307499206407,122398,1672944307514993045,gps,2,1,42.300977041,-83.6978183663,272.683166504,0.0009,0.0,0.0,0.0,0.000961,0.0,0.0,0.0,0.005041,2
1672944307519060143,122399,1672944307535089041,gps,2,1,42.3009770322,-83.6978190888,272.682159424,0.0009,0.0,0.0,0.0,0.000961,0.0,0.0,0.0,0.005041,2
1672944307539326422,122400,1672944307555097901,gps,2,1,42.3009770201,-83.6978198158,272.681091309,0.0009,0.0,0.0,0.0,0.000961,0.0,0.0,0.0,0.005041,2
1672944307559341499,122401,1672944307575038134,gps,2,1,42.3009770147,-83.6978205523,272.679931641,0.0009,0.0,0.0,0.0,0.000961,0.0,0.0,0.0,0.005041,2
1672944307579397544,122402,1672944307595125444,gps,2,1,42.3009770101,-83.6978212881,272.67880249,0.0009,0.0,0.0,0.0,0.000961,0.0,0.0,0.0,0.005041,2
1672944307599223236,122403,1672944307615062077,gps,2,1,42.3009770009,-83.6978220269,272.67779541,0.0009,0.0,0.0,0.0,0.000961,0.0,0.0,0.0,0.005041,2
1672944307619391627,122404,1672944307635138866,gps,2,1,42.3009769987,-83.6978227754,272.676635742,0.0009,0.0,0.0,0.0,0.000961,0.0,0.0,0.0,0.005041,2
1672944307639289362,122405,1672944307655050921,gps,2,1,42.3009769958,-83.6978235247,272.675445557,0.0009,0.0,0.0,0.0,0.000961,0.0,0.0,0.0,0.005041,2
1672944307659080695,122406,1672944307675107592,gps,2,1,42.3009769896,-83.6978242773,272.674316406,0.0009,0.0,0.0,0.0,0.000961,0.0,0.0,0.0,0.005041,2
1672944307679074105,122407,1672944307694993241,gps,2,1,42.3009769906,-83.6978250398,272.67300415,0.0009,0.0,0.0,0.0,0.000961,0.0,0.0,0.0,0.005041,2
1672944307699246292,122408,1672944307715029498,gps,2,1,42.3009769904,-83.6978258025,272.671630859,0.0009,0.0,0.0,0.0,0.000961,0.0,0.0,0.0,0.005041,2
1672944307719230948,122409,1672944307734989581,gps,2,1,42.3009769873,-83.6978265692,272.670471191,0.0009,0.0,0.0,0.0,0.000961,0.0,0.0,0.0,0.005041,2
1672944307739163242,122410,1672944307754987549,gps,2,1,42.3009769908,-83.6978273438,272.669128418,0.0009,0.0,0.0,0.0,0.000961,0.0,0.0,0.0,0.005041,2
1672944307759215139,122411,1672944307775049491,gps,2,1,42.3009769936,-83.6978281192,272.667663574,0.0009,0.0,0.0,0.0,0.000961,0.0,0.0,0.0,0.005041,2
1672944307779134404,122412,1672944307795115114,gps,2,1,42.3009769941,-83.6978288972,272.666534424,0.001156,0.0,0.0,0.0,0.001156,0.0,0.0,0.0,0.005184,2
1672944307799168717,122413,1672944307815077043,gps,2,1,42.3009769992,-83.6978296834,272.665405273,0.001156,0.0,0.0,0.0,0.001156,0.0,0.0,0.0,0.005184,2
1672944307819093017,122414,1672944307834987469,gps,2,1,42.3009770043,-83.6978304703,272.664245605,0.001156,0.0,0.0,0.0,0.001156,0.0,0.0,0.0,0.005184,2
1672944307839243211,122415,1672944307855015590,gps,2,1,42.3009770064,-83.6978312596,272.663208008,0.001156,0.0,0.0,0.0,0.001156,0.0,0.0,0.0,0.005184,2
1672944307859436275,122416,1672944307874945194,gps,2,1,42.3009770132,-83.6978320571,272.662139893,0.001156,0.0,0.0,0.0,0.001156,0.0,0.0,0.0,0.005184,2
1672944307878898021,122417,1672944307895050658,gps,2,1,42.3009770197,-83.6978328552,272.661102295,0.001156,0.0,0.0,0.0,0.001156,0.0,0.0,0.0,0.005184,2
1672944307899282229,122418,1672944307915019714,gps,2,1,42.300977023,-83.697833656,272.660186768,0.001156,0.0,0.0,0.0,0.001156,0.0,0.0,0.0,0.005184,2
1672944307919193134,122419,1672944307934995020,gps,2,1,42.3009770277,-83.6978344662,272.659088135,0.001156,0.0,0.0,0.0,0.001156,0.0,0.0,0.0,0.005184,2
1672944307939164770,122420,1672944307955087994,gps,2,1,42.300977033,-83.6978352772,272.658111572,0.001156,0.0,0.0,0.0,0.001156,0.0,0.0,0.0,0.005184,2
1672944307958947961,122421,1672944307975049452,gps,2,1,42.3009770365,-83.6978360899,272.657165527,0.001156,0.0,0.0,0.0,0.001156,0.0,0.0,0.0,0.005184,2
1672944307979237247,122422,1672944307995042564,gps,2,1,42.3009770413,-83.6978369111,272.655853271,0.001156,0.0,0.0,0.0,0.001156,0.0,0.0,0.0,0.005184,2
1672944307999090636,122423,1672944308015014917,gps,2,1,42.3009770468,-83.6978377342,272.654510498,0.001156,0.0,0.0,0.0,0.001156,0.0,0.0,0.0,0.005184,2
1672944308019336808,122424,1672944308035100004,gps,2,1,42.3009770508,-83.6978385607,272.652893066,0.001156,0.0,0.0,0.0,0.001156,0.0,0.0,0.0,0.005184,2
1672944308039224218,122425,1672944308055164597,gps,2,1,42.3009770561,-83.6978393899,272.651000977,0.001156,0.0,0.0,0.0,0.001156,0.0,0.0,0.0,0.005184,2
1672944308059161737,122426,1672944308075014389,gps,2,1,42.3009770634,-83.6978402223,272.649047852,0.001156,0.0,0.0,0.0,0.001156,0.0,0.0,0.0,0.005184,2
1672944308079092597,122427,1672944308095104706,gps,2,1,42.3009770693,-83.6978410567,272.647369385,0.001156,0.0,0.0,0.0,0.001156,0.0,0.0,0.0,0.005184,2
1672944308099259484,122428,1672944308115066511,gps,2,1,42.3009770766,-83.6978418991,272.645996094,0.001156,0.0,0.0,0.0,0.001156,0.0,0.0,0.0,0.005184,2
1672944308119246406,122429,1672944308135114515,gps,2,1,42.3009770838,-83.6978427411,272.644714355,0.001156,0.0,0.0,0.0,0.001156,0.0,0.0,0.0,0.005184,2
1672944308138881837,122430,1672944308154997873,gps,2,1,42.3009770909,-83.6978435879,272.643615723,0.001156,0.0,0.0,0.0,0.001156,0.0,0.0,0.0,0.005184,2
1672944308159555412,122431,1672944308175091796,gps,2,1,42.3009770993,-83.6978444409,272.642913818,0.001156,0.0,0.0,0.0,0.001156,0.0,0.0,0.0,0.005184,2
1672944308179109312,122432,1672944308194978696,gps,2,1,42.3009771078,-83.6978452935,272.642120361,0.001156,0.0,0.0,0.0,0.001156,0.0,0.0,0.0,0.005184,2
1672944308199152807,122433,1672944308215039625,gps,2,1,42.3009771158,-83.6978461514,272.64175415,0.001156,0.0,0.0,0.0,0.001156,0.0,0.0,0.0,0.005184,2
1672944308219216230,122434,1672944308235068535,gps,2,1,42.3009771243,-83.6978470152,272.641601562,0.001156,0.0,0.0,0.0,0.001156,0.0,0.0,0.0,0.005184,2
1672944308239054088,122435,1672944308255047420,gps,2,1,42.3009771333,-83.6978478816,272.641448975,0.001156,0.0,0.0,0.0,0.001156,0.0,0.0,0.0,0.005184,2
1672944308259294674,122436,1672944308275110749,gps,2,1,42.3009771415,-83.69784875,272.64151001,0.001156,0.0,0.0,0.0,0.001156,0.0,0.0,0.0,0.005184,2
1672944308279243200,122437,1672944308295006931,gps,2,1,42.3009771497,-83.6978496246,272.641571045,0.001156,0.0,0.0,0.0,0.001156,0.0,0.0,0.0,0.005184,2
1672944308299418347,122438,1672944308315146257,gps,2,1,42.3009771581,-83.6978504997,272.641601562,0.001156,0.0,0.0,0.0,0.001156,0.0,0.0,0.0,0.005184,2
1672944308319505733,122439,1672944308335054048,gps,2,1,42.3009771663,-83.6978513801,272.641662598,0.001156,0.0,0.0,0.0,0.001156,0.0,0.0,0.0,0.005184,2
1672944308339344981,122440,1672944308355095221,gps,2,1,42.3009771738,-83.697852266,272.641479492,0.001156,0.0,0.0,0.0,0.001156,0.0,0.0,0.0,0.005184,2
1672944308359130945,122441,1672944308374992664,gps,2,1,42.3009771811,-83.6978531526,272.641265869,0.001156,0.0,0.0,0.0,0.001156,0.0,0.0,0.0,0.005184,2
1672944308379012351,122442,1672944308395081916,gps,2,1,42.3009771898,-83.6978540434,272.640960693,0.001156,0.0,0.0,0.0,0.001156,0.0,0.0,0.0,0.005184,2
1672944308399449885,122443,1672944308415030369,gps,2,1,42.3009771952,-83.6978549409,272.640625,0.001156,0.0,0.0,0.0,0.001156,0.0,0.0,0.0,0.005184,2
1672944308419254827,122444,1672944308435029237,gps,2,1,42.3009772008,-83.697855841,272.640289307,0.001156,0.0,0.0,0.0,0.001156,0.0,0.0,0.0,0.005184,2
1672944308439352322,122445,1672944308455081385,gps,2,1,42.3009772083,-83.6978567427,272.640136719,0.001156,0.0,0.0,0.0,0.001156,0.0,0.0,0.0,0.005184,2
1672944308459271846,122446,1672944308475031813,gps,2,1,42.3009772133,-83.6978576527,272.639831543,0.001156,0.0,0.0,0.0,0.001156,0.0,0.0,0.0,0.005184,2
1672944308479234476,122447,1672944308495052017,gps,2,1,42.3009772182,-83.6978585639,272.639556885,0.001156,0.0,0.0,0.0,0.001156,0.0,0.0,0.0,0.005184,2
1672944308499080954,122448,1672944308515051010,gps,2,1,42.3009772251,-83.6978594765,272.639129639,0.001156,0.0,0.0,0.0,0.001156,0.0,0.0,0.0,0.005184,2
1672944308519298026,122449,1672944308535026257,gps,2,1,42.3009772309,-83.6978603944,272.638580322,0.001156,0.0,0.0,0.0,0.001156,0.0,0.0,0.0,0.005184,2
1672944308539432512,122450,1672944308555198343,gps,2,1,42.3009772371,-83.6978613124,272.638031006,0.001156,0.0,0.0,0.0,0.001156,0.0,0.0,0.0,0.005184,2
1672944308559304285,122451,1672944308575129918,gps,2,1,42.3009772454,-83.6978622366,272.637359619,0.001156,0.0,0.0,0.0,0.001156,0.0,0.0,0.0,0.005184,2
1672944308579231481,122452,1672944308595069172,gps,2,1,42.3009772545,-83.6978631642,272.636993408,0.001156,0.0,0.0,0.0,0.001156,0.0,0.0,0.0,0.005184,2
1672944308599254876,122453,1672944308615023525,gps,2,1,42.3009772637,-83.6978640932,272.63659668,0.001156,0.0,0.0,0.0,0.001156,0.0,0.0,0.0,0.005184,2
1672944308619254004,122454,1672944308635251870,gps,2,1,42.3009772758,-83.6978650277,272.636260986,0.001156,0.0,0.0,0.0,0.001156,0.0,0.0,0.0,0.005184,2
1672944308639131571,122455,1672944308655085725,gps,2,1,42.3009772879,-83.6978659695,272.636138916,0.001156,0.0,0.0,0.0,0.001156,0.0,0.0,0.0,0.005184,2
1672944308658995161,122456,1672944308674990639,gps,2,1,42.3009773,-83.6978669112,272.636016846,0.001156,0.0,0.0,0.0,0.001156,0.0,0.0,0.0,0.005184,2
1672944308679204074,122457,1672944308695057137,gps,2,1,42.3009773155,-83.6978678578,272.635864258,0.001156,0.0,0.0,0.0,0.001156,0.0,0.0,0.0,0.005184,2
1672944308699188943,122458,1672944308715011236,gps,2,1,42.3009773305,-83.697868811,272.635681152,0.001156,0.0,0.0,0.0,0.001156,0.0,0.0,0.0,0.005184,2
1672944308719149692,122459,1672944308734925717,gps,2,1,42.3009773437,-83.6978697654,272.635406494,0.001156,0.0,0.0,0.0,0.001156,0.0,0.0,0.0,0.005184,2
1672944308739286971,122460,1672944308754952948,gps,2,1,42.3009773615,-83.6978707237,272.635101318,0.001156,0.0,0.0,0.0,0.001156,0.0,0.0,0.0,0.005184,2
1672944308759554997,122461,1672944308775083130,gps,2,1,42.3009773765,-83.6978716885,272.634643555,0.001156,0.0,0.0,0.0,0.001156,0.0,0.0,0.0,0.005184,2
1672944308779081693,122462,1672944308795059498,gps,2,1,42.3009773919,-83.6978726548,272.634185791,0.001156,0.0,0.0,0.0,0.001156,0.0,0.0,0.0,0.005184,2
1672944308798970517,122463,1672944308815145319,gps,2,1,42.300977411,-83.6978736239,272.633728027,0.001156,0.0,0.0,0.0,0.001156,0.0,0.0,0.0,0.005184,2
1672944308819314738,122464,1672944308835090002,gps,2,1,42.3009774273,-83.6978746009,272.633270264,0.001156,0.0,0.0,0.0,0.001156,0.0,0.0,0.0,0.005184,2
1672944308839222356,122465,1672944308855067267,gps,2,1,42.3009774435,-83.6978755788,272.6328125,0.001156,0.0,0.0,0.0,0.001156,0.0,0.0,0.0,0.005184,2
1672944308859167834,122466,1672944308875031076,gps,2,1,42.3009774633,-83.6978765598,272.632263184,0.001156,0.0,0.0,0.0,0.001156,0.0,0.0,0.0,0.005184,2
1672944308879261161,122467,1672944308895091358,gps,2,1,42.3009774798,-83.6978775489,272.631713867,0.001156,0.0,0.0,0.0,0.001156,0.0,0.0,0.0,0.005184,2
1672944308899305481,122468,1672944308914998417,gps,2,1,42.3009774965,-83.6978785382,272.631164551,0.001156,0.0,0.0,0.0,0.001156,0.0,0.0,0.0,0.005184,2
1672944308919121813,122469,1672944308935030869,gps,2,1,42.3009775158,-83.6978795314,272.630523682,0.001156,0.0,0.0,0.0,0.001156,0.0,0.0,0.0,0.005184,2
1672944308939196105,122470,1672944308955050178,gps,2,1,42.3009775315,-83.697880532,272.62991333,0.001156,0.0,0.0,0.0,0.001156,0.0,0.0,0.0,0.005184,2
1672944308959148329,122471,1672944308975031987,gps,2,1,42.3009775474,-83.6978815335,272.629272461,0.001156,0.0,0.0,0.0,0.001156,0.0,0.0,0.0,0.005184,2
1672944308979218922,122472,1672944308995113053,gps,2,1,42.3009775659,-83.6978825397,272.628540039,0.001156,0.0,0.0,0.0,0.001156,0.0,0.0,0.0,0.005184,2
1672944308999271460,122473,1672944309014977405,gps,2,1,42.3009775813,-83.6978835532,272.627716064,0.001156,0.0,0.0,0.0,0.001156,0.0,0.0,0.0,0.005184,2
1672944309019310903,122474,1672944309035020313,gps,2,1,42.3009775955,-83.6978845703,272.626831055,0.001156,0.0,0.0,0.0,0.001156,0.0,0.0,0.0,0.005184,2
1672944309039323105,122475,1672944309055141905,gps,2,1,42.3009776138,-83.6978855891,272.625854492,0.001156,0.0,0.0,0.0,0.001156,0.0,0.0,0.0,0.005184,2
1672944309059248243,122476,1672944309075100954,gps,2,1,42.3009776275,-83.6978866197,272.624511719,0.001156,0.0,0.0,0.0,0.001156,0.0,0.0,0.0,0.005184,2
1672944309078911937,122477,1672944309095053275,gps,2,1,42.3009776413,-83.6978876503,272.62322998,0.001156,0.0,0.0,0.0,0.001156,0.0,0.0,0.0,0.005184,2
1672944309099345373,122478,1672944309115112166,gps,2,1,42.3009776608,-83.6978886816,272.622009277,0.001156,0.0,0.0,0.0,0.001156,0.0,0.0,0.0,0.005184,2
1672944309119346315,122479,1672944309135128996,gps,2,1,42.3009776756,-83.6978897231,272.620574951,0.001156,0.0,0.0,0.0,0.001156,0.0,0.0,0.0,0.005184,2
1672944309139209805,122480,1672944309155002021,gps,2,1,42.3009776909,-83.6978907644,272.619110107,0.001156,0.0,0.0,0.0,0.001156,0.0,0.0,0.0,0.005184,2
1672944309159277497,122481,1672944309175068655,gps,2,1,42.3009777124,-83.6978918078,272.617828369,0.001156,0.0,0.0,0.0,0.001156,0.0,0.0,0.0,0.005184,2
1672944309179211038,122482,1672944309194986432,gps,2,1,42.3009777295,-83.6978928609,272.616394043,0.001156,0.0,0.0,0.0,0.001156,0.0,0.0,0.0,0.005184,2
1672944309199119367,122483,1672944309215026786,gps,2,1,42.300977747,-83.6978939139,272.615020752,0.001156,0.0,0.0,0.0,0.001156,0.0,0.0,0.0,0.005184,2
1672944309219121273,122484,1672944309235056771,gps,2,1,42.3009777703,-83.6978949692,272.613739014,0.001156,0.0,0.0,0.0,0.001156,0.0,0.0,0.0,0.005184,2
1672944309239044729,122485,1672944309254996628,gps,2,1,42.3009777888,-83.6978960342,272.612457275,0.001156,0.0,0.0,0.0,0.001156,0.0,0.0,0.0,0.005184,2
1672944309259209159,122486,1672944309275068676,gps,2,1,42.3009778075,-83.6978970996,272.61114502,0.001156,0.0,0.0,0.0,0.001156,0.0,0.0,0.0,0.005184,2
1672944309279203054,122487,1672944309295037274,gps,2,1,42.3009778324,-83.6978981665,272.609985352,0.001156,0.0,0.0,0.0,0.001156,0.0,0.0,0.0,0.005184,2
1672944309299312450,122488,1672944309315110310,gps,2,1,42.3009778528,-83.6978992434,272.608825684,0.001156,0.0,0.0,0.0,0.001156,0.0,0.0,0.0,0.005184,2
1672944309319309465,122489,1672944309335047151,gps,2,1,42.3009778725,-83.6979003202,272.607757568,0.001156,0.0,0.0,0.0,0.001156,0.0,0.0,0.0,0.005184,2
1672944309339137226,122490,1672944309355098379,gps,2,1,42.3009778985,-83.6979013994,272.606689453,0.001156,0.0,0.0,0.0,0.001156,0.0,0.0,0.0,0.005184,2
1672944309359254532,122491,1672944309375013897,gps,2,1,42.300977919,-83.6979024879,272.60559082,0.001156,0.0,0.0,0.0,0.001156,0.0,0.0,0.0,0.005184,2
1672944309379245288,122492,1672944309395031977,gps,2,1,42.3009779397,-83.6979035769,272.604522705,0.001156,0.0,0.0,0.0,0.001156,0.0,0.0,0.0,0.005184,2
1672944309399200335,122493,1672944309415061122,gps,2,1,42.3009779664,-83.6979046681,272.603363037,0.001156,0.0,0.0,0.0,0.001156,0.0,0.0,0.0,0.005184,2
1672944309419492214,122494,1672944309435066069,gps,2,1,42.3009779898,-83.6979057696,272.602111816,0.001156,0.0,0.0,0.0,0.001156,0.0,0.0,0.0,0.005184,2
1672944309439212813,122495,1672944309455022933,gps,2,1,42.3009780131,-83.6979068715,272.600891113,0.001156,0.0,0.0,0.0,0.001156,0.0,0.0,0.0,0.005184,2
1672944309459146637,122496,1672944309475044823,gps,2,1,42.3009780395,-83.6979079738,272.599975586,0.001156,0.0,0.0,0.0,0.001156,0.0,0.0,0.0,0.005184,2
1672944309479201056,122497,1672944309495060091,gps,2,1,42.3009780618,-83.6979090866,272.599029541,0.001156,0.0,0.0,0.0,0.001156,0.0,0.0,0.0,0.005184,2
1672944309499221455,122498,1672944309515080304,gps,2,1,42.3009780846,-83.6979102001,272.598022461,0.001156,0.0,0.0,0.0,0.001156,0.0,0.0,0.0,0.005184,2
1672944309518996038,122499,1672944309535109042,gps,2,1,42.3009781098,-83.6979113137,272.597198486,0.001156,0.0,0.0,0.0,0.001156,0.0,0.0,0.0,0.005184,2
1672944309539308825,122500,1672944309555110198,gps,2,1,42.3009781274,-83.6979124383,272.596313477,0.001156,0.0,0.0,0.0,0.001156,0.0,0.0,0.0,0.005184,2
1672944309558960443,122501,1672944309575074007,gps,2,1,42.3009781429,-83.6979135627,272.595306396,0.001156,0.0,0.0,0.0,0.001156,0.0,0.0,0.0,0.005184,2
1672944309579319055,122502,1672944309595132201,gps,2,1,42.3009781671,-83.6979146895,272.594329834,0.001156,0.0,0.0,0.0,0.001156,0.0,0.0,0.0,0.005184,2
1672944309599056060,122503,1672944309615030680,gps,2,1,42.3009781827,-83.6979158275,272.592987061,0.001156,0.0,0.0,0.0,0.001156,0.0,0.0,0.0,0.005184,2
1672944309619203985,122504,1672944309635050790,gps,2,1,42.3009781985,-83.6979169635,272.591552734,0.001156,0.0,0.0,0.0,0.001156,0.0,0.0,0.0,0.005184,2
1672944309639229446,122505,1672944309655084391,gps,2,1,42.3009782226,-83.6979181028,272.590087891,0.001156,0.0,0.0,0.0,0.001156,0.0,0.0,0.0,0.005184,2
1672944309659110587,122506,1672944309675118964,gps,2,1,42.3009782397,-83.6979192515,272.588165283,0.001156,0.0,0.0,0.0,0.001156,0.0,0.0,0.0,0.005184,2
1672944309679352415,122507,1672944309695067798,gps,2,1,42.3009782567,-83.697920401,272.586242676,0.001156,0.0,0.0,0.0,0.001156,0.0,0.0,0.0,0.005184,2
1672944309698864668,122508,1672944309715104101,gps,2,1,42.3009782819,-83.6979215514,272.584259033,0.001156,0.0,0.0,0.0,0.001156,0.0,0.0,0.0,0.005184,2
1672944309718853949,122509,1672944309734983975,gps,2,1,42.3009783009,-83.6979227099,272.582061768,0.001156,0.0,0.0,0.0,0.001156,0.0,0.0,0.0,0.005184,2
1672944309739303304,122510,1672944309755055617,gps,2,1,42.3009783203,-83.6979238686,272.57989502,0.001156,0.0,0.0,0.0,0.001156,0.0,0.0,0.0,0.005184,2
1672944309759115940,122511,1672944309775085573,gps,2,1,42.3009783475,-83.6979250301,272.577636719,0.001156,0.0,0.0,0.0,0.001156,0.0,0.0,0.0,0.005184,2
1672944309779311965,122512,1672944309795080235,gps,2,1,42.3009783689,-83.6979261992,272.575500488,0.001156,0.0,0.0,0.0,0.001156,0.0,0.0,0.0,0.005184,2
1672944309799286225,122513,1672944309815126102,gps,2,1,42.300978391,-83.6979273686,272.573303223,0.001156,0.0,0.0,0.0,0.001156,0.0,0.0,0.0,0.005184,2
1672944309819370979,122514,1672944309835117469,gps,2,1,42.3009784199,-83.6979285411,272.571228027,0.001156,0.0,0.0,0.0,0.001156,0.0,0.0,0.0,0.005184,2
1672944309839120318,122515,1672944309855011335,gps,2,1,42.3009784403,-83.6979297241,272.569213867,0.001156,0.0,0.0,0.0,0.001156,0.0,0.0,0.0,0.005184,2
1672944309859134467,122516,1672944309874996108,gps,2,1,42.3009784611,-83.6979309086,272.567199707,0.001156,0.0,0.0,0.0,0.001156,0.0,0.0,0.0,0.005184,2
1672944309879175975,122517,1672944309895073564,gps,2,1,42.3009784907,-83.697932091,272.565490723,0.001156,0.0,0.0,0.0,0.001156,0.0,0.0,0.0,0.005184,2
1672944309899164832,122518,1672944309914994285,gps,2,1,42.3009785123,-83.6979332839,272.563842773,0.001156,0.0,0.0,0.0,0.001156,0.0,0.0,0.0,0.005184,2
1672944309919315565,122519,1672944309934993606,gps,2,1,42.3009785347,-83.6979344768,272.562164307,0.001156,0.0,0.0,0.0,0.001156,0.0,0.0,0.0,0.005184,2
1672944309939133772,122520,1672944309955075246,gps,2,1,42.3009785642,-83.6979356692,272.560638428,0.001156,0.0,0.0,0.0,0.001156,0.0,0.0,0.0,0.005184,2
1672944309959148995,122521,1672944309975004145,gps,2,1,42.3009785866,-83.6979368706,272.558990479,0.001156,0.0,0.0,0.0,0.001156,0.0,0.0,0.0,0.005184,2
1672944309979236844,122522,1672944309995035031,gps,2,1,42.3009786095,-83.697938072,272.557373047,0.001156,0.0,0.0,0.0,0.001156,0.0,0.0,0.0,0.005184,2
1672944309999173758,122523,1672944310015069313,gps,2,1,42.3009786393,-83.6979392729,272.555877686,0.001156,0.0,0.0,0.0,0.001156,0.0,0.0,0.0,0.005184,2
1672944310019185709,122524,1672944310034991947,gps,2,1,42.300978664,-83.6979404817,272.554290771,0.001156,0.0,0.0,0.0,0.001156,0.0,0.0,0.0,0.005184,2
1672944310039276148,122525,1672944310055200752,gps,2,1,42.3009786886,-83.6979416906,272.552764893,0.001156,0.0,0.0,0.0,0.001156,0.0,0.0,0.0,0.005184,2
1672944310059081046,122526,1672944310075120681,gps,2,1,42.3009787186,-83.6979428993,272.551452637,0.001156,0.0,0.0,0.0,0.001156,0.0,0.0,0.0,0.005184,2
1672944310079094266,122527,1672944310095148201,gps,2,1,42.3009787418,-83.6979441165,272.549713135,0.001156,0.0,0.0,0.0,0.001156,0.0,0.0,0.0,0.005184,2
1672944310099315382,122528,1672944310115100582,gps,2,1,42.3009787652,-83.697945335,272.548126221,0.001156,0.0,0.0,0.0,0.001156,0.0,0.0,0.0,0.005184,2
1672944310119379397,122529,1672944310135243128,gps,2,1,42.3009787938,-83.6979465513,272.546691895,0.001156,0.0,0.0,0.0,0.001156,0.0,0.0,0.0,0.005184,2
1672944310139175662,122530,1672944310155091195,gps,2,1,42.3009788172,-83.6979477768,272.544799805,0.001156,0.0,0.0,0.0,0.001156,0.0,0.0,0.0,0.005184,2
1672944310158794340,122531,1672944310175028131,gps,2,1,42.3009788402,-83.6979490016,272.542877197,0.001156,0.0,0.0,0.0,0.001156,0.0,0.0,0.0,0.005184,2
1672944310179143431,122532,1672944310195098760,gps,2,1,42.3009788684,-83.6979502269,272.54095459,0.001156,0.0,0.0,0.0,0.001156,0.0,0.0,0.0,0.005184,2
1672944310199351950,122533,1672944310215055163,gps,2,1,42.3009788919,-83.6979514601,272.538482666,0.001156,0.0,0.0,0.0,0.001156,0.0,0.0,0.0,0.005184,2
1672944310219280094,122534,1672944310235048575,gps,2,1,42.3009789121,-83.6979526931,272.535919189,0.001156,0.0,0.0,0.0,0.001156,0.0,0.0,0.0,0.005184,2
1672944310239283084,122535,1672944310255129032,gps,2,1,42.3009789403,-83.6979539263,272.533355713,0.001156,0.0,0.0,0.0,0.001156,0.0,0.0,0.0,0.005184,2
1672944310259289944,122536,1672944310275046734,gps,2,1,42.3009789606,-83.6979551664,272.530303955,0.001156,0.0,0.0,0.0,0.001156,0.0,0.0,0.0,0.005184,2
1672944310279185032,122537,1672944310295052321,gps,2,1,42.3009789811,-83.6979564073,272.527160645,0.001156,0.0,0.0,0.0,0.001156,0.0,0.0,0.0,0.005184,2
1672944310299172800,122538,1672944310315108231,gps,2,1,42.3009790093,-83.6979576487,272.524200439,0.001156,0.0,0.0,0.0,0.001156,0.0,0.0,0.0,0.005184,2
1672944310319334316,122539,1672944310335133553,gps,2,1,42.3009790325,-83.6979588967,272.520874023,0.001156,0.0,0.0,0.0,0.001156,0.0,0.0,0.0,0.005184,2
1672944310339169211,122540,1672944310355012636,gps,2,1,42.3009790558,-83.6979601452,272.517547607,0.001156,0.0,0.0,0.0,0.001156,0.0,0.0,0.0,0.005184,2
1672944310359020162,122541,1672944310375018346,gps,2,1,42.3009790838,-83.6979613945,272.514404297,0.001156,0.0,0.0,0.0,0.001156,0.0,0.0,0.0,0.005184,2
1672944310379352901,122542,1672944310395024835,gps,2,1,42.3009791074,-83.6979626499,272.511047363,0.001156,0.0,0.0,0.0,0.001156,0.0,0.0,0.0,0.005184,2
1672944310399317642,122543,1672944310415105112,gps,2,1,42.3009791312,-83.6979639063,272.50769043,0.001156,0.0,0.0,0.0,0.001156,0.0,0.0,0.0,0.005184,2
1672944310419193323,122544,1672944310435091847,gps,2,1,42.3009791596,-83.6979651627,272.504638672,0.001156,0.0,0.0,0.0,0.001156,0.0,0.0,0.0,0.005184,2
1672944310439158915,122545,1672944310455029910,gps,2,1,42.3009791833,-83.6979664291,272.501312256,0.001156,0.0,0.0,0.0,0.001156,0.0,0.0,0.0,0.005184,2
1672944310459112515,122546,1672944310475012265,gps,2,1,42.3009792072,-83.6979676953,272.498077393,0.001156,0.0,0.0,0.0,0.001156,0.0,0.0,0.0,0.005184,2
1672944310479106785,122547,1672944310495122565,gps,2,1,42.3009792364,-83.6979689596,272.495147705,0.001156,0.0,0.0,0.0,0.001156,0.0,0.0,0.0,0.005184,2
1672944310499083404,122548,1672944310515039818,gps,2,1,42.3009792607,-83.6979702309,272.492095947,0.001156,0.0,0.0,0.0,0.001156,0.0,0.0,0.0,0.005184,2
1672944310518841297,122549,1672944310535034893,gps,2,1,42.3009792853,-83.6979715017,272.489074707,0.001156,0.0,0.0,0.0,0.001156,0.0,0.0,0.0,0.005184,2
1672944310539240934,122550,1672944310555110425,gps,2,1,42.3009793155,-83.6979727726,272.486358643,0.001156,0.0,0.0,0.0,0.001156,0.0,0.0,0.0,0.005184,2
1672944310559370250,122551,1672944310575153888,gps,2,1,42.3009793388,-83.697974052,272.48336792,0.001156,0.0,0.0,0.0,0.001156,0.0,0.0,0.0,0.005184,2
1672944310579300544,122552,1672944310595121790,gps,2,1,42.3009793629,-83.6979753303,272.480438232,0.001156,0.0,0.0,0.0,0.001156,0.0,0.0,0.0,0.005184,2
1672944310599239599,122553,1672944310615002946,gps,2,1,42.300979393,-83.6979766081,272.477996826,0.001156,0.0,0.0,0.0,0.001156,0.0,0.0,0.0,0.005184,2
1672944310619250621,122554,1672944310635125665,gps,2,1,42.3009794154,-83.697977892,272.47555542,0.001156,0.0,0.0,0.0,0.001156,0.0,0.0,0.0,0.005184,2
1672944310639274645,122555,1672944310655003642,gps,2,1,42.3009794374,-83.6979791713,272.473052979,0.001156,0.0,0.0,0.0,0.001156,0.0,0.0,0.0,0.005184,2
1672944310658919377,122556,1672944310675056109,gps,2,1,42.300979467,-83.6979804574,272.470794678,0.001156,0.0,0.0,0.0,0.001156,0.0,0.0,0.0,0.005184,2
1672944310679223041,122557,1672944310695004267,gps,2,1,42.3009794893,-83.6979817488,272.468200684,0.001156,0.0,0.0,0.0,0.001156,0.0,0.0,0.0,0.005184,2
1672944310699239434,122558,1672944310715088381,gps,2,1,42.3009795117,-83.6979830395,272.465667725,0.001156,0.0,0.0,0.0,0.001156,0.0,0.0,0.0,0.005184,2
1672944310719123004,122559,1672944310735000988,gps,2,1,42.3009795407,-83.6979843335,272.463134766,0.001156,0.0,0.0,0.0,0.001156,0.0,0.0,0.0,0.005184,2
1672944310739113370,122560,1672944310755010529,gps,2,1,42.3009795646,-83.697985636,272.460205078,0.001156,0.0,0.0,0.0,0.001156,0.0,0.0,0.0,0.005184,2
1672944310759110588,122561,1672944310775022521,gps,2,1,42.300979588,-83.6979869396,272.457244873,0.001156,0.0,0.0,0.0,0.001156,0.0,0.0,0.0,0.005184,2
1672944310779070760,122562,1672944310795126316,gps,2,1,42.3009796169,-83.6979882426,272.454345703,0.001156,0.0,0.0,0.0,0.001156,0.0,0.0,0.0,0.005184,2
1672944310799440586,122563,1672944310815101758,gps,2,1,42.3009796407,-83.6979895541,272.450866699,0.001156,0.0,0.0,0.0,0.001156,0.0,0.0,0.0,0.005184,2
1672944310819160918,122564,1672944310835058806,gps,2,1,42.3009796646,-83.6979908664,272.447387695,0.001156,0.0,0.0,0.0,0.001156,0.0,0.0,0.0,0.005184,2
1672944310839219017,122565,1672944310855081574,gps,2,1,42.3009796932,-83.6979921779,272.444122314,0.001156,0.0,0.0,0.0,0.001156,0.0,0.0,0.0,0.005184,2
1672944310859380073,122566,1672944310875060111,gps,2,1,42.3009797169,-83.6979934976,272.440429688,0.001156,0.0,0.0,0.0,0.001156,0.0,0.0,0.0,0.005184,2
1672944310879410561,122567,1672944310895078687,gps,2,1,42.3009797408,-83.697994818,272.436706543,0.001156,0.0,0.0,0.0,0.001156,0.0,0.0,0.0,0.005184,2
1672944310899143762,122568,1672944310915048624,gps,2,1,42.3009797693,-83.6979961374,272.433319092,0.001156,0.0,0.0,0.0,0.001156,0.0,0.0,0.0,0.005184,2
1672944310919238645,122569,1672944310935037771,gps,2,1,42.3009797929,-83.6979974617,272.429840088,0.001156,0.0,0.0,0.0,0.001156,0.0,0.0,0.0,0.005184,2
1672944310939098320,122570,1672944310955074130,gps,2,1,42.3009798165,-83.6979987866,272.426361084,0.001156,0.0,0.0,0.0,0.001156,0.0,0.0,0.0,0.005184,2
1672944310959290980,122571,1672944310975058131,gps,2,1,42.3009798446,-83.6980001135,272.423095703,0.001156,0.0,0.0,0.0,0.001156,0.0,0.0,0.0,0.005184,2
1672944310979346267,122572,1672944310995053190,gps,2,1,42.3009798677,-83.6980014454,272.419830322,0.001156,0.0,0.0,0.0,0.001156,0.0,0.0,0.0,0.005184,2
1672944310999140761,122573,1672944311015064696,gps,2,1,42.300979891,-83.6980027772,272.416625977,0.001156,0.0,0.0,0.0,0.001156,0.0,0.0,0.0,0.005184,2
1672944311019187711,122574,1672944311035108003,gps,2,1,42.3009799181,-83.6980041112,272.413635254,0.001156,0.0,0.0,0.0,0.001156,0.0,0.0,0.0,0.005184,2
1672944311039328295,122575,1672944311055196900,gps,2,1,42.300979938,-83.698005451,272.410827637,0.001156,0.0,0.0,0.0,0.001156,0.0,0.0,0.0,0.005184,2
1672944311059127483,122576,1672944311075003201,gps,2,1,42.3009799578,-83.6980067907,272.40802002,0.001156,0.0,0.0,0.0,0.001156,0.0,0.0,0.0,0.005184,2
1672944311079148014,122577,1672944311095124416,gps,2,1,42.3009799833,-83.6980081308,272.405456543,0.001156,0.0,0.0,0.0,0.001156,0.0,0.0,0.0,0.005184,2
1672944311099297124,122578,1672944311115130630,gps,2,1,42.3009800014,-83.6980094775,272.402954102,0.001156,0.0,0.0,0.0,0.001156,0.0,0.0,0.0,0.005184,2
1672944311119238037,122579,1672944311135061039,gps,2,1,42.3009800198,-83.6980108228,272.400543213,0.001156,0.0,0.0,0.0,0.001156,0.0,0.0,0.0,0.005184,2
1672944311139207459,122580,1672944311155158932,gps,2,1,42.3009800448,-83.6980121686,272.398468018,0.001156,0.0,0.0,0.0,0.001156,0.0,0.0,0.0,0.005184,2
1672944311159142076,122581,1672944311175084391,gps,2,1,42.3009800636,-83.6980135209,272.396514893,0.001156,0.0,0.0,0.0,0.001156,0.0,0.0,0.0,0.005184,2
1672944311179137481,122582,1672944311195048218,gps,2,1,42.3009800825,-83.6980148719,272.39465332,0.001156,0.0,0.0,0.0,0.001156,0.0,0.0,0.0,0.005184,2
1672944311199076271,122583,1672944311215070606,gps,2,1,42.3009801079,-83.698016223,272.39263916,0.001156,0.0,0.0,0.0,0.001156,0.0,0.0,0.0,0.005184,2
1672944311219243971,122584,1672944311235092385,gps,2,1,42.3009801276,-83.6980175774,272.390289307,0.001156,0.0,0.0,0.0,0.001156,0.0,0.0,0.0,0.005184,2
1672944311239074702,122585,1672944311254994219,gps,2,1,42.3009801473,-83.6980189333,272.387817383,0.001156,0.0,0.0,0.0,0.001156,0.0,0.0,0.0,0.005184,2
1672944311259191656,122586,1672944311275098449,gps,2,1,42.3009801737,-83.6980202878,272.385070801,0.001156,0.0,0.0,0.0,0.001156,0.0,0.0,0.0,0.005184,2
1672944311279306650,122587,1672944311295103150,gps,2,1,42.3009801944,-83.6980216474,272.381835938,0.001156,0.0,0.0,0.0,0.001156,0.0,0.0,0.0,0.005184,2
1672944311299127084,122588,1672944311315132099,gps,2,1,42.300980217,-83.6980230083,272.378570557,0.001156,0.0,0.0,0.0,0.001156,0.0,0.0,0.0,0.005184,2
1672944311319278009,122589,1672944311335118543,gps,2,1,42.3009802435,-83.6980243672,272.374969482,0.001156,0.0,0.0,0.0,0.001156,0.0,0.0,0.0,0.005184,2
1672944311339070650,122590,1672944311355120089,gps,2,1,42.300980266,-83.6980257318,272.370941162,0.001156,0.0,0.0,0.0,0.001156,0.0,0.0,0.0,0.005184,2
1672944311359089075,122591,1672944311375036902,gps,2,1,42.3009802887,-83.6980270967,272.366851807,0.001156,0.0,0.0,0.0,0.001156,0.0,0.0,0.0,0.005184,2
1672944311378855878,122592,1672944311395114199,gps,2,1,42.3009803151,-83.6980284608,272.362579346,0.001156,0.0,0.0,0.0,0.001156,0.0,0.0,0.0,0.005184,2
1672944311399003791,122593,1672944311415168721,gps,2,1,42.3009803372,-83.6980298309,272.358093262,0.001156,0.0,0.0,0.0,0.001156,0.0,0.0,0.0,0.005184,2
1672944311419266730,122594,1672944311435021946,gps,2,1,42.3009803603,-83.698031202,272.35357666,0.001156,0.0,0.0,0.0,0.001156,0.0,0.0,0.0,0.005184,2
1672944311439220477,122595,1672944311455087655,gps,2,1,42.3009803855,-83.698032572,272.349060059,0.001156,0.0,0.0,0.0,0.001156,0.0,0.0,0.0,0.005184,2
1672944311459212699,122596,1672944311474989949,gps,2,1,42.3009804068,-83.6980339489,272.344421387,0.001156,0.0,0.0,0.0,0.001156,0.0,0.0,0.0,0.005184,2
1672944311479059777,122597,1672944311495082969,gps,2,1,42.3009804282,-83.698035326,272.33984375,0.001156,0.0,0.0,0.0,0.001156,0.0,0.0,0.0,0.005184,2
1672944311499035006,122598,1672944311515086844,gps,2,1,42.3009804509,-83.6980367025,272.335327148,0.001156,0.0,0.0,0.0,0.001156,0.0,0.0,0.0,0.005184,2
1672944311519458495,122599,1672944311535124545,gps,2,1,42.3009804702,-83.6980380864,272.330871582,0.001156,0.0,0.0,0.0,0.001156,0.0,0.0,0.0,0.005184,2
1672944311539305014,122600,1672944311555133237,gps,2,1,42.3009804896,-83.6980394704,272.326416016,0.001156,0.0,0.0,0.0,0.001156,0.0,0.0,0.0,0.005184,2
1672944311559214867,122601,1672944311575104508,gps,2,1,42.3009805098,-83.6980408534,272.322052002,0.001156,0.0,0.0,0.0,0.001156,0.0,0.0,0.0,0.005184,2
1672944311579322106,122602,1672944311595127894,gps,2,1,42.3009805257,-83.6980422448,272.317749023,0.001156,0.0,0.0,0.0,0.001156,0.0,0.0,0.0,0.005184,2
1672944311599376239,122603,1672944311615021023,gps,2,1,42.3009805423,-83.6980436335,272.313537598,0.001156,0.0,0.0,0.0,0.001156,0.0,0.0,0.0,0.005184,2
1672944311619170106,122604,1672944311635107492,gps,2,1,42.3009805617,-83.6980450224,272.309448242,0.001156,0.0,0.0,0.0,0.001156,0.0,0.0,0.0,0.005184,2
1672944311639032897,122605,1672944311655011778,gps,2,1,42.3009805786,-83.6980464162,272.305511475,0.001156,0.0,0.0,0.0,0.001156,0.0,0.0,0.0,0.005184,2
1672944311658890777,122606,1672944311675015307,gps,2,1,42.3009805956,-83.6980478106,272.301574707,0.001156,0.0,0.0,0.0,0.001156,0.0,0.0,0.0,0.005184,2
1672944311679137016,122607,1672944311695078657,gps,2,1,42.3009806154,-83.6980492053,272.297790527,0.001156,0.0,0.0,0.0,0.001156,0.0,0.0,0.0,0.005184,2
1672944311699189822,122608,1672944311715043096,gps,2,1,42.3009806333,-83.6980506046,272.294128418,0.001156,0.0,0.0,0.0,0.001156,0.0,0.0,0.0,0.005184,2
1672944311719113330,122609,1672944311734990545,gps,2,1,42.3009806499,-83.6980520073,272.290435791,0.001156,0.0,0.0,0.0,0.001156,0.0,0.0,0.0,0.005184,2
1672944311739187539,122610,1672944311755068960,gps,2,1,42.3009806705,-83.6980534073,272.286834717,0.001156,0.0,0.0,0.0,0.001156,0.0,0.0,0.0,0.005184,2
1672944311759472626,122611,1672944311775081831,gps,2,1,42.300980687,-83.6980548146,272.28326416,0.001156,0.0,0.0,0.0,0.001156,0.0,0.0,0.0,0.005184,2
1672944311779118332,122612,1672944311795098339,gps,2,1,42.3009807054,-83.6980562212,272.279815674,0.0009,0.0,0.0,0.0,0.0009,0.0,0.0,0.0,0.005184,2
1672944311798791008,122613,1672944311815110349,gps,2,1,42.300980725,-83.6980576259,272.276245117,0.0009,0.0,0.0,0.0,0.0009,0.0,0.0,0.0,0.005184,2
1672944311819411201,122614,1672944311835089290,gps,2,1,42.3009807424,-83.6980590365,272.272827148,0.0009,0.0,0.0,0.0,0.0009,0.0,0.0,0.0,0.005184,2
1672944311839254065,122615,1672944311855027090,gps,2,1,42.3009807597,-83.6980604474,272.26940918,0.0009,0.0,0.0,0.0,0.0009,0.0,0.0,0.0,0.005184,2
1672944311859147504,122616,1672944311875090600,gps,2,1,42.3009807788,-83.6980618554,272.265960693,0.0009,0.0,0.0,0.0,0.0009,0.0,0.0,0.0,0.005184,2
1672944311879157755,122617,1672944311895038274,gps,2,1,42.3009807968,-83.6980632684,272.262817383,0.0009,0.0,0.0,0.0,0.0009,0.0,0.0,0.0,0.005184,2
1672944311899084943,122618,1672944311915046292,gps,2,1,42.3009808147,-83.6980646815,272.259674072,0.0009,0.0,0.0,0.0,0.0009,0.0,0.0,0.0,0.005184,2
1672944311919112851,122619,1672944311935123878,gps,2,1,42.3009808348,-83.6980660924,272.256561279,0.0009,0.0,0.0,0.0,0.0009,0.0,0.0,0.0,0.005184,2
1672944311938907391,122620,1672944311955025311,gps,2,1,42.3009808527,-83.6980675081,272.253662109,0.0009,0.0,0.0,0.0,0.0009,0.0,0.0,0.0,0.005184,2
1672944311959163414,122621,1672944311975003708,gps,2,1,42.3009808708,-83.698068924,272.250762939,0.0009,0.0,0.0,0.0,0.0009,0.0,0.0,0.0,0.005184,2
1672944311979207568,122622,1672944311995121483,gps,2,1,42.3009808915,-83.6980703373,272.247955322,0.0009,0.0,0.0,0.0,0.0009,0.0,0.0,0.0,0.005184,2
1672944311999185801,122623,1672944312015056179,gps,2,1,42.3009809097,-83.6980717554,272.245239258,0.0009,0.0,0.0,0.0,0.0009,0.0,0.0,0.0,0.005184,2
1672944312019198375,122624,1672944312035082980,gps,2,1,42.3009809284,-83.6980731747,272.242584229,0.0009,0.0,0.0,0.0,0.0009,0.0,0.0,0.0,0.005184,2
1672944312039185795,122625,1672944312055146427,gps,2,1,42.3009809483,-83.698074591,272.239837646,0.0009,0.0,0.0,0.0,0.0009,0.0,0.0,0.0,0.005184,2
1672944312059207886,122626,1672944312075148315,gps,2,1,42.300980963,-83.6980760139,272.237060547,0.0009,0.0,0.0,0.0,0.0009,0.0,0.0,0.0,0.005184,2
1672944312078882943,122627,1672944312095105330,gps,2,1,42.3009809778,-83.6980774366,272.234283447,0.0009,0.0,0.0,0.0,0.0009,0.0,0.0,0.0,0.005184,2
1672944312099197086,122628,1672944312115085941,gps,2,1,42.3009809948,-83.6980788561,272.231414795,0.0009,0.0,0.0,0.0,0.0009,0.0,0.0,0.0,0.005184,2
1672944312119135546,122629,1672944312135070579,gps,2,1,42.3009810083,-83.6980802828,272.228515625,0.0009,0.0,0.0,0.0,0.0009,0.0,0.0,0.0,0.005184,2
1672944312139186772,122630,1672944312155090965,gps,2,1,42.3009810216,-83.6980817095,272.225616455,0.0009,0.0,0.0,0.0,0.0009,0.0,0.0,0.0,0.005184,2
1672944312159184643,122631,1672944312175126433,gps,2,1,42.3009810352,-83.6980831325,272.22265625,0.0009,0.0,0.0,0.0,0.0009,0.0,0.0,0.0,0.005184,2
1672944312179336437,122632,1672944312195089187,gps,2,1,42.3009810461,-83.6980845619,272.219665527,0.0009,0.0,0.0,0.0,0.0009,0.0,0.0,0.0,0.005184,2
1672944312199019473,122633,1672944312215098768,gps,2,1,42.300981057,-83.6980859922,272.216674805,0.0009,0.0,0.0,0.0,0.0009,0.0,0.0,0.0,0.005184,2
1672944312219019699,122634,1672944312235045253,gps,2,1,42.3009810687,-83.6980874182,272.213623047,0.0009,0.0,0.0,0.0,0.0009,0.0,0.0,0.0,0.005184,2
1672944312238930476,122635,1672944312255065633,gps,2,1,42.3009810756,-83.6980888457,272.21081543,0.0009,0.0,0.0,0.0,0.0009,0.0,0.0,0.0,0.005184,2
1672944312259166531,122636,1672944312274977209,gps,2,1,42.3009810827,-83.6980902733,272.208007812,0.0009,0.0,0.0,0.0,0.0009,0.0,0.0,0.0,0.005184,2
1672944312278826095,122637,1672944312295125280,gps,2,1,42.3009810927,-83.6980917024,272.204925537,0.0009,0.0,0.0,0.0,0.0009,0.0,0.0,0.0,0.005184,2
1672944312299237793,122638,1672944312315118057,gps,2,1,42.3009810984,-83.698093133,272.20211792,0.0009,0.0,0.0,0.0,0.0009,0.0,0.0,0.0,0.005184,2
1672944312319288171,122639,1672944312335070735,gps,2,1,42.3009811067,-83.6980945667,272.19909668,0.0009,0.0,0.0,0.0,0.0009,0.0,0.0,0.0,0.005184,2
1672944312339146776,122640,1672944312355143781,gps,2,1,42.300981116,-83.6980959987,272.19619751,0.0009,0.0,0.0,0.0,0.0009,0.0,0.0,0.0,0.005184,2
1672944312359033668,122641,1672944312375059445,gps,2,1,42.300981125,-83.6980974351,272.193603516,0.0009,0.0,0.0,0.0,0.0009,0.0,0.0,0.0,0.005184,2
1672944312379213557,122642,1672944312395060790,gps,2,1,42.3009811334,-83.6980988712,272.191040039,0.0009,0.0,0.0,0.0,0.0009,0.0,0.0,0.0,0.005184,2
1672944312399243595,122643,1672944312415074909,gps,2,1,42.3009811437,-83.6981003057,272.188720703,0.0009,0.0,0.0,0.0,0.0009,0.0,0.0,0.0,0.005184,2
1672944312419372247,122644,1672944312435150836,gps,2,1,42.300981154,-83.6981017438,272.186767578,0.0009,0.0,0.0,0.0,0.0009,0.0,0.0,0.0,0.005184,2
1672944312439173464,122645,1672944312455021817,gps,2,1,42.3009811641,-83.6981031821,272.184906006,0.0009,0.0,0.0,0.0,0.0009,0.0,0.0,0.0,0.005184,2
1672944312459108249,122646,1672944312475083854,gps,2,1,42.3009811757,-83.6981046192,272.183258057,0.0009,0.0,0.0,0.0,0.0009,0.0,0.0,0.0,0.005184,2
1672944312479092943,122647,1672944312495087265,gps,2,1,42.3009811869,-83.6981060599,272.181884766,0.0009,0.0,0.0,0.0,0.0009,0.0,0.0,0.0,0.005184,2
1672944312498970458,122648,1672944312515039287,gps,2,1,42.3009811987,-83.6981075013,272.180541992,0.0009,0.0,0.0,0.0,0.0009,0.0,0.0,0.0,0.005184,2
1672944312518990003,122649,1672944312535108585,gps,2,1,42.3009812108,-83.6981089401,272.179199219,0.0009,0.0,0.0,0.0,0.0009,0.0,0.0,0.0,0.005184,2
1672944312538947033,122650,1672944312555100589,gps,2,1,42.3009812206,-83.698110384,272.178009033,0.0009,0.0,0.0,0.0,0.0009,0.0,0.0,0.0,0.005184,2
1672944312559404925,122651,1672944312575086118,gps,2,1,42.3009812305,-83.6981118269,272.176757812,0.0009,0.0,0.0,0.0,0.0009,0.0,0.0,0.0,0.005184,2
1672944312579320721,122652,1672944312595178955,gps,2,1,42.3009812424,-83.6981132667,272.175415039,0.0009,0.0,0.0,0.0,0.0009,0.0,0.0,0.0,0.005184,2
1672944312599206230,122653,1672944312615089118,gps,2,1,42.3009812518,-83.6981147106,272.174041748,0.0009,0.0,0.0,0.0,0.0009,0.0,0.0,0.0,0.005184,2
1672944312619068421,122654,1672944312635130992,gps,2,1,42.3009812622,-83.6981161546,272.172637939,0.0009,0.0,0.0,0.0,0.0009,0.0,0.0,0.0,0.005184,2
1672944312639052874,122655,1672944312655150114,gps,2,1,42.3009812728,-83.6981175945,272.171081543,0.0009,0.0,0.0,0.0,0.0009,0.0,0.0,0.0,0.005184,2
1672944312659325749,122656,1672944312675065205,gps,2,1,42.3009812823,-83.6981190385,272.169464111,0.0009,0.0,0.0,0.0,0.0009,0.0,0.0,0.0,0.005184,2
1672944312679146677,122657,1672944312695098381,gps,2,1,42.3009812915,-83.6981204821,272.16784668,0.0009,0.0,0.0,0.0,0.0009,0.0,0.0,0.0,0.005184,2
1672944312699312912,122658,1672944312715069334,gps,2,1,42.3009813007,-83.6981219223,272.16619873,0.0009,0.0,0.0,0.0,0.0009,0.0,0.0,0.0,0.005184,2
1672944312719313403,122659,1672944312735113768,gps,2,1,42.3009813058,-83.6981233662,272.164733887,0.0009,0.0,0.0,0.0,0.0009,0.0,0.0,0.0,0.005184,2
1672944312739087065,122660,1672944312754972686,gps,2,1,42.3009813109,-83.6981248098,272.163269043,0.0009,0.0,0.0,0.0,0.0009,0.0,0.0,0.0,0.005184,2
1672944312759092128,122661,1672944312775037629,gps,2,1,42.3009813177,-83.6981262494,272.161712646,0.0009,0.0,0.0,0.0,0.0009,0.0,0.0,0.0,0.005184,2
1672944312779058123,122662,1672944312794993474,gps,2,1,42.3009813205,-83.6981276927,272.160308838,0.0009,0.0,0.0,0.0,0.0009,0.0,0.0,0.0,0.005184,2
1672944312799176120,122663,1672944312815099342,gps,2,1,42.3009813233,-83.6981291354,272.158905029,0.0009,0.0,0.0,0.0,0.0009,0.0,0.0,0.0,0.005184,2
1672944312819432050,122664,1672944312835076948,gps,2,1,42.300981328,-83.6981305745,272.157409668,0.0009,0.0,0.0,0.0,0.0009,0.0,0.0,0.0,0.005184,2
1672944312839042078,122665,1672944312854991073,gps,2,1,42.3009813345,-83.6981320175,272.155914307,0.0009,0.0,0.0,0.0,0.0009,0.0,0.0,0.0,0.005184,2
1672944312859102086,122666,1672944312875022881,gps,2,1,42.3009813409,-83.6981334601,272.154449463,0.0009,0.0,0.0,0.0,0.0009,0.0,0.0,0.0,0.005184,2
