%time,field.header.seq,field.header.stamp,field.header.frame_id,field.status.status,field.status.service,field.latitude,field.longitude,field.altitude,field.position_covariance0,field.position_covariance1,field.position_covariance2,field.position_covariance3,field.position_covariance4,field.position_covariance5,field.position_covariance6,field.position_covariance7,field.position_covariance8,field.position_covariance_type
1672944772972293060,145672,1672944772996972451,gps,2,1,42.3009175051,-83.6992428371,271.372528076,0.001089,0.0,0.0,0.0,0.001089,0.0,0.0,0.0,0.0049,2
1672944772992167076,145673,1672944773017034401,gps,2,1,42.3009175046,-83.6992428376,271.372589111,0.001089,0.0,0.0,0.0,0.001089,0.0,0.0,0.0,0.0049,2
1672944773012604248,145674,1672944773037192016,gps,2,1,42.3009175027,-83.6992428398,271.372650146,0.001089,0.0,0.0,0.0,0.001089,0.0,0.0,0.0,0.0049,2
1672944773032451752,145675,1672944773057100954,gps,2,1,42.3009175022,-83.6992428406,271.372711182,0.001089,0.0,0.0,0.0,0.001089,0.0,0.0,0.0,0.0049,2
1672944773052173219,145676,1672944773077145601,gps,2,1,42.3009175024,-83.699242841,271.372650146,0.001089,0.0,0.0,0.0,0.001089,0.0,0.0,0.0,0.0049,2
1672944773071898052,145677,1672944773097085379,gps,2,1,42.3009175007,-83.6992428434,271.372741699,0.001089,0.0,0.0,0.0,0.001089,0.0,0.0,0.0,0.0049,2
1672944773092070781,145678,1672944773117086898,gps,2,1,42.3009175007,-83.6992428437,271.372680664,0.001089,0.0,0.0,0.0,0.001089,0.0,0.0,0.0,0.0049,2
1672944773111829807,145679,1672944773137001296,gps,2,1,42.3009175007,-83.6992428442,271.372589111,0.001089,0.0,0.0,0.0,0.001089,0.0,0.0,0.0,0.0049,2
1672944773132341362,145680,1672944773157051014,gps,2,1,42.3009174989,-83.6992428466,271.372650146,0.001089,0.0,0.0,0.0,0.001089,0.0,0.0,0.0,0.0049,2
1672944773152260992,145681,1672944773177010483,gps,2,1,42.300917499,-83.6992428467,271.372589111,0.001089,0.0,0.0,0.0,0.001089,0.0,0.0,0.0,0.0049,2
1672944773172039574,145682,1672944773197002083,gps,2,1,42.3009174989,-83.6992428468,271.372528076,0.001089,0.0,0.0,0.0,0.001089,0.0,0.0,0.0,0.0049,2
1672944773192019206,145683,1672944773217138961,gps,2,1,42.3009174971,-83.6992428485,271.372619629,0.001089,0.0,0.0,0.0,0.001089,0.0,0.0,0.0,0.0049,2
1672944773212102567,145684,1672944773237081619,gps,2,1,42.3009174975,-83.6992428487,271.372497559,0.001089,0.0,0.0,0.0,0.001089,0.0,0.0,0.0,0.0049,2
1672944773231822030,145685,1672944773256981827,gps,2,1,42.3009174979,-83.6992428489,271.372436523,0.001089,0.0,0.0,0.0,0.001089,0.0,0.0,0.0,0.0049,2
1672944773251867718,145686,1672944773277022637,gps,2,1,42.3009174962,-83.699242851,271.372497559,0.001089,0.0,0.0,0.0,0.001089,0.0,0.0,0.0,0.0049,2
1672944773272386573,145687,1672944773297100023,gps,2,1,42.3009174965,-83.6992428516,271.372436523,0.001089,0.0,0.0,0.0,0.001089,0.0,0.0,0.0,0.0049,2
1672944773292397237,145688,1672944773317010653,gps,2,1,42.3009174966,-83.6992428521,271.372375488,0.001089,0.0,0.0,0.0,0.001089,0.0,0.0,0.0,0.0049,2
1672944773312257864,145689,1672944773337088847,gps,2,1,42.3009174947,-83.6992428549,271.372406006,0.001089,0.0,0.0,0.0,0.001089,0.0,0.0,0.0,0.0049,2
1672944773332000032,145690,1672944773357095520,gps,2,1,42.3009174946,-83.6992428557,271.372375488,0.001089,0.0,0.0,0.0,0.001089,0.0,0.0,0.0,0.0049,2
1672944773351948398,145691,1672944773377012368,gps,2,1,42.3009174944,-83.6992428562,271.372375488,0.001089,0.0,0.0,0.0,0.001089,0.0,0.0,0.0,0.0049,2
1672944773372350699,145692,1672944773397077406,gps,2,1,42.3009174925,-83.6992428588,271.372467041,0.001089,0.0,0.0,0.0,0.001089,0.0,0.0,0.0,0.0049,2
1672944773391842897,145693,1672944773417044552,gps,2,1,42.3009174922,-83.6992428593,271.372436523,0.001089,0.0,0.0,0.0,0.001089,0.0,0.0,0.0,0.0049,2
1672944773412083351,145694,1672944773436995281,gps,2,1,42.3009174924,-83.6992428595,271.372406006,0.001089,0.0,0.0,0.0,0.001089,0.0,0.0,0.0,0.0049,2
1672944773431885533,145695,1672944773457094886,gps,2,1,42.3009174904,-83.6992428618,271.372467041,0.001089,0.0,0.0,0.0,0.001089,0.0,0.0,0.0,0.0049,2
1672944773452226810,145696,1672944773477021257,gps,2,1,42.3009174904,-83.6992428615,271.372436523,0.001089,0.0,0.0,0.0,0.001089,0.0,0.0,0.0,0.0049,2
1672944773471910908,145697,1672944773497179434,gps,2,1,42.3009174902,-83.6992428616,271.372344971,0.001089,0.0,0.0,0.0,0.001089,0.0,0.0,0.0,0.0049,2
1672944773492314724,145698,1672944773517059238,gps,2,1,42.3009174878,-83.6992428635,271.372375488,0.001089,0.0,0.0,0.0,0.001089,0.0,0.0,0.0,0.0049,2
1672944773511820630,145699,1672944773536959487,gps,2,1,42.3009174863,-83.6992428633,271.372344971,0.001089,0.0,0.0,0.0,0.001089,0.0,0.0,0.0,0.0049,2
1672944773532382087,145700,1672944773557156648,gps,2,1,42.3009174846,-83.6992428626,271.372314453,0.001089,0.0,0.0,0.0,0.001089,0.0,0.0,0.0,0.0049,2
1672944773552223751,145701,1672944773577098811,gps,2,1,42.3009174815,-83.6992428635,271.372375488,0.001089,0.0,0.0,0.0,0.001089,0.0,0.0,0.0,0.0049,2
1672944773572286958,145702,1672944773597103818,gps,2,1,42.3009174793,-83.6992428618,271.372192383,0.001089,0.0,0.0,0.0,0.001089,0.0,0.0,0.0,0.0049,2
1672944773591926025,145703,1672944773617025851,gps,2,1,42.3009174775,-83.6992428606,271.372039795,0.001089,0.0,0.0,0.0,0.001089,0.0,0.0,0.0,0.0049,2
1672944773612206157,145704,1672944773637099181,gps,2,1,42.300917473,-83.6992428606,271.372070312,0.001089,0.0,0.0,0.0,0.001089,0.0,0.0,0.0,0.0049,2
1672944773631748478,145705,1672944773657000560,gps,2,1,42.3009174692,-83.699242858,271.371917725,0.001089,0.0,0.0,0.0,0.001089,0.0,0.0,0.0,0.0049,2
1672944773652170255,145706,1672944773676966223,gps,2,1,42.3009174652,-83.6992428561,271.371704102,0.001089,0.0,0.0,0.0,0.001089,0.0,0.0,0.0,0.0049,2
1672944773672080856,145707,1672944773697042579,gps,2,1,42.3009174583,-83.6992428548,271.371704102,0.001089,0.0,0.0,0.0,0.001089,0.0,0.0,0.0,0.0049,2
1672944773692140093,145708,1672944773717089179,gps,2,1,42.3009174517,-83.6992428509,271.371490479,0.001089,0.0,0.0,0.0,0.001089,0.0,0.0,0.0,0.0049,2
1672944773712059070,145709,1672944773736991166,gps,2,1,42.300917446,-83.6992428449,271.371307373,0.001089,0.0,0.0,0.0,0.001089,0.0,0.0,0.0,0.0049,2
1672944773731945560,145710,1672944773757060717,gps,2,1,42.3009174363,-83.6992428412,271.371307373,0.001089,0.0,0.0,0.0,0.001089,0.0,0.0,0.0,0.0049,2
1672944773752012414,145711,1672944773776981429,gps,2,1,42.3009174274,-83.6992428335,271.37109375,0.001089,0.0,0.0,0.0,0.001089,0.0,0.0,0.0,0.0049,2
1672944773772221002,145712,1672944773797093508,gps,2,1,42.3009174184,-83.6992428254,271.370910645,0.0009,0.0,0.0,0.0,0.0009,0.0,0.0,0.0,0.004624,2
1672944773792295191,145713,1672944773817049609,gps,2,1,42.3009174056,-83.6992428198,271.370910645,0.0009,0.0,0.0,0.0,0.0009,0.0,0.0,0.0,0.004624,2
1672944773812056634,145714,1672944773837070598,gps,2,1,42.3009173929,-83.6992428105,271.370788574,0.0009,0.0,0.0,0.0,0.0009,0.0,0.0,0.0,0.004624,2
1672944773832021669,145715,1672944773856975527,gps,2,1,42.3009173799,-83.6992428017,271.370605469,0.0009,0.0,0.0,0.0,0.0009,0.0,0.0,0.0,0.004624,2
1672944773852149163,145716,1672944773877053187,gps,2,1,42.3009173634,-83.6992427943,271.370574951,0.0009,0.0,0.0,0.0,0.0009,0.0,0.0,0.0,0.004624,2
1672944773871974622,145717,1672944773896986040,gps,2,1,42.3009173465,-83.6992427828,271.370422363,0.0009,0.0,0.0,0.0,0.0009,0.0,0.0,0.0,0.004624,2
1672944773891759141,145718,1672944773917013265,gps,2,1,42.3009173293,-83.699242771,271.370300293,0.0009,0.0,0.0,0.0,0.0009,0.0,0.0,0.0,0.004624,2
1672944773912205215,145719,1672944773937102260,gps,2,1,42.3009173085,-83.6992427599,271.370269775,0.0009,0.0,0.0,0.0,0.0009,0.0,0.0,0.0,0.004624,2
1672944773932146588,145720,1672944773957011116,gps,2,1,42.3009172869,-83.6992427443,271.370147705,0.0009,0.0,0.0,0.0,0.0009,0.0,0.0,0.0,0.004624,2
1672944773952121315,145721,1672944773976981807,gps,2,1,42.3009172648,-83.6992427281,271.37008667,0.0009,0.0,0.0,0.0,0.0009,0.0,0.0,0.0,0.004624,2
1672944773972171195,145722,1672944773997100829,gps,2,1,42.3009172385,-83.6992427128,271.370025635,0.0009,0.0,0.0,0.0,0.0009,0.0,0.0,0.0,0.004624,2
1672944773992072733,145723,1672944774017034288,gps,2,1,42.3009172106,-83.6992426923,271.369903564,0.0009,0.0,0.0,0.0,0.0009,0.0,0.0,0.0,0.004624,2
1672944774011870510,145724,1672944774037061588,gps,2,1,42.3009171825,-83.699242672,271.369720459,0.0009,0.0,0.0,0.0,0.0009,0.0,0.0,0.0,0.004624,2
1672944774032174393,145725,1672944774057184231,gps,2,1,42.3009171492,-83.6992426519,271.369598389,0.0009,0.0,0.0,0.0,0.0009,0.0,0.0,0.0,0.004624,2
1672944774052133005,145726,1672944774077074051,gps,2,1,42.3009171148,-83.6992426248,271.369293213,0.0009,0.0,0.0,0.0,0.0009,0.0,0.0,0.0,0.004624,2
1672944774072166010,145727,1672944774097115407,gps,2,1,42.3009170798,-83.6992425977,271.369018555,0.0009,0.0,0.0,0.0,0.0009,0.0,0.0,0.0,0.004624,2
1672944774092224987,145728,1672944774117208229,gps,2,1,42.3009170388,-83.6992425714,271.368896484,0.0009,0.0,0.0,0.0,0.0009,0.0,0.0,0.0,0.004624,2
1672944774112012906,145729,1672944774137056985,gps,2,1,42.3009169952,-83.699242538,271.368591309,0.0009,0.0,0.0,0.0,0.0009,0.0,0.0,0.0,0.004624,2
1672944774132342038,145730,1672944774157037517,gps,2,1,42.3009169512,-83.6992425043,271.36831665,0.0009,0.0,0.0,0.0,0.0009,0.0,0.0,0.0,0.004624,2
1672944774152012424,145731,1672944774177051813,gps,2,1,42.3009169019,-83.6992424716,271.368164062,0.0009,0.0,0.0,0.0,0.0009,0.0,0.0,0.0,0.004624,2
1672944774172054331,145732,1672944774196971848,gps,2,1,42.3009168494,-83.6992424318,271.367919922,0.0009,0.0,0.0,0.0,0.0009,0.0,0.0,0.0,0.004624,2
1672944774192475971,145733,1672944774217151887,gps,2,1,42.3009167964,-83.6992423919,271.367675781,0.0009,0.0,0.0,0.0,0.0009,0.0,0.0,0.0,0.004624,2
1672944774212211181,145734,1672944774237122089,gps,2,1,42.3009167376,-83.6992423527,271.367523193,0.0009,0.0,0.0,0.0,0.0009,0.0,0.0,0.0,0.004624,2
1672944774232042494,145735,1672944774257033660,gps,2,1,42.3009166759,-83.6992423052,271.367279053,0.0009,0.0,0.0,0.0,0.0009,0.0,0.0,0.0,0.004624,2
1672944774252131618,145736,1672944774277018284,gps,2,1,42.3009166136,-83.6992422574,271.367034912,0.0009,0.0,0.0,0.0,0.0009,0.0,0.0,0.0,0.004624,2
1672944774272093083,145737,1672944774297083145,gps,2,1,42.3009165446,-83.6992422104,271.366912842,0.0009,0.0,0.0,0.0,0.0009,0.0,0.0,0.0,0.004624,2
1672944774291931348,145738,1672944774317039465,gps,2,1,42.3009164717,-83.6992421551,271.366638184,0.0009,0.0,0.0,0.0,0.0009,0.0,0.0,0.0,0.004624,2
1672944774311872590,145739,1672944774337028892,gps,2,1,42.3009163987,-83.6992420997,271.366363525,0.0009,0.0,0.0,0.0,0.0009,0.0,0.0,0.0,0.004624,2
1672944774331901146,145740,1672944774357115496,gps,2,1,42.3009163183,-83.6992420439,271.366210938,0.0009,0.0,0.0,0.0,0.0009,0.0,0.0,0.0,0.004624,2
1672944774352039800,145741,1672944774377007311,gps,2,1,42.3009162339,-83.6992419797,271.365905762,0.0009,0.0,0.0,0.0,0.0009,0.0,0.0,0.0,0.004624,2
1672944774371745711,145742,1672944774397045736,gps,2,1,42.3009161486,-83.6992419151,271.365631104,0.0009,0.0,0.0,0.0,0.0009,0.0,0.0,0.0,0.004624,2
1672944774392062150,145743,1672944774417015860,gps,2,1,42.3009160557,-83.699241849,271.365447998,0.0009,0.0,0.0,0.0,0.0009,0.0,0.0,0.0,0.004624,2
1672944774411998987,145744,1672944774437067826,gps,2,1,42.3009159584,-83.6992417731,271.365081787,0.0009,0.0,0.0,0.0,0.0009,0.0,0.0,0.0,0.004624,2
1672944774432315752,145745,1672944774457002067,gps,2,1,42.3009158604,-83.6992416966,271.364746094,0.0009,0.0,0.0,0.0,0.0009,0.0,0.0,0.0,0.004624,2
1672944774451879598,145746,1672944774477079460,gps,2,1,42.3009157537,-83.6992416186,271.364532471,0.0009,0.0,0.0,0.0,0.0009,0.0,0.0,0.0,0.004624,2
1672944774472112922,145747,1672944774497094785,gps,2,1,42.3009156421,-83.6992415302,271.36416626,0.0009,0.0,0.0,0.0,0.0009,0.0,0.0,0.0,0.004624,2
1672944774492176388,145748,1672944774517006879,gps,2,1,42.3009155295,-83.6992414417,271.363800049,0.0009,0.0,0.0,0.0,0.0009,0.0,0.0,0.0,0.004624,2
1672944774512219803,145749,1672944774537103042,gps,2,1,42.3009154083,-83.6992413505,271.363586426,0.0009,0.0,0.0,0.0,0.0009,0.0,0.0,0.0,0.004624,2
1672944774532236473,145750,1672944774557077042,gps,2,1,42.3009152822,-83.6992412481,271.363098145,0.0009,0.0,0.0,0.0,0.0009,0.0,0.0,0.0,0.004624,2
1672944774552007839,145751,1672944774576971483,gps,2,1,42.3009151555,-83.6992411451,271.362640381,0.0009,0.0,0.0,0.0,0.0009,0.0,0.0,0.0,0.004624,2
1672944774571967344,145752,1672944774597149904,gps,2,1,42.3009150198,-83.69924104,271.36239624,0.0009,0.0,0.0,0.0,0.0009,0.0,0.0,0.0,0.004624,2
1672944774591910450,145753,1672944774617073129,gps,2,1,42.300914879,-83.6992409234,271.361938477,0.0009,0.0,0.0,0.0,0.0009,0.0,0.0,0.0,0.004624,2
1672944774612132199,145754,1672944774637084221,gps,2,1,42.3009147378,-83.6992408064,271.36151123,0.0009,0.0,0.0,0.0,0.0009,0.0,0.0,0.0,0.004624,2
1672944774632170144,145755,1672944774657064153,gps,2,1,42.3009145876,-83.6992406869,271.361236572,0.0009,0.0,0.0,0.0,0.0009,0.0,0.0,0.0,0.004624,2
1672944774652200168,145756,1672944774677016256,gps,2,1,42.3009144326,-83.6992405556,271.360778809,0.0009,0.0,0.0,0.0,0.0009,0.0,0.0,0.0,0.004624,2
1672944774672025567,145757,1672944774697004674,gps,2,1,42.3009142767,-83.6992404238,271.360351562,0.0009,0.0,0.0,0.0,0.0009,0.0,0.0,0.0,0.004624,2
1672944774692199293,145758,1672944774717177147,gps,2,1,42.3009141126,-83.6992402892,271.360046387,0.0009,0.0,0.0,0.0,0.0009,0.0,0.0,0.0,0.004624,2
1672944774711994119,145759,1672944774737081068,gps,2,1,42.3009139435,-83.6992401422,271.359619141,0.0009,0.0,0.0,0.0,0.0009,0.0,0.0,0.0,0.004624,2
1672944774732052490,145760,1672944774757024694,gps,2,1,42.3009137735,-83.6992399949,271.359191895,0.0009,0.0,0.0,0.0,0.0009,0.0,0.0,0.0,0.004624,2
1672944774752222965,145761,1672944774777057559,gps,2,1,42.3009135959,-83.6992398445,271.358825684,0.0009,0.0,0.0,0.0,0.0009,0.0,0.0,0.0,0.004624,2
1672944774772404497,145762,1672944774797196102,gps,2,1,42.3009134131,-83.6992396814,271.358306885,0.0009,0.0,0.0,0.0,0.0009,0.0,0.0,0.0,0.004624,2
1672944774792153097,145763,1672944774817012090,gps,2,1,42.3009132294,-83.6992395184,271.357788086,0.0009,0.0,0.0,0.0,0.0009,0.0,0.0,0.0,0.004624,2
1672944774812425200,145764,1672944774837109053,gps,2,1,42.3009130386,-83.6992393514,271.357330322,0.0009,0.0,0.0,0.0,0.0009,0.0,0.0,0.0,0.004624,2
1672944774832224410,145765,1672944774857011125,gps,2,1,42.3009128428,-83.6992391724,271.356750488,0.0009,0.0,0.0,0.0,0.0009,0.0,0.0,0.0,0.004624,2
1672944774852036888,145766,1672944774877033808,gps,2,1,42.3009126466,-83.699238993,271.356170654,0.0009,0.0,0.0,0.0,0.0009,0.0,0.0,0.0,0.004624,2
1672944774871947128,145767,1672944774897067281,gps,2,1,42.3009124434,-83.6992388088,271.355682373,0.0009,0.0,0.0,0.0,0.0009,0.0,0.0,0.0,0.004624,2
1672944774892135540,145768,1672944774917047786,gps,2,1,42.3009122357,-83.6992386125,271.355072021,0.0009,0.0,0.0,0.0,0.0009,0.0,0.0,0.0,0.004624,2
1672944774912206507,145769,1672944774936982093,gps,2,1,42.3009120283,-83.6992384128,271.354431152,0.0009,0.0,0.0,0.0,0.0009,0.0,0.0,0.0,0.004624,2
1672944774932178974,145770,1672944774957073495,gps,2,1,42.3009118137,-83.6992382108,271.353881836,0.0009,0.0,0.0,0.0,0.0009,0.0,0.0,0.0,0.004624,2
1672944774952092962,145771,1672944774977051256,gps,2,1,42.3009115957,-83.6992379938,271.353271484,0.0009,0.0,0.0,0.0,0.0009,0.0,0.0,0.0,0.004624,2
1672944774972207394,145772,1672944774997049493,gps,2,1,42.3009113772,-83.6992377761,271.352600098,0.0009,0.0,0.0,0.0,0.0009,0.0,0.0,0.0,0.004624,2
1672944774992187299,145773,1672944775017109542,gps,2,1,42.3009111518,-83.6992375552,271.352050781,0.0009,0.0,0.0,0.0,0.0009,0.0,0.0,0.0,0.004624,2
1672944775011921678,145774,1672944775037069629,gps,2,1,42.3009109229,-83.6992373188,271.351409912,0.0009,0.0,0.0,0.0,0.0009,0.0,0.0,0.0,0.004624,2
1672944775032285584,145775,1672944775057126977,gps,2,1,42.3009106938,-83.699237082,271.350769043,0.0009,0.0,0.0,0.0,0.0009,0.0,0.0,0.0,0.004624,2
1672944775052211907,145776,1672944775077205637,gps,2,1,42.3009104584,-83.6992368414,271.350219727,0.0009,0.0,0.0,0.0,0.0009,0.0,0.0,0.0,0.004624,2
1672944775071824513,145777,1672944775097069696,gps,2,1,42.3009102205,-83.6992365845,271.349456787,0.0009,0.0,0.0,0.0,0.0009,0.0,0.0,0.0,0.004624,2
1672944775092231528,145778,1672944775117136704,gps,2,1,42.3009099822,-83.699236327,271.348754883,0.0009,0.0,0.0,0.0,0.0009,0.0,0.0,0.0,0.004624,2
1672944775112201082,145779,1672944775137087680,gps,2,1,42.3009097376,-83.6992360661,271.348175049,0.0009,0.0,0.0,0.0,0.0009,0.0,0.0,0.0,0.004624,2
1672944775132202819,145780,1672944775157032639,gps,2,1,42.3009094913,-83.6992357877,271.347381592,0.0009,0.0,0.0,0.0,0.0009,0.0,0.0,0.0,0.004624,2
1672944775152081793,145781,1672944775177042644,gps,2,1,42.3009092446,-83.6992355087,271.346557617,0.0009,0.0,0.0,0.0,0.0009,0.0,0.0,0.0,0.004624,2
1672944775172094624,145782,1672944775197086375,gps,2,1,42.3009089921,-83.6992352264,271.34588623,0.0009,0.0,0.0,0.0,0.0009,0.0,0.0,0.0,0.004624,2
1672944775192172412,145783,1672944775217154247,gps,2,1,42.3009087384,-83.6992349261,271.345001221,0.0009,0.0,0.0,0.0,0.0009,0.0,0.0,0.0,0.004624,2
1672944775212129790,145784,1672944775237010257,gps,2,1,42.3009084863,-83.699234623,271.344085693,0.0009,0.0,0.0,0.0,0.0009,0.0,0.0,0.0,0.004624,2
1672944775232121004,145785,1672944775257082831,gps,2,1,42.3009082273,-83.6992343177,271.343353271,0.0009,0.0,0.0,0.0,0.0009,0.0,0.0,0.0,0.004624,2
1672944775252214220,145786,1672944775277033476,gps,2,1,42.3009079698,-83.6992339918,271.342407227,0.0009,0.0,0.0,0.0,0.0009,0.0,0.0,0.0,0.004624,2
1672944775271976457,145787,1672944775297057136,gps,2,1,42.3009077119,-83.6992336653,271.341430664,0.0009,0.0,0.0,0.0,0.0009,0.0,0.0,0.0,0.004624,2
1672944775291922050,145788,1672944775317064456,gps,2,1,42.3009074483,-83.6992333359,271.340637207,0.0009,0.0,0.0,0.0,0.0009,0.0,0.0,0.0,0.004624,2
1672944775312182604,145789,1672944775337025585,gps,2,1,42.3009071884,-83.6992329866,271.339569092,0.0009,0.0,0.0,0.0,0.0009,0.0,0.0,0.0,0.004624,2
1672944775331732740,145790,1672944775357048393,gps,2,1,42.300906928,-83.6992326365,271.338531494,0.0009,0.0,0.0,0.0,0.0009,0.0,0.0,0.0,0.004624,2
1672944775352377180,145791,1672944775377084122,gps,2,1,42.3009066618,-83.6992322831,271.337738037,0.0009,0.0,0.0,0.0,0.0009,0.0,0.0,0.0,0.004624,2
1672944775372116868,145792,1672944775397037282,gps,2,1,42.3009063993,-83.6992319104,271.336669922,0.0009,0.0,0.0,0.0,0.0009,0.0,0.0,0.0,0.004624,2
1672944775392096002,145793,1672944775417020601,gps,2,1,42.3009061367,-83.699231537,271.335632324,0.0009,0.0,0.0,0.0,0.0009,0.0,0.0,0.0,0.004624,2
1672944775412276754,145794,1672944775437144059,gps,2,1,42.3009058691,-83.6992311601,271.33480835,0.0009,0.0,0.0,0.0,0.0009,0.0,0.0,0.0,0.004624,2
1672944775432043024,145795,1672944775457055358,gps,2,1,42.3009056047,-83.6992307659,271.333679199,0.0009,0.0,0.0,0.0,0.0009,0.0,0.0,0.0,0.004624,2
1672944775452014788,145796,1672944775477026384,gps,2,1,42.3009053402,-83.699230371,271.332550049,0.0009,0.0,0.0,0.0,0.0009,0.0,0.0,0.0,0.004624,2
1672944775472097261,145797,1672944775497101119,gps,2,1,42.3009050724,-83.6992299717,271.331604004,0.0009,0.0,0.0,0.0,0.0009,0.0,0.0,0.0,0.004624,2
1672944775492302401,145798,1672944775517048464,gps,2,1,42.3009048074,-83.6992295563,271.330352783,0.0009,0.0,0.0,0.0,0.0009,0.0,0.0,0.0,0.004624,2
1672944775512286764,145799,1672944775537064133,gps,2,1,42.3009045436,-83.6992291404,271.329223633,0.0009,0.0,0.0,0.0,0.0009,0.0,0.0,0.0,0.004624,2
1672944775532302171,145800,1672944775557139297,gps,2,1,42.3009042759,-83.6992287191,271.328125,0.0009,0.0,0.0,0.0,0.0009,0.0,0.0,0.0,0.004624,2
1672944775552215698,145801,1672944775577098814,gps,2,1,42.3009040126,-83.6992282828,271.326873779,0.0009,0.0,0.0,0.0,0.0009,0.0,0.0,0.0,0.004624,2
1672944775571942403,145802,1672944775597082269,gps,2,1,42.3009037516,-83.6992278436,271.325592041,0.0009,0.0,0.0,0.0,0.0009,0.0,0.0,0.0,0.004624,2
1672944775592103158,145803,1672944775617096371,gps,2,1,42.300903486,-83.6992274008,271.324401855,0.0009,0.0,0.0,0.0,0.0009,0.0,0.0,0.0,0.004624,2
1672944775612070583,145804,1672944775637037199,gps,2,1,42.3009032267,-83.69922694,271.322998047,0.0009,0.0,0.0,0.0,0.0009,0.0,0.0,0.0,0.004624,2
1672944775632109232,145805,1672944775657055293,gps,2,1,42.3009029678,-83.6992264785,271.321624756,0.0009,0.0,0.0,0.0,0.0009,0.0,0.0,0.0,0.004624,2
1672944775652018568,145806,1672944775677012862,gps,2,1,42.300902706,-83.6992260139,271.320373535,0.0009,0.0,0.0,0.0,0.0009,0.0,0.0,0.0,0.004624,2
1672944775671974619,145807,1672944775696986047,gps,2,1,42.3009024518,-83.6992255317,271.319000244,0.0009,0.0,0.0,0.0,0.0009,0.0,0.0,0.0,0.004624,2
1672944775692047251,145808,1672944775717137528,gps,2,1,42.3009021978,-83.6992250487,271.317687988,0.0009,0.0,0.0,0.0,0.0009,0.0,0.0,0.0,0.004624,2
1672944775711999973,145809,1672944775737071047,gps,2,1,42.3009019428,-83.6992245624,271.316558838,0.0009,0.0,0.0,0.0,0.0009,0.0,0.0,0.0,0.004624,2
1672944775731897855,145810,1672944775757019614,gps,2,1,42.3009016953,-83.69922406,271.315368652,0.0009,0.0,0.0,0.0,0.0009,0.0,0.0,0.0,0.004624,2
1672944775752023400,145811,1672944775777002021,gps,2,1,42.3009014481,-83.6992235568,271.314208984,0.0009,0.0,0.0,0.0,0.0009,0.0,0.0,0.0,0.004624,2
1672944775772218074,145812,1672944775797089606,gps,2,1,42.3009012009,-83.6992230485,271.313262939,0.001089,0.0,0.0,0.0,0.001089,0.0,0.0,0.0,0.0049,2
1672944775792165475,145813,1672944775817039831,gps,2,1,42.3009009615,-83.6992225246,271.312194824,0.001089,0.0,0.0,0.0,0.001089,0.0,0.0,0.0,0.0049,2
1672944775812202904,145814,1672944775837030914,gps,2,1,42.300900723,-83.6992220006,271.311279297,0.001089,0.0,0.0,0.0,0.001089,0.0,0.0,0.0,0.0049,2
1672944775832293711,145815,1672944775857128687,gps,2,1,42.3009004846,-83.6992214708,271.310424805,0.001089,0.0,0.0,0.0,0.001089,0.0,0.0,0.0,0.0049,2
1672944775851985704,145816,1672944775877033572,gps,2,1,42.3009002539,-83.6992209261,271.309539795,0.001089,0.0,0.0,0.0,0.001089,0.0,0.0,0.0,0.0049,2
1672944775872127735,145817,1672944775897083011,gps,2,1,42.3009000241,-83.6992203814,271.308654785,0.001089,0.0,0.0,0.0,0.001089,0.0,0.0,0.0,0.0049,2
1672944775892195250,145818,1672944775917035984,gps,2,1,42.3008997937,-83.6992198304,271.307769775,0.001089,0.0,0.0,0.0,0.001089,0.0,0.0,0.0,0.0049,2
1672944775912093083,145819,1672944775937016576,gps,2,1,42.3008995668,-83.6992192623,271.306732178,0.001089,0.0,0.0,0.0,0.001089,0.0,0.0,0.0,0.0049,2
1672944775932059559,145820,1672944775957058284,gps,2,1,42.3008993402,-83.6992186939,271.30569458,0.001089,0.0,0.0,0.0,0.001089,0.0,0.0,0.0,0.0049,2
1672944775952130527,145821,1672944775977032755,gps,2,1,42.3008991179,-83.6992181218,271.304779053,0.001089,0.0,0.0,0.0,0.001089,0.0,0.0,0.0,0.0049,2
1672944775971994092,145822,1672944775997002282,gps,2,1,42.3008988983,-83.6992175327,271.30368042,0.001089,0.0,0.0,0.0,0.001089,0.0,0.0,0.0,0.0049,2
1672944775992109608,145823,1672944776017038166,gps,2,1,42.3008986792,-83.6992169429,271.302581787,0.001089,0.0,0.0,0.0,0.001089,0.0,0.0,0.0,0.0049,2
1672944776011985818,145824,1672944776037085716,gps,2,1,42.300898464,-83.6992163496,271.301544189,0.001089,0.0,0.0,0.0,0.001089,0.0,0.0,0.0,0.0049,2
1672944776031969534,145825,1672944776057163965,gps,2,1,42.300898255,-83.6992157341,271.299835205,0.001089,0.0,0.0,0.0,0.001089,0.0,0.0,0.0,0.0049,2
1672944776051820349,145826,1672944776077086416,gps,2,1,42.300898046,-83.6992151178,271.298156738,0.001089,0.0,0.0,0.0,0.001089,0.0,0.0,0.0,0.0049,2
1672944776072156513,145827,1672944776097144742,gps,2,1,42.3008978383,-83.699214503,271.296905518,0.001089,0.0,0.0,0.0,0.001089,0.0,0.0,0.0,0.0049,2
1672944776092086537,145828,1672944776117093300,gps,2,1,42.3008976369,-83.6992138663,271.295074463,0.001089,0.0,0.0,0.0,0.001089,0.0,0.0,0.0,0.0049,2
1672944776112092986,145829,1672944776137090607,gps,2,1,42.3008974438,-83.6992132242,271.293426514,0.001089,0.0,0.0,0.0,0.001089,0.0,0.0,0.0,0.0049,2
1672944776132091453,145830,1672944776157148892,gps,2,1,42.3008972446,-83.6992125883,271.292053223,0.001089,0.0,0.0,0.0,0.001089,0.0,0.0,0.0,0.0049,2
1672944776152018473,145831,1672944776177082680,gps,2,1,42.3008970597,-83.6992119269,271.290374756,0.001089,0.0,0.0,0.0,0.001089,0.0,0.0,0.0,0.0049,2
1672944776172156625,145832,1672944776196987674,gps,2,1,42.3008968765,-83.6992112673,271.288879395,0.001089,0.0,0.0,0.0,0.001089,0.0,0.0,0.0,0.0049,2
1672944776192391381,145833,1672944776217095718,gps,2,1,42.3008966858,-83.6992106104,271.287567139,0.001089,0.0,0.0,0.0,0.001089,0.0,0.0,0.0,0.0049,2
1672944776212294791,145834,1672944776237105378,gps,2,1,42.3008965103,-83.6992099314,271.286254883,0.001089,0.0,0.0,0.0,0.001089,0.0,0.0,0.0,0.0049,2
1672944776232173284,145835,1672944776257041646,gps,2,1,42.3008963353,-83.6992092521,271.284942627,0.001089,0.0,0.0,0.0,0.001089,0.0,0.0,0.0,0.0049,2
1672944776252116359,145836,1672944776277102974,gps,2,1,42.3008961535,-83.6992085754,271.283874512,0.001089,0.0,0.0,0.0,0.001089,0.0,0.0,0.0,0.0049,2
1672944776271962070,145837,1672944776297114491,gps,2,1,42.3008959868,-83.6992078772,271.282745361,0.001089,0.0,0.0,0.0,0.001089,0.0,0.0,0.0,0.0049,2
1672944776292045663,145838,1672944776317039067,gps,2,1,42.3008958218,-83.6992071745,271.281677246,0.001089,0.0,0.0,0.0,0.001089,0.0,0.0,0.0,0.0049,2
1672944776312303599,145839,1672944776337096562,gps,2,1,42.3008956499,-83.699206478,271.280761719,0.001089,0.0,0.0,0.0,0.001089,0.0,0.0,0.0,0.0049,2
1672944776331839198,145840,1672944776357134882,gps,2,1,42.3008954947,-83.6992057571,271.279815674,0.001089,0.0,0.0,0.0,0.001089,0.0,0.0,0.0,0.0049,2
1672944776351683985,145841,1672944776376981328,gps,2,1,42.3008953396,-83.6992050357,271.278808594,0.001089,0.0,0.0,0.0,0.001089,0.0,0.0,0.0,0.0049,2
1672944776372094160,145842,1672944776397084164,gps,2,1,42.3008951789,-83.6992043195,271.277984619,0.001089,0.0,0.0,0.0,0.001089,0.0,0.0,0.0,0.0049,2
1672944776392273628,145843,1672944776417060584,gps,2,1,42.3008950349,-83.6992035798,271.277099609,0.001089,0.0,0.0,0.0,0.001089,0.0,0.0,0.0,0.0049,2
1672944776412117748,145844,1672944776437021552,gps,2,1,42.3008948881,-83.6992028404,271.276245117,0.001089,0.0,0.0,0.0,0.001089,0.0,0.0,0.0,0.0049,2
1672944776432001691,145845,1672944776457084212,gps,2,1,42.3008947398,-83.6992021047,271.275482178,0.001089,0.0,0.0,0.0,0.001089,0.0,0.0,0.0,0.0049,2
1672944776451867495,145846,1672944776477006434,gps,2,1,42.3008946047,-83.6992013472,271.274658203,0.001089,0.0,0.0,0.0,0.001089,0.0,0.0,0.0,0.0049,2
1672944776472222875,145847,1672944776497060462,gps,2,1,42.3008944704,-83.6992005899,271.273925781,0.001089,0.0,0.0,0.0,0.001089,0.0,0.0,0.0,0.0049,2
1672944776492127861,145848,1672944776517110738,gps,2,1,42.3008943345,-83.6991998353,271.273223877,0.001089,0.0,0.0,0.0,0.001089,0.0,0.0,0.0,0.0049,2
1672944776512343898,145849,1672944776537136260,gps,2,1,42.300894214,-83.6991990546,271.27230835,0.001089,0.0,0.0,0.0,0.001089,0.0,0.0,0.0,0.0049,2
1672944776532109816,145850,1672944776557139485,gps,2,1,42.3008940972,-83.6991982696,271.271179199,0.001089,0.0,0.0,0.0,0.001089,0.0,0.0,0.0,0.0049,2
1672944776551999568,145851,1672944776577091842,gps,2,1,42.3008939738,-83.6991974968,271.270507812,0.001089,0.0,0.0,0.0,0.001089,0.0,0.0,0.0,0.0049,2
1672944776571947547,145852,1672944776597125099,gps,2,1,42.3008938689,-83.6991966952,271.269378662,0.001089,0.0,0.0,0.0,0.001089,0.0,0.0,0.0,0.0049,2
1672944776592161119,145853,1672944776617053904,gps,2,1,42.3008937609,-83.6991958988,271.268432617,0.001089,0.0,0.0,0.0,0.001089,0.0,0.0,0.0,0.0049,2
1672944776611844532,145854,1672944776637095130,gps,2,1,42.3008936495,-83.6991951084,271.267669678,0.001089,0.0,0.0,0.0,0.001089,0.0,0.0,0.0,0.0049,2
1672944776632131357,145855,1672944776657036063,gps,2,1,42.3008935524,-83.699194296,271.266693115,0.001089,0.0,0.0,0.0,0.001089,0.0,0.0,0.0,0.0049,2
1672944776651998684,145856,1672944776676994633,gps,2,1,42.3008934553,-83.699193484,271.265716553,0.001089,0.0,0.0,0.0,0.001089,0.0,0.0,0.0,0.0049,2
1672944776672081249,145857,1672944776697172698,gps,2,1,42.3008933554,-83.6991926771,271.264984131,0.001089,0.0,0.0,0.0,0.001089,0.0,0.0,0.0,0.0049,2
1672944776692086931,145858,1672944776717131735,gps,2,1,42.3008932685,-83.6991918498,271.264251709,0.001089,0.0,0.0,0.0,0.001089,0.0,0.0,0.0,0.0049,2
1672944776712050566,145859,1672944776737028396,gps,2,1,42.3008931869,-83.6991910177,271.26348877,0.001089,0.0,0.0,0.0,0.001089,0.0,0.0,0.0,0.0049,2
1672944776732078245,145860,1672944776757113529,gps,2,1,42.3008930973,-83.6991901945,271.262756348,0.001089,0.0,0.0,0.0,0.001089,0.0,0.0,0.0,0.0049,2
1672944776752284679,145861,1672944776777140915,gps,2,1,42.300893025,-83.6991893474,271.261871338,0.001089,0.0,0.0,0.0,0.001089,0.0,0.0,0.0,0.0049,2
1672944776771711789,145862,1672944776796999170,gps,2,1,42.3008929521,-83.6991885007,271.261138916,0.001089,0.0,0.0,0.0,0.001089,0.0,0.0,0.0,0.0049,2
1672944776791855175,145863,1672944776817002507,gps,2,1,42.3008928726,-83.6991876615,271.260253906,0.001089,0.0,0.0,0.0,0.001089,0.0,0.0,0.0,0.0049,2
1672944776812230939,145864,1672944776837086951,gps,2,1,42.3008928091,-83.6991868002,271.259277344,0.001089,0.0,0.0,0.0,0.001089,0.0,0.0,0.0,0.0049,2
1672944776831876031,145865,1672944776857039542,gps,2,1,42.3008927452,-83.699185939,271.258270264,0.001089,0.0,0.0,0.0,0.001089,0.0,0.0,0.0,0.0049,2
1672944776851988078,145866,1672944776877115975,gps,2,1,42.3008926753,-83.6991850838,271.257110596,0.001089,0.0,0.0,0.0,0.001089,0.0,0.0,0.0,0.0049,2
1672944776872065445,145867,1672944776897083832,gps,2,1,42.3008926207,-83.6991842078,271.25579834,0.001089,0.0,0.0,0.0,0.001089,0.0,0.0,0.0,0.0049,2
1672944776892238636,145868,1672944776917089467,gps,2,1,42.300892566,-83.6991833313,271.254455566,0.001089,0.0,0.0,0.0,0.001089,0.0,0.0,0.0,0.0049,2
1672944776912245148,145869,1672944776937125457,gps,2,1,42.3008925057,-83.6991824601,271.252868652,0.001089,0.0,0.0,0.0,0.001089,0.0,0.0,0.0,0.0049,2
1672944776932014418,145870,1672944776957015515,gps,2,1,42.300892459,-83.6991815663,271.251190186,0.001089,0.0,0.0,0.0,0.001089,0.0,0.0,0.0,0.0049,2
1672944776952056928,145871,1672944776977028476,gps,2,1,42.3008924127,-83.6991806726,271.249481201,0.001089,0.0,0.0,0.0,0.001089,0.0,0.0,0.0,0.0049,2
1672944776972138856,145872,1672944776997137864,gps,2,1,42.3008923628,-83.6991797851,271.247558594,0.001089,0.0,0.0,0.0,0.001089,0.0,0.0,0.0,0.0049,2
1672944776992113504,145873,1672944777017121991,gps,2,1,42.3008923269,-83.6991788765,271.245697021,0.001089,0.0,0.0,0.0,0.001089,0.0,0.0,0.0,0.0049,2
1672944777012270827,145874,1672944777037117452,gps,2,1,42.3008922939,-83.6991779675,271.243896484,0.001089,0.0,0.0,0.0,0.001089,0.0,0.0,0.0,0.0049,2
1672944777032180420,145875,1672944777057100651,gps,2,1,42.3008922561,-83.6991770638,271.241973877,0.001089,0.0,0.0,0.0,0.001089,0.0,0.0,0.0,0.0049,2
1672944777052365340,145876,1672944777077155374,gps,2,1,42.3008922354,-83.6991761398,271.24029541,0.001089,0.0,0.0,0.0,0.001089,0.0,0.0,0.0,0.0049,2
1672944777072206641,145877,1672944777097167646,gps,2,1,42.3008922171,-83.6991752131,271.238739014,0.001089,0.0,0.0,0.0,0.001089,0.0,0.0,0.0,0.0049,2
1672944777092072525,145878,1672944777117130609,gps,2,1,42.3008921926,-83.6991742939,271.237030029,0.001089,0.0,0.0,0.0,0.001089,0.0,0.0,0.0,0.0049,2
1672944777112054833,145879,1672944777137140271,gps,2,1,42.3008921867,-83.6991733531,271.235534668,0.001089,0.0,0.0,0.0,0.001089,0.0,0.0,0.0,0.0049,2
1672944777132071786,145880,1672944777157090392,gps,2,1,42.3008921808,-83.6991724128,271.234100342,0.001089,0.0,0.0,0.0,0.001089,0.0,0.0,0.0,0.0049,2
1672944777152109354,145881,1672944777177073904,gps,2,1,42.3008921683,-83.6991714785,271.232666016,0.001089,0.0,0.0,0.0,0.001089,0.0,0.0,0.0,0.0049,2
1672944777172197708,145882,1672944777197171625,gps,2,1,42.3008921723,-83.6991705249,271.231536865,0.001089,0.0,0.0,0.0,0.001089,0.0,0.0,0.0,0.0049,2
1672944777192299596,145883,1672944777217162485,gps,2,1,42.3008921758,-83.6991695717,271.230316162,0.001089,0.0,0.0,0.0,0.001089,0.0,0.0,0.0,0.0049,2
1672944777212054365,145884,1672944777237035001,gps,2,1,42.300892172,-83.6991686245,271.229187012,0.001089,0.0,0.0,0.0,0.001089,0.0,0.0,0.0,0.0049,2
1672944777231967042,145885,1672944777257059938,gps,2,1,42.3008921827,-83.6991676595,271.228210449,0.001089,0.0,0.0,0.0,0.001089,0.0,0.0,0.0,0.0049,2
1672944777252026348,145886,1672944777276992853,gps,2,1,42.3008921932,-83.6991666959,271.227325439,0.001089,0.0,0.0,0.0,0.001089,0.0,0.0,0.0,0.0049,2
1672944777271972562,145887,1672944777297076611,gps,2,1,42.3008921959,-83.6991657376,271.226501465,0.001089,0.0,0.0,0.0,0.001089,0.0,0.0,0.0,0.0049,2
1672944777291912101,145888,1672944777317118121,gps,2,1,42.3008922113,-83.6991647649,271.226013184,0.001089,0.0,0.0,0.0,0.001089,0.0,0.0,0.0,0.0049,2
1672944777312099214,145889,1672944777337088454,gps,2,1,42.3008922332,-83.6991637889,271.225585938,0.001089,0.0,0.0,0.0,0.001089,0.0,0.0,0.0,0.0049,2
1672944777332160362,145890,1672944777357114869,gps,2,1,42.3008922418,-83.6991628219,271.225311279,0.001089,0.0,0.0,0.0,0.001089,0.0,0.0,0.0,0.0049,2
1672944777352013862,145891,1672944777377015551,gps,2,1,42.3008922668,-83.6991618365,271.225311279,0.001089,0.0,0.0,0.0,0.001089,0.0,0.0,0.0,0.0049,2
1672944777372097596,145892,1672944777397093554,gps,2,1,42.3008922922,-83.6991608501,271.225494385,0.001089,0.0,0.0,0.0,0.001089,0.0,0.0,0.0,0.0049,2
1672944777392253629,145893,1672944777417151907,gps,2,1,42.3008923042,-83.699159874,271.225494385,0.001089,0.0,0.0,0.0,0.001089,0.0,0.0,0.0,0.0049,2
1672944777412052843,145894,1672944777437060874,gps,2,1,42.3008923328,-83.6991588792,271.225616455,0.001089,0.0,0.0,0.0,0.001089,0.0,0.0,0.0,0.0049,2
1672944777432044501,145895,1672944777457050880,gps,2,1,42.300892361,-83.6991578834,271.225769043,0.001089,0.0,0.0,0.0,0.001089,0.0,0.0,0.0,0.0049,2
1672944777452082950,145896,1672944777477051073,gps,2,1,42.3008923757,-83.6991568964,271.225738525,0.001089,0.0,0.0,0.0,0.001089,0.0,0.0,0.0,0.0049,2
1672944777471674439,145897,1672944777497042752,gps,2,1,42.3008924056,-83.6991558919,271.225769043,0.001089,0.0,0.0,0.0,0.001089,0.0,0.0,0.0,0.0049,2
1672944777492288107,145898,1672944777517148167,gps,2,1,42.3008924349,-83.6991548873,271.225769043,0.001089,0.0,0.0,0.0,0.001089,0.0,0.0,0.0,0.0049,2
1672944777512199843,145899,1672944777537204229,gps,2,1,42.300892451,-83.6991538897,271.225646973,0.001089,0.0,0.0,0.0,0.001089,0.0,0.0,0.0,0.0049,2
1672944777532043205,145900,1672944777557101939,gps,2,1,42.3008924789,-83.6991528776,271.225524902,0.001089,0.0,0.0,0.0,0.001089,0.0,0.0,0.0,0.0049,2
1672944777552045042,145901,1672944777577107537,gps,2,1,42.3008925105,-83.6991518633,271.225189209,0.001089,0.0,0.0,0.0,0.001089,0.0,0.0,0.0,0.0049,2
1672944777572128527,145902,1672944777597104848,gps,2,1,42.3008925263,-83.6991508575,271.224853516,0.001089,0.0,0.0,0.0,0.001089,0.0,0.0,0.0,0.0049,2
1672944777592327194,145903,1672944777617066535,gps,2,1,42.3008925555,-83.6991498365,271.224182129,0.001089,0.0,0.0,0.0,0.001089,0.0,0.0,0.0,0.0049,2
1672944777611992606,145904,1672944777637049617,gps,2,1,42.3008925873,-83.6991488148,271.223602295,0.001089,0.0,0.0,0.0,0.001089,0.0,0.0,0.0,0.0049,2
1672944777632139090,145905,1672944777657069121,gps,2,1,42.3008926005,-83.6991478024,271.222839355,0.001089,0.0,0.0,0.0,0.001089,0.0,0.0,0.0,0.0049,2
1672944777652028886,145906,1672944777677011474,gps,2,1,42.3008926281,-83.6991467755,271.221832275,0.001089,0.0,0.0,0.0,0.001089,0.0,0.0,0.0,0.0049,2
1672944777672135452,145907,1672944777697053614,gps,2,1,42.3008926552,-83.6991457487,271.220733643,0.001089,0.0,0.0,0.0,0.001089,0.0,0.0,0.0,0.0049,2
1672944777692076499,145908,1672944777717159905,gps,2,1,42.3008926646,-83.6991447306,271.219451904,0.001089,0.0,0.0,0.0,0.001089,0.0,0.0,0.0,0.0049,2
1672944777711963547,145909,1672944777737018980,gps,2,1,42.3008926888,-83.6991437019,271.218231201,0.001089,0.0,0.0,0.0,0.001089,0.0,0.0,0.0,0.0049,2
1672944777732239629,145910,1672944777757034651,gps,2,1,42.3008927126,-83.699142674,271.217010498,0.001089,0.0,0.0,0.0,0.001089,0.0,0.0,0.0,0.0049,2
1672944777752119185,145911,1672944777777109439,gps,2,1,42.3008927206,-83.6991416499,271.215484619,0.001089,0.0,0.0,0.0,0.001089,0.0,0.0,0.0,0.0049,2
1672944777772017547,145912,1672944777797021152,gps,2,1,42.3008927435,-83.6991406166,271.214172363,0.001089,0.0,0.0,0.0,0.001156,0.0,0.0,0.0,0.004761,2
1672944777792137390,145913,1672944777817056997,gps,2,1,42.3008927659,-83.6991395832,271.212860107,0.001089,0.0,0.0,0.0,0.001156,0.0,0.0,0.0,0.004761,2
1672944777812097878,145914,1672944777837102424,gps,2,1,42.3008927745,-83.6991385542,271.211425781,0.001089,0.0,0.0,0.0,0.001156,0.0,0.0,0.0,0.004761,2
1672944777831979553,145915,1672944777857065057,gps,2,1,42.3008928035,-83.699137516,271.210113525,0.001089,0.0,0.0,0.0,0.001156,0.0,0.0,0.0,0.004761,2
1672944777851991388,145916,1672944777877028354,gps,2,1,42.3008928318,-83.6991364778,271.20880127,0.001089,0.0,0.0,0.0,0.001156,0.0,0.0,0.0,0.004761,2
1672944777872073457,145917,1672944777897140533,gps,2,1,42.300892842,-83.6991354441,271.207794189,0.001089,0.0,0.0,0.0,0.001156,0.0,0.0,0.0,0.004761,2
1672944777892108882,145918,1672944777917029069,gps,2,1,42.3008928713,-83.6991344021,271.206970215,0.001089,0.0,0.0,0.0,0.001156,0.0,0.0,0.0,0.004761,2
1672944777912019496,145919,1672944777937015340,gps,2,1,42.3008928981,-83.6991333654,271.206268311,0.001089,0.0,0.0,0.0,0.001156,0.0,0.0,0.0,0.004761,2
1672944777932212879,145920,1672944777957089485,gps,2,1,42.3008929102,-83.6991323274,271.205749512,0.001089,0.0,0.0,0.0,0.001156,0.0,0.0,0.0,0.004761,2
1672944777951956115,145921,1672944777977024445,gps,2,1,42.3008929393,-83.6991312876,271.205749512,0.001089,0.0,0.0,0.0,0.001156,0.0,0.0,0.0,0.004761,2
1672944777972037003,145922,1672944777997065188,gps,2,1,42.300892968,-83.6991302477,271.205749512,0.001089,0.0,0.0,0.0,0.001156,0.0,0.0,0.0,0.004761,2
1672944777991919277,145923,1672944778017070776,gps,2,1,42.3008929829,-83.6991292069,271.206207275,0.001089,0.0,0.0,0.0,0.001156,0.0,0.0,0.0,0.004761,2
1672944778012087941,145924,1672944778037044408,gps,2,1,42.3008930201,-83.6991281613,271.20703125,0.001089,0.0,0.0,0.0,0.001156,0.0,0.0,0.0,0.004761,2
1672944778031834246,145925,1672944778057139778,gps,2,1,42.3008930572,-83.6991271171,271.207977295,0.001089,0.0,0.0,0.0,0.001156,0.0,0.0,0.0,0.004761,2
1672944778052285425,145926,1672944778077191387,gps,2,1,42.3008930747,-83.6991260723,271.209136963,0.001089,0.0,0.0,0.0,0.001156,0.0,0.0,0.0,0.004761,2
1672944778072228754,145927,1672944778097097369,gps,2,1,42.300893118,-83.6991250238,271.210296631,0.001089,0.0,0.0,0.0,0.001156,0.0,0.0,0.0,0.004761,2
1672944778092118744,145928,1672944778117100159,gps,2,1,42.3008931597,-83.6991239748,271.211395264,0.001089,0.0,0.0,0.0,0.001156,0.0,0.0,0.0,0.004761,2
1672944778112248828,145929,1672944778137069746,gps,2,1,42.3008931767,-83.6991229259,271.212402344,0.001089,0.0,0.0,0.0,0.001156,0.0,0.0,0.0,0.004761,2
1672944778131986172,145930,1672944778157046299,gps,2,1,42.300893216,-83.6991218704,271.212982178,0.001089,0.0,0.0,0.0,0.001156,0.0,0.0,0.0,0.004761,2
1672944778151801364,145931,1672944778177034199,gps,2,1,42.3008932547,-83.6991208156,271.213562012,0.001089,0.0,0.0,0.0,0.001156,0.0,0.0,0.0,0.004761,2
1672944778172093747,145932,1672944778197123556,gps,2,1,42.3008932707,-83.6991197622,271.213928223,0.001089,0.0,0.0,0.0,0.001156,0.0,0.0,0.0,0.004761,2
1672944778192121985,145933,1672944778217122904,gps,2,1,42.3008933081,-83.6991187028,271.213806152,0.001089,0.0,0.0,0.0,0.001156,0.0,0.0,0.0,0.004761,2
1672944778212054126,145934,1672944778237095250,gps,2,1,42.3008933446,-83.6991176475,271.213684082,0.001089,0.0,0.0,0.0,0.001156,0.0,0.0,0.0,0.004761,2
1672944778232083986,145935,1672944778257084893,gps,2,1,42.300893361,-83.6991165897,271.213470459,0.001089,0.0,0.0,0.0,0.001156,0.0,0.0,0.0,0.004761,2
1672944778251976327,145936,1672944778277015438,gps,2,1,42.3008933974,-83.6991155295,271.212982178,0.001089,0.0,0.0,0.0,0.001156,0.0,0.0,0.0,0.004761,2
1672944778271960160,145937,1672944778297064808,gps,2,1,42.300893433,-83.6991144695,271.212493896,0.001089,0.0,0.0,0.0,0.001156,0.0,0.0,0.0,0.004761,2
1672944778292259943,145938,1672944778317118849,gps,2,1,42.3008934492,-83.6991134068,271.21194458,0.001089,0.0,0.0,0.0,0.001156,0.0,0.0,0.0,0.004761,2
1672944778312053979,145939,1672944778337003261,gps,2,1,42.3008934843,-83.6991123425,271.211364746,0.001089,0.0,0.0,0.0,0.001156,0.0,0.0,0.0,0.004761,2
1672944778332159232,145940,1672944778357033310,gps,2,1,42.3008935186,-83.6991112786,271.210784912,0.001089,0.0,0.0,0.0,0.001156,0.0,0.0,0.0,0.004761,2
1672944778352127792,145941,1672944778377079360,gps,2,1,42.3008935332,-83.6991102106,271.210205078,0.001089,0.0,0.0,0.0,0.001156,0.0,0.0,0.0,0.004761,2
1672944778372050905,145942,1672944778397096015,gps,2,1,42.3008935649,-83.6991091416,271.209716797,0.001089,0.0,0.0,0.0,0.001156,0.0,0.0,0.0,0.004761,2
1672944778392143095,145943,1672944778417062898,gps,2,1,42.3008935956,-83.6991080722,271.209259033,0.001089,0.0,0.0,0.0,0.001156,0.0,0.0,0.0,0.004761,2
1672944778412159808,145944,1672944778437100672,gps,2,1,42.3008936079,-83.6991069995,271.20880127,0.001089,0.0,0.0,0.0,0.001156,0.0,0.0,0.0,0.004761,2
1672944778431948372,145945,1672944778457018881,gps,2,1,42.3008936397,-83.699105925,271.208465576,0.001089,0.0,0.0,0.0,0.001156,0.0,0.0,0.0,0.004761,2
1672944778451991289,145946,1672944778477004524,gps,2,1,42.3008936707,-83.6991048503,271.208190918,0.001089,0.0,0.0,0.0,0.001156,0.0,0.0,0.0,0.004761,2
1672944778472142141,145947,1672944778497023924,gps,2,1,42.3008936819,-83.6991037728,271.207977295,0.001089,0.0,0.0,0.0,0.001156,0.0,0.0,0.0,0.004761,2
1672944778492153198,145948,1672944778517166802,gps,2,1,42.3008937114,-83.6991026888,271.20791626,0.001089,0.0,0.0,0.0,0.001156,0.0,0.0,0.0,0.004761,2
1672944778511978112,145949,1672944778537053560,gps,2,1,42.3008937402,-83.6991016046,271.207885742,0.001089,0.0,0.0,0.0,0.001156,0.0,0.0,0.0,0.004761,2
1672944778532133787,145950,1672944778557078121,gps,2,1,42.3008937514,-83.6991005223,271.20791626,0.001089,0.0,0.0,0.0,0.001156,0.0,0.0,0.0,0.004761,2
1672944778552301839,145951,1672944778577157069,gps,2,1,42.3008937796,-83.6990994332,271.208068848,0.001089,0.0,0.0,0.0,0.001156,0.0,0.0,0.0,0.004761,2
1672944778571925896,145952,1672944778597060986,gps,2,1,42.3008938083,-83.6990983476,271.208129883,0.001089,0.0,0.0,0.0,0.001156,0.0,0.0,0.0,0.004761,2
1672944778592125507,145953,1672944778617102246,gps,2,1,42.3008938191,-83.6990972604,271.208282471,0.001089,0.0,0.0,0.0,0.001156,0.0,0.0,0.0,0.004761,2
1672944778611673366,145954,1672944778637012091,gps,2,1,42.3008938461,-83.6990961752,271.208404541,0.001089,0.0,0.0,0.0,0.001156,0.0,0.0,0.0,0.004761,2
1672944778632067524,145955,1672944778657014631,gps,2,1,42.3008938727,-83.6990950898,271.208526611,0.001089,0.0,0.0,0.0,0.001156,0.0,0.0,0.0,0.004761,2
1672944778651934887,145956,1672944778676995731,gps,2,1,42.3008938828,-83.6990939975,271.208526611,0.001089,0.0,0.0,0.0,0.001156,0.0,0.0,0.0,0.004761,2
1672944778671946697,145957,1672944778697026625,gps,2,1,42.3008939083,-83.6990929071,271.208404541,0.001089,0.0,0.0,0.0,0.001156,0.0,0.0,0.0,0.004761,2
1672944778692030672,145958,1672944778717133061,gps,2,1,42.3008939328,-83.6990918163,271.208282471,0.001089,0.0,0.0,0.0,0.001156,0.0,0.0,0.0,0.004761,2
1672944778712155767,145959,1672944778737128031,gps,2,1,42.300893942,-83.6990907193,271.208007812,0.001089,0.0,0.0,0.0,0.001156,0.0,0.0,0.0,0.004761,2
1672944778731970541,145960,1672944778757029282,gps,2,1,42.3008939707,-83.6990896227,271.207336426,0.001089,0.0,0.0,0.0,0.001156,0.0,0.0,0.0,0.004761,2
1672944778752049372,145961,1672944778777019705,gps,2,1,42.3008939987,-83.6990885264,271.206665039,0.001089,0.0,0.0,0.0,0.001156,0.0,0.0,0.0,0.004761,2
1672944778772024814,145962,1672944778797078766,gps,2,1,42.3008940062,-83.6990874244,271.205963135,0.001089,0.0,0.0,0.0,0.001156,0.0,0.0,0.0,0.004761,2
1672944778791919482,145963,1672944778817004621,gps,2,1,42.3008940293,-83.6990863194,271.204681396,0.001089,0.0,0.0,0.0,0.001156,0.0,0.0,0.0,0.004761,2
1672944778811940836,145964,1672944778836991996,gps,2,1,42.3008940519,-83.6990852143,271.203399658,0.001089,0.0,0.0,0.0,0.001156,0.0,0.0,0.0,0.004761,2
1672944778831978179,145965,1672944778857075100,gps,2,1,42.300894056,-83.6990841049,271.201904297,0.001089,0.0,0.0,0.0,0.001156,0.0,0.0,0.0,0.004761,2
1672944778851867411,145966,1672944778877002861,gps,2,1,42.3008940764,-83.699082993,271.199890137,0.001089,0.0,0.0,0.0,0.001156,0.0,0.0,0.0,0.004761,2
1672944778872271155,145967,1672944778897093125,gps,2,1,42.3008940942,-83.6990818823,271.197967529,0.001089,0.0,0.0,0.0,0.001156,0.0,0.0,0.0,0.004761,2
1672944778892077744,145968,1672944778917021574,gps,2,1,42.3008940985,-83.6990807708,271.19619751,0.001089,0.0,0.0,0.0,0.001156,0.0,0.0,0.0,0.004761,2
1672944778911974352,145969,1672944778936987339,gps,2,1,42.3008941174,-83.699079658,271.194610596,0.001089,0.0,0.0,0.0,0.001156,0.0,0.0,0.0,0.004761,2
1672944778931921118,145970,1672944778957007160,gps,2,1,42.3008941376,-83.6990785453,271.192901611,0.001089,0.0,0.0,0.0,0.001156,0.0,0.0,0.0,0.004761,2
1672944778951912781,145971,1672944778976964974,gps,2,1,42.3008941406,-83.6990774329,271.191467285,0.001089,0.0,0.0,0.0,0.001156,0.0,0.0,0.0,0.004761,2
1672944778971898908,145972,1672944778997000251,gps,2,1,42.300894158,-83.6990763174,271.190246582,0.001089,0.0,0.0,0.0,0.001156,0.0,0.0,0.0,0.004761,2
1672944778991968353,145973,1672944779017036159,gps,2,1,42.3008941759,-83.6990752019,271.188903809,0.001089,0.0,0.0,0.0,0.001156,0.0,0.0,0.0,0.004761,2
1672944779012127912,145974,1672944779037096333,gps,2,1,42.3008941777,-83.6990740859,271.188018799,0.001089,0.0,0.0,0.0,0.001156,0.0,0.0,0.0,0.004761,2
1672944779032022298,145975,1672944779057090679,gps,2,1,42.3008941952,-83.6990729797,271.187103271,0.001089,0.0,0.0,0.0,0.001156,0.0,0.0,0.0,0.004761,2
1672944779052118315,145976,1672944779077127088,gps,2,1,42.3008942134,-83.6990718731,271.186187744,0.001089,0.0,0.0,0.0,0.001156,0.0,0.0,0.0,0.004761,2
1672944779071971961,145977,1672944779097065588,gps,2,1,42.3008942138,-83.6990707522,271.185913086,0.001089,0.0,0.0,0.0,0.001156,0.0,0.0,0.0,0.004761,2
1672944779092274725,145978,1672944779117114854,gps,2,1,42.3008942294,-83.6990696405,271.185516357,0.001089,0.0,0.0,0.0,0.001156,0.0,0.0,0.0,0.004761,2
1672944779111975786,145979,1672944779137081139,gps,2,1,42.3008942451,-83.6990685253,271.185302734,0.001089,0.0,0.0,0.0,0.001156,0.0,0.0,0.0,0.004761,2
1672944779131950425,145980,1672944779157125276,gps,2,1,42.3008942448,-83.6990673989,271.185211182,0.001089,0.0,0.0,0.0,0.001156,0.0,0.0,0.0,0.004761,2
1672944779152016047,145981,1672944779177100725,gps,2,1,42.3008942607,-83.6990662772,271.184875488,0.001089,0.0,0.0,0.0,0.001156,0.0,0.0,0.0,0.004761,2
1672944779172026272,145982,1672944779197016508,gps,2,1,42.300894274,-83.6990651558,271.184509277,0.001089,0.0,0.0,0.0,0.001156,0.0,0.0,0.0,0.004761,2
1672944779192158025,145983,1672944779217179501,gps,2,1,42.3008942754,-83.6990640238,271.184204102,0.001089,0.0,0.0,0.0,0.001156,0.0,0.0,0.0,0.004761,2
1672944779211734150,145984,1672944779237096034,gps,2,1,42.3008942898,-83.6990628979,271.18359375,0.001089,0.0,0.0,0.0,0.001156,0.0,0.0,0.0,0.004761,2
1672944779232321492,145985,1672944779256998692,gps,2,1,42.3008943038,-83.6990617709,271.183013916,0.001089,0.0,0.0,0.0,0.001156,0.0,0.0,0.0,0.004761,2
1672944779252048945,145986,1672944779277126475,gps,2,1,42.3008943055,-83.6990606348,271.182556152,0.001089,0.0,0.0,0.0,0.001156,0.0,0.0,0.0,0.004761,2
1672944779272027222,145987,1672944779297090730,gps,2,1,42.3008943179,-83.6990595037,271.181854248,0.001089,0.0,0.0,0.0,0.001156,0.0,0.0,0.0,0.004761,2
1672944779292186368,145988,1672944779317055960,gps,2,1,42.3008943351,-83.6990583735,271.180999756,0.001089,0.0,0.0,0.0,0.001156,0.0,0.0,0.0,0.004761,2
1672944779312195684,145989,1672944779337155695,gps,2,1,42.3008943343,-83.6990572338,271.180603027,0.001089,0.0,0.0,0.0,0.001156,0.0,0.0,0.0,0.004761,2
1672944779332164477,145990,1672944779357115437,gps,2,1,42.3008943477,-83.6990560994,271.179962158,0.001089,0.0,0.0,0.0,0.001156,0.0,0.0,0.0,0.004761,2
1672944779352033048,145991,1672944779377034078,gps,2,1,42.3008943599,-83.6990549648,271.179351807,0.001089,0.0,0.0,0.0,0.001156,0.0,0.0,0.0,0.004761,2
1672944779372338041,145992,1672944779397188672,gps,2,1,42.300894356,-83.6990538211,271.179290771,0.001089,0.0,0.0,0.0,0.001156,0.0,0.0,0.0,0.004761,2
1672944779392144201,145993,1672944779417113055,gps,2,1,42.3008943651,-83.6990526825,271.178894043,0.001089,0.0,0.0,0.0,0.001156,0.0,0.0,0.0,0.004761,2
1672944779411838359,145994,1672944779437029303,gps,2,1,42.3008943724,-83.6990515435,271.178588867,0.001089,0.0,0.0,0.0,0.001156,0.0,0.0,0.0,0.004761,2
1672944779432190741,145995,1672944779457145070,gps,2,1,42.3008943658,-83.6990503961,271.178405762,0.001089,0.0,0.0,0.0,0.001156,0.0,0.0,0.0,0.004761,2
1672944779452096533,145996,1672944779477069960,gps,2,1,42.3008943705,-83.6990492534,271.177581787,0.001089,0.0,0.0,0.0,0.001156,0.0,0.0,0.0,0.004761,2
1672944779472040722,145997,1672944779497066047,gps,2,1,42.300894375,-83.6990481108,271.177246094,0.001089,0.0,0.0,0.0,0.001156,0.0,0.0,0.0,0.004761,2
1672944779492030804,145998,1672944779517018292,gps,2,1,42.3008943677,-83.6990469622,271.177093506,0.001089,0.0,0.0,0.0,0.001156,0.0,0.0,0.0,0.004761,2
1672944779512075676,145999,1672944779537125189,gps,2,1,42.300894369,-83.6990458214,271.178100586,0.001089,0.0,0.0,0.0,0.001156,0.0,0.0,0.0,0.004761,2
1672944779532101769,146000,1672944779557055693,gps,2,1,42.3008943727,-83.6990446789,271.178924561,0.001089,0.0,0.0,0.0,0.001156,0.0,0.0,0.0,0.004761,2
1672944779552143056,146001,1672944779577192720,gps,2,1,42.3008943667,-83.6990435267,271.180267334,0.001089,0.0,0.0,0.0,0.001156,0.0,0.0,0.0,0.004761,2
1672944779572019594,146002,1672944779597093233,gps,2,1,42.3008943717,-83.6990423791,271.182434082,0.001089,0.0,0.0,0.0,0.001156,0.0,0.0,0.0,0.004761,2
1672944779591799280,146003,1672944779617043601,gps,2,1,42.3008943782,-83.6990412292,271.184387207,0.001089,0.0,0.0,0.0,0.001156,0.0,0.0,0.0,0.004761,2
1672944779612014277,146004,1672944779637054586,gps,2,1,42.3008943736,-83.6990400742,271.186676025,0.001089,0.0,0.0,0.0,0.001156,0.0,0.0,0.0,0.004761,2
1672944779632017913,146005,1672944779657070708,gps,2,1,42.3008943811,-83.6990389215,271.18927002,0.001089,0.0,0.0,0.0,0.001156,0.0,0.0,0.0,0.004761,2
1672944779651957550,146006,1672944779677015074,gps,2,1,42.3008943884,-83.6990377689,271.191864014,0.001089,0.0,0.0,0.0,0.001156,0.0,0.0,0.0,0.004761,2
1672944779671991034,146007,1672944779697085913,gps,2,1,42.3008943849,-83.6990366106,271.194580078,0.001089,0.0,0.0,0.0,0.001156,0.0,0.0,0.0,0.004761,2
1672944779692123168,146008,1672944779717097163,gps,2,1,42.3008943928,-83.6990354573,271.19732666,0.001089,0.0,0.0,0.0,0.001156,0.0,0.0,0.0,0.004761,2
1672944779711803341,146009,1672944779737007193,gps,2,1,42.300894403,-83.6990343035,271.200042725,0.001089,0.0,0.0,0.0,0.001156,0.0,0.0,0.0,0.004761,2
1672944779732024954,146010,1672944779757037016,gps,2,1,42.3008944013,-83.6990331443,271.202575684,0.001089,0.0,0.0,0.0,0.001156,0.0,0.0,0.0,0.004761,2
1672944779751699686,146011,1672944779777080348,gps,2,1,42.3008944134,-83.6990319891,271.20489502,0.001089,0.0,0.0,0.0,0.001156,0.0,0.0,0.0,0.004761,2
1672944779771954319,146012,1672944779797046488,gps,2,1,42.3008944276,-83.699030829,271.207000732,0.0009,0.0,0.0,0.0,0.0009,0.0,0.0,0.0,0.005041,2
1672944779791936324,146013,1672944779816996826,gps,2,1,42.3008944288,-83.6990296688,271.209136963,0.0009,0.0,0.0,0.0,0.0009,0.0,0.0,0.0,0.005041,2
1672944779812083471,146014,1672944779837144344,gps,2,1,42.3008944458,-83.6990285085,271.211029053,0.0009,0.0,0.0,0.0,0.0009,0.0,0.0,0.0,0.005041,2
1672944779831961331,146015,1672944779857039698,gps,2,1,42.3008944619,-83.6990273482,271.21295166,0.0009,0.0,0.0,0.0,0.0009,0.0,0.0,0.0,0.005041,2
1672944779852248464,146016,1672944779877122460,gps,2,1,42.300894465,-83.6990261875,271.215057373,0.0009,0.0,0.0,0.0,0.0009,0.0,0.0,0.0,0.005041,2
1672944779872105742,146017,1672944779897136834,gps,2,1,42.3008944812,-83.6990250259,271.217132568,0.0009,0.0,0.0,0.0,0.0009,0.0,0.0,0.0,0.005041,2
1672944779891814797,146018,1672944779917055484,gps,2,1,42.3008944975,-83.699023865,271.219238281,0.0009,0.0,0.0,0.0,0.0009,0.0,0.0,0.0,0.005041,2
1672944779911744005,146019,1672944779937133689,gps,2,1,42.3008945005,-83.6990227038,271.221588135,0.0009,0.0,0.0,0.0,0.0009,0.0,0.0,0.0,0.005041,2
1672944779932003326,146020,1672944779957060840,gps,2,1,42.3008945095,-83.6990215455,271.224182129,0.0009,0.0,0.0,0.0,0.0009,0.0,0.0,0.0,0.005041,2
1672944779951981384,146021,1672944779976978095,gps,2,1,42.300894518,-83.6990203876,271.226745605,0.0009,0.0,0.0,0.0,0.0009,0.0,0.0,0.0,0.005041,2
1672944779972056019,146022,1672944779997053057,gps,2,1,42.3008945194,-83.6990192247,271.229309082,0.0009,0.0,0.0,0.0,0.0009,0.0,0.0,0.0,0.005041,2
1672944779991840078,146023,1672944780017133479,gps,2,1,42.3008945284,-83.6990180707,271.231964111,0.0009,0.0,0.0,0.0,0.0009,0.0,0.0,0.0,0.005041,2
1672944780011628729,146024,1672944780037096931,gps,2,1,42.3008945372,-83.6990169163,271.234649658,0.0009,0.0,0.0,0.0,0.0009,0.0,0.0,0.0,0.005041,2
1672944780032162194,146025,1672944780057093465,gps,2,1,42.3008945376,-83.6990157521,271.23727417,0.0009,0.0,0.0,0.0,0.0009,0.0,0.0,0.0,0.005041,2
1672944780052217988,146026,1672944780077144377,gps,2,1,42.3008945447,-83.6990145962,271.239929199,0.0009,0.0,0.0,0.0,0.0009,0.0,0.0,0.0,0.005041,2
1672944780072136311,146027,1672944780097194177,gps,2,1,42.3008945551,-83.6990134392,271.242401123,0.0009,0.0,0.0,0.0,0.0009,0.0,0.0,0.0,0.005041,2
1672944780092144396,146028,1672944780117137731,gps,2,1,42.3008945541,-83.6990122734,271.2449646,0.0009,0.0,0.0,0.0,0.0009,0.0,0.0,0.0,0.005041,2
1672944780111891205,146029,1672944780137038819,gps,2,1,42.3008945682,-83.6990111101,271.247161865,0.0009,0.0,0.0,0.0,0.0009,0.0,0.0,0.0,0.005041,2
1672944780131951057,146030,1672944780157047956,gps,2,1,42.3008945821,-83.6990099463,271.249389648,0.0009,0.0,0.0,0.0,0.0009,0.0,0.0,0.0,0.005041,2
1672944780152095633,146031,1672944780177092591,gps,2,1,42.3008945814,-83.6990087797,271.251831055,0.0009,0.0,0.0,0.0,0.0009,0.0,0.0,0.0,0.005041,2
1672944780172052934,146032,1672944780197073457,gps,2,1,42.3008945957,-83.6990076152,271.253662109,0.0009,0.0,0.0,0.0,0.0009,0.0,0.0,0.0,0.005041,2
1672944780192154515,146033,1672944780217025806,gps,2,1,42.3008946042,-83.699006452,271.255737305,0.0009,0.0,0.0,0.0,0.0009,0.0,0.0,0.0,0.005041,2
1672944780212077465,146034,1672944780237114060,gps,2,1,42.3008946054,-83.6990052844,271.258117676,0.0009,0.0,0.0,0.0,0.0009,0.0,0.0,0.0,0.005041,2
1672944780231913973,146035,1672944780257052469,gps,2,1,42.300894616,-83.6990041207,271.260284424,0.0009,0.0,0.0,0.0,0.0009,0.0,0.0,0.0,0.005041,2
1672944780252134633,146036,1672944780277052511,gps,2,1,42.3008946263,-83.6990029571,271.262451172,0.0009,0.0,0.0,0.0,0.0009,0.0,0.0,0.0,0.005041,2
1672944780272070310,146037,1672944780297117219,gps,2,1,42.3008946295,-83.6990017896,271.264953613,0.0009,0.0,0.0,0.0,0.0009,0.0,0.0,0.0,0.005041,2
1672944780292128248,146038,1672944780317062498,gps,2,1,42.3008946409,-83.6990006255,271.267333984,0.0009,0.0,0.0,0.0,0.0009,0.0,0.0,0.0,0.005041,2
1672944780311974664,146039,1672944780337030923,gps,2,1,42.300894657,-83.698999457,271.269622803,0.0009,0.0,0.0,0.0,0.0009,0.0,0.0,0.0,0.005041,2
1672944780332079444,146040,1672944780357084801,gps,2,1,42.3008946609,-83.6989982893,271.272338867,0.0009,0.0,0.0,0.0,0.0009,0.0,0.0,0.0,0.005041,2
1672944780351962704,146041,1672944780377057575,gps,2,1,42.3008946766,-83.6989971198,271.274902344,0.0009,0.0,0.0,0.0,0.0009,0.0,0.0,0.0,0.005041,2
1672944780372253607,146042,1672944780397122161,gps,2,1,42.3008946921,-83.698995951,271.277435303,0.0009,0.0,0.0,0.0,0.0009,0.0,0.0,0.0,0.005041,2
1672944780391949438,146043,1672944780417079831,gps,2,1,42.3008946966,-83.6989947826,271.280334473,0.0009,0.0,0.0,0.0,0.0009,0.0,0.0,0.0,0.005041,2
1672944780411883443,146044,1672944780437002886,gps,2,1,42.3008947037,-83.6989936239,271.28314209,0.0009,0.0,0.0,0.0,0.0009,0.0,0.0,0.0,0.005041,2
1672944780432205486,146045,1672944780457057349,gps,2,1,42.3008947108,-83.6989924646,271.285980225,0.0009,0.0,0.0,0.0,0.0009,0.0,0.0,0.0,0.005041,2
1672944780452180301,146046,1672944780477105719,gps,2,1,42.3008947162,-83.698991296,271.289001465,0.0009,0.0,0.0,0.0,0.0009,0.0,0.0,0.0,0.005041,2
1672944780472089988,146047,1672944780497036261,gps,2,1,42.300894724,-83.698990137,271.291992188,0.0009,0.0,0.0,0.0,0.0009,0.0,0.0,0.0,0.005041,2
1672944780492062002,146048,1672944780517055124,gps,2,1,42.3008947316,-83.6989889768,271.295013428,0.0009,0.0,0.0,0.0,0.0009,0.0,0.0,0.0,0.005041,2
1672944780512006856,146049,1672944780537144804,gps,2,1,42.3008947377,-83.6989878082,271.298187256,0.0009,0.0,0.0,0.0,0.0009,0.0,0.0,0.0,0.005041,2
1672944780531911252,146050,1672944780557077374,gps,2,1,42.300894748,-83.698986645,271.301330566,0.0009,0.0,0.0,0.0,0.0009,0.0,0.0,0.0,0.005041,2
1672944780551881729,146051,1672944780577134760,gps,2,1,42.3008947622,-83.6989854801,271.304321289,0.0009,0.0,0.0,0.0,0.0009,0.0,0.0,0.0,0.005041,2
1672944780572086108,146052,1672944780597124109,gps,2,1,42.3008947676,-83.6989843116,271.307495117,0.0009,0.0,0.0,0.0,0.0009,0.0,0.0,0.0,0.005041,2
1672944780591743846,146053,1672944780617081018,gps,2,1,42.3008947803,-83.6989831464,271.310333252,0.0009,0.0,0.0,0.0,0.0009,0.0,0.0,0.0,0.005041,2
1672944780612061880,146054,1672944780637072543,gps,2,1,42.3008947976,-83.6989819779,271.313293457,0.0009,0.0,0.0,0.0,0.0009,0.0,0.0,0.0,0.005041,2
1672944780632049424,146055,1672944780657083167,gps,2,1,42.3008948014,-83.6989808091,271.316223145,0.0009,0.0,0.0,0.0,0.0009,0.0,0.0,0.0,0.005041,2
1672944780651949211,146056,1672944780676966902,gps,2,1,42.3008948168,-83.6989796402,271.318878174,0.0009,0.0,0.0,0.0,0.0009,0.0,0.0,0.0,0.005041,2
1672944780671908944,146057,1672944780697027930,gps,2,1,42.3008948317,-83.6989784717,271.321533203,0.0009,0.0,0.0,0.0,0.0009,0.0,0.0,0.0,0.005041,2
1672944780692093424,146058,1672944780717172188,gps,2,1,42.300894835,-83.6989773024,271.324157715,0.0009,0.0,0.0,0.0,0.0009,0.0,0.0,0.0,0.005041,2
1672944780711808312,146059,1672944780737019427,gps,2,1,42.3008948483,-83.6989761298,271.326660156,0.0009,0.0,0.0,0.0,0.0009,0.0,0.0,0.0,0.005041,2
1672944780731985713,146060,1672944780756986496,gps,2,1,42.3008948615,-83.6989749576,271.329101562,0.0009,0.0,0.0,0.0,0.0009,0.0,0.0,0.0,0.005041,2
1672944780751996106,146061,1672944780777056313,gps,2,1,42.3008948658,-83.6989737872,271.331512451,0.0009,0.0,0.0,0.0,0.0009,0.0,0.0,0.0,0.005041,2
1672944780771884266,146062,1672944780797012235,gps,2,1,42.3008948804,-83.6989726137,271.33380127,0.0009,0.0,0.0,0.0,0.0009,0.0,0.0,0.0,0.005041,2
1672944780791982350,146063,1672944780817022978,gps,2,1,42.3008948945,-83.6989714403,271.336151123,0.0009,0.0,0.0,0.0,0.0009,0.0,0.0,0.0,0.005041,2
1672944780812012074,146064,1672944780837063319,gps,2,1,42.3008949008,-83.698970269,271.338500977,0.0009,0.0,0.0,0.0,0.0009,0.0,0.0,0.0,0.005041,2
1672944780831654153,146065,1672944780857022150,gps,2,1,42.3008949137,-83.6989691037,271.340545654,0.0009,0.0,0.0,0.0,0.0009,0.0,0.0,0.0,0.005041,2
1672944780852147446,146066,1672944780877032387,gps,2,1,42.3008949262,-83.6989679382,271.342590332,0.0009,0.0,0.0,0.0,0.0009,0.0,0.0,0.0,0.005041,2
1672944780871838613,146067,1672944780897178027,gps,2,1,42.3008949329,-83.6989667662,271.345062256,0.0009,0.0,0.0,0.0,0.0009,0.0,0.0,0.0,0.005041,2
1672944780891915410,146068,1672944780917001990,gps,2,1,42.3008949447,-83.6989656,271.347137451,0.0009,0.0,0.0,0.0,0.0009,0.0,0.0,0.0,0.005041,2
1672944780911995569,146069,1672944780937026073,gps,2,1,42.300894958,-83.6989644315,271.349212646,0.0009,0.0,0.0,0.0,0.0009,0.0,0.0,0.0,0.005041,2
1672944780931980907,146070,1672944780957101180,gps,2,1,42.3008949634,-83.6989632594,271.351776123,0.0009,0.0,0.0,0.0,0.0009,0.0,0.0,0.0,0.005041,2
1672944780951980014,146071,1672944780977057701,gps,2,1,42.3008949749,-83.6989620903,271.353881836,0.0009,0.0,0.0,0.0,0.0009,0.0,0.0,0.0,0.005041,2
1672944780971907369,146072,1672944780997046926,gps,2,1,42.300894986,-83.6989609208,271.356018066,0.0009,0.0,0.0,0.0,0.0009,0.0,0.0,0.0,0.005041,2
