%time,field.header.seq,field.header.stamp,field.header.frame_id,field.status.status,field.status.service,field.latitude,field.longitude,field.altitude,field.position_covariance0,field.position_covariance1,field.position_covariance2,field.position_covariance3,field.position_covariance4,field.position_covariance5,field.position_covariance6,field.position_covariance7,field.position_covariance8,field.position_covariance_type
1672945724699240666,193259,1672945724730494150,gps,2,1,42.3009607884,-83.6978515005,272.605316162,0.001089,0.0,0.0,0.0,0.001089,0.0,0.0,0.0,0.004761,2
1672945724719316715,193260,1672945724750541930,gps,2,1,42.3009607843,-83.6978515019,272.605316162,0.001089,0.0,0.0,0.0,0.001089,0.0,0.0,0.0,0.004761,2
1672945724739101723,193261,1672945724770417294,gps,2,1,42.300960788,-83.6978514962,272.605712891,0.001089,0.0,0.0,0.0,0.001089,0.0,0.0,0.0,0.004761,2
1672945724759057401,193262,1672945724790565798,gps,2,1,42.3009607913,-83.6978514908,272.606079102,0.001089,0.0,0.0,0.0,0.001089,0.0,0.0,0.0,0.004761,2
1672945724779355703,193263,1672945724810559575,gps,2,1,42.3009607873,-83.6978514918,272.606079102,0.001089,0.0,0.0,0.0,0.001089,0.0,0.0,0.0,0.004761,2
1672945724799535178,193264,1672945724830559359,gps,2,1,42.3009607906,-83.6978514868,272.60647583,0.001089,0.0,0.0,0.0,0.001089,0.0,0.0,0.0,0.004761,2
1672945724819373550,193265,1672945724850474702,gps,2,1,42.3009607937,-83.697851482,272.606811523,0.001089,0.0,0.0,0.0,0.001089,0.0,0.0,0.0,0.004761,2
1672945724839281533,193266,1672945724870569061,gps,2,1,42.3009607897,-83.6978514828,272.606811523,0.001089,0.0,0.0,0.0,0.001089,0.0,0.0,0.0,0.004761,2
1672945724859262704,193267,1672945724890500729,gps,2,1,42.3009607925,-83.6978514782,272.607147217,0.001089,0.0,0.0,0.0,0.001089,0.0,0.0,0.0,0.004761,2
1672945724879227787,193268,1672945724910509911,gps,2,1,42.3009607951,-83.6978514738,272.607513428,0.001089,0.0,0.0,0.0,0.001089,0.0,0.0,0.0,0.004761,2
1672945724899158735,193269,1672945724930539852,gps,2,1,42.3009607911,-83.6978514747,272.60748291,0.001089,0.0,0.0,0.0,0.001089,0.0,0.0,0.0,0.004761,2
1672945724919041457,193270,1672945724950499611,gps,2,1,42.3009607948,-83.6978514702,272.607788086,0.001089,0.0,0.0,0.0,0.001089,0.0,0.0,0.0,0.004761,2
1672945724939244501,193271,1672945724970487492,gps,2,1,42.3009607983,-83.697851466,272.608062744,0.001089,0.0,0.0,0.0,0.001089,0.0,0.0,0.0,0.004761,2
1672945724959222886,193272,1672945724990516346,gps,2,1,42.3009607943,-83.6978514672,272.608093262,0.001089,0.0,0.0,0.0,0.001089,0.0,0.0,0.0,0.004761,2
1672945724979134342,193273,1672945725010481241,gps,2,1,42.3009607975,-83.6978514634,272.60836792,0.001089,0.0,0.0,0.0,0.001089,0.0,0.0,0.0,0.004761,2
1672945724999270285,193274,1672945725030465321,gps,2,1,42.300960801,-83.6978514596,272.608612061,0.001089,0.0,0.0,0.0,0.001089,0.0,0.0,0.0,0.004761,2
1672945725019178996,193275,1672945725050634048,gps,2,1,42.3009607971,-83.6978514609,272.608642578,0.001089,0.0,0.0,0.0,0.001089,0.0,0.0,0.0,0.004761,2
1672945725039124685,193276,1672945725070553959,gps,2,1,42.3009608025,-83.6978514542,272.609039307,0.001089,0.0,0.0,0.0,0.001089,0.0,0.0,0.0,0.004761,2
1672945725059241199,193277,1672945725090556987,gps,2,1,42.3009608076,-83.6978514479,272.609405518,0.001089,0.0,0.0,0.0,0.001089,0.0,0.0,0.0,0.004761,2
1672945725079297975,193278,1672945725110579299,gps,2,1,42.3009608039,-83.6978514488,272.609405518,0.001089,0.0,0.0,0.0,0.001089,0.0,0.0,0.0,0.004761,2
1672945725098799432,193279,1672945725130523086,gps,2,1,42.3009608091,-83.6978514422,272.609802246,0.001089,0.0,0.0,0.0,0.001089,0.0,0.0,0.0,0.004761,2
1672945725119088825,193280,1672945725150451284,gps,2,1,42.3009608141,-83.6978514359,272.610168457,0.001089,0.0,0.0,0.0,0.001089,0.0,0.0,0.0,0.004761,2
1672945725139206573,193281,1672945725170526750,gps,2,1,42.3009608105,-83.6978514365,272.610168457,0.001089,0.0,0.0,0.0,0.001089,0.0,0.0,0.0,0.004761,2
1672945725159131684,193282,1672945725190468778,gps,2,1,42.3009608153,-83.6978514302,272.61050415,0.001089,0.0,0.0,0.0,0.001089,0.0,0.0,0.0,0.004761,2
1672945725178966661,193283,1672945725210626133,gps,2,1,42.3009608197,-83.6978514243,272.610839844,0.001089,0.0,0.0,0.0,0.001089,0.0,0.0,0.0,0.004761,2
1672945725199034554,193284,1672945725230541525,gps,2,1,42.3009608162,-83.6978514247,272.610839844,0.001089,0.0,0.0,0.0,0.001089,0.0,0.0,0.0,0.004761,2
1672945725218989299,193285,1672945725250447117,gps,2,1,42.3009608206,-83.6978514189,272.611175537,0.001089,0.0,0.0,0.0,0.001089,0.0,0.0,0.0,0.004761,2
1672945725239130522,193286,1672945725270464626,gps,2,1,42.3009608247,-83.6978514132,272.611480713,0.001089,0.0,0.0,0.0,0.001089,0.0,0.0,0.0,0.004761,2
1672945725259070898,193287,1672945725290532166,gps,2,1,42.3009608211,-83.6978514138,272.61151123,0.001089,0.0,0.0,0.0,0.001089,0.0,0.0,0.0,0.004761,2
1672945725278968608,193288,1672945725310443811,gps,2,1,42.3009608248,-83.6978514085,272.611816406,0.001089,0.0,0.0,0.0,0.001089,0.0,0.0,0.0,0.004761,2
1672945725299166085,193289,1672945725330428741,gps,2,1,42.3009608294,-83.6978514028,272.6121521,0.001089,0.0,0.0,0.0,0.001089,0.0,0.0,0.0,0.004761,2
1672945725319005225,193290,1672945725350535525,gps,2,1,42.3009608259,-83.6978514034,272.612182617,0.001089,0.0,0.0,0.0,0.001089,0.0,0.0,0.0,0.004761,2
1672945725338899888,193291,1672945725370465926,gps,2,1,42.3009608302,-83.697851398,272.612457275,0.001089,0.0,0.0,0.0,0.001089,0.0,0.0,0.0,0.004761,2
1672945725359184017,193292,1672945725390497188,gps,2,1,42.3009608343,-83.6978513927,272.612762451,0.001089,0.0,0.0,0.0,0.001089,0.0,0.0,0.0,0.004761,2
1672945725379229161,193293,1672945725410543876,gps,2,1,42.3009608309,-83.6978513932,272.612762451,0.001089,0.0,0.0,0.0,0.001089,0.0,0.0,0.0,0.004761,2
1672945725399007117,193294,1672945725430403163,gps,2,1,42.3009608356,-83.6978513883,272.613037109,0.001089,0.0,0.0,0.0,0.001089,0.0,0.0,0.0,0.004761,2
1672945725419123867,193295,1672945725450485783,gps,2,1,42.30096084,-83.6978513835,272.61328125,0.001089,0.0,0.0,0.0,0.001089,0.0,0.0,0.0,0.004761,2
1672945725439174725,193296,1672945725470523194,gps,2,1,42.3009608368,-83.6978513839,272.61328125,0.001089,0.0,0.0,0.0,0.001089,0.0,0.0,0.0,0.004761,2
1672945725458975089,193297,1672945725490455139,gps,2,1,42.3009608411,-83.6978513794,272.613525391,0.001089,0.0,0.0,0.0,0.001089,0.0,0.0,0.0,0.004761,2
1672945725479017263,193298,1672945725510465092,gps,2,1,42.300960845,-83.697851375,272.613769531,0.001089,0.0,0.0,0.0,0.001089,0.0,0.0,0.0,0.004761,2
1672945725498898901,193299,1672945725530500316,gps,2,1,42.3009608419,-83.6978513755,272.613769531,0.001089,0.0,0.0,0.0,0.001089,0.0,0.0,0.0,0.004761,2
1672945725519505266,193300,1672945725550580159,gps,2,1,42.3009608454,-83.6978513711,272.614013672,0.001089,0.0,0.0,0.0,0.001089,0.0,0.0,0.0,0.004761,2
1672945725538835877,193301,1672945725570487014,gps,2,1,42.3009608505,-83.6978513642,272.614349365,0.001089,0.0,0.0,0.0,0.001089,0.0,0.0,0.0,0.004761,2
1672945725559410565,193302,1672945725590546343,gps,2,1,42.3009608473,-83.6978513645,272.614379883,0.001089,0.0,0.0,0.0,0.001089,0.0,0.0,0.0,0.004761,2
1672945725579177855,193303,1672945725610454994,gps,2,1,42.3009608521,-83.6978513576,272.614715576,0.001089,0.0,0.0,0.0,0.001089,0.0,0.0,0.0,0.004761,2
1672945725599182074,193304,1672945725630474292,gps,2,1,42.3009608574,-83.6978513517,272.614959717,0.001089,0.0,0.0,0.0,0.001089,0.0,0.0,0.0,0.004761,2
1672945725618939739,193305,1672945725650581230,gps,2,1,42.3009608543,-83.6978513518,272.614990234,0.001089,0.0,0.0,0.0,0.001089,0.0,0.0,0.0,0.004761,2
1672945725638963547,193306,1672945725670447741,gps,2,1,42.3009608596,-83.6978513461,272.615264893,0.001089,0.0,0.0,0.0,0.001089,0.0,0.0,0.0,0.004761,2
1672945725659264224,193307,1672945725690500945,gps,2,1,42.3009608645,-83.6978513405,272.615478516,0.001089,0.0,0.0,0.0,0.001089,0.0,0.0,0.0,0.004761,2
1672945725679235133,193308,1672945725710618879,gps,2,1,42.3009608616,-83.6978513406,272.615509033,0.001089,0.0,0.0,0.0,0.001089,0.0,0.0,0.0,0.004761,2
1672945725699303767,193309,1672945725730515941,gps,2,1,42.3009608664,-83.6978513347,272.615783691,0.001089,0.0,0.0,0.0,0.001089,0.0,0.0,0.0,0.004761,2
1672945725719091736,193310,1672945725750445515,gps,2,1,42.300960871,-83.6978513291,272.616088867,0.001089,0.0,0.0,0.0,0.001089,0.0,0.0,0.0,0.004761,2
1672945725739145033,193311,1672945725770497441,gps,2,1,42.3009608683,-83.6978513291,272.616088867,0.001089,0.0,0.0,0.0,0.001089,0.0,0.0,0.0,0.004761,2
1672945725758975456,193312,1672945725790467882,gps,2,1,42.3009608726,-83.6978513238,272.616363525,0.001089,0.0,0.0,0.0,0.001089,0.0,0.0,0.0,0.0049,2
1672945725779131033,193313,1672945725810485415,gps,2,1,42.3009608766,-83.6978513187,272.616638184,0.001089,0.0,0.0,0.0,0.001089,0.0,0.0,0.0,0.0049,2
1672945725799251804,193314,1672945725830516291,gps,2,1,42.3009608737,-83.697851319,272.616668701,0.001089,0.0,0.0,0.0,0.001089,0.0,0.0,0.0,0.0049,2
1672945725819307016,193315,1672945725850450929,gps,2,1,42.3009608782,-83.6978513154,272.616882324,0.001089,0.0,0.0,0.0,0.001089,0.0,0.0,0.0,0.0049,2
1672945725839095148,193316,1672945725870435812,gps,2,1,42.3009608824,-83.6978513119,272.617095947,0.001089,0.0,0.0,0.0,0.001089,0.0,0.0,0.0,0.0049,2
1672945725859112588,193317,1672945725890529357,gps,2,1,42.3009608796,-83.697851313,272.617095947,0.001089,0.0,0.0,0.0,0.001089,0.0,0.0,0.0,0.0049,2
1672945725879052761,193318,1672945725910422794,gps,2,1,42.3009608836,-83.697851311,272.617279053,0.001089,0.0,0.0,0.0,0.001089,0.0,0.0,0.0,0.0049,2
1672945725899297214,193319,1672945725930465789,gps,2,1,42.3009608875,-83.6978513082,272.617462158,0.001089,0.0,0.0,0.0,0.001089,0.0,0.0,0.0,0.0049,2
1672945725919334566,193320,1672945725950518717,gps,2,1,42.3009608849,-83.6978513105,272.617462158,0.001089,0.0,0.0,0.0,0.001089,0.0,0.0,0.0,0.0049,2
1672945725939077355,193321,1672945725970456381,gps,2,1,42.3009608888,-83.6978513092,272.617645264,0.001089,0.0,0.0,0.0,0.001089,0.0,0.0,0.0,0.0049,2
1672945725959109281,193322,1672945725990436481,gps,2,1,42.3009608925,-83.6978513082,272.617767334,0.001089,0.0,0.0,0.0,0.001089,0.0,0.0,0.0,0.0049,2
1672945725979251371,193323,1672945726010422873,gps,2,1,42.3009608902,-83.6978513122,272.617767334,0.001089,0.0,0.0,0.0,0.001089,0.0,0.0,0.0,0.0049,2
1672945725999038088,193324,1672945726030589772,gps,2,1,42.3009608948,-83.6978513142,272.617919922,0.001089,0.0,0.0,0.0,0.001089,0.0,0.0,0.0,0.0049,2
1672945726019114710,193325,1672945726050435093,gps,2,1,42.3009609009,-83.6978513144,272.618164062,0.001089,0.0,0.0,0.0,0.001089,0.0,0.0,0.0,0.0049,2
1672945726038951305,193326,1672945726070546828,gps,2,1,42.3009608993,-83.6978513214,272.618103027,0.001089,0.0,0.0,0.0,0.001089,0.0,0.0,0.0,0.0049,2
1672945726059275264,193327,1672945726090597019,gps,2,1,42.3009609059,-83.6978513252,272.61831665,0.001089,0.0,0.0,0.0,0.001089,0.0,0.0,0.0,0.0049,2
1672945726079185722,193328,1672945726110529001,gps,2,1,42.3009609121,-83.6978513292,272.618530273,0.001089,0.0,0.0,0.0,0.001089,0.0,0.0,0.0,0.0049,2
1672945726099278585,193329,1672945726130523055,gps,2,1,42.3009609113,-83.6978513397,272.618469238,0.001089,0.0,0.0,0.0,0.001089,0.0,0.0,0.0,0.0049,2
1672945726119021293,193330,1672945726150441955,gps,2,1,42.3009609185,-83.6978513474,272.618682861,0.001089,0.0,0.0,0.0,0.001089,0.0,0.0,0.0,0.0049,2
1672945726139126006,193331,1672945726170437467,gps,2,1,42.3009609254,-83.6978513551,272.618896484,0.001089,0.0,0.0,0.0,0.001089,0.0,0.0,0.0,0.0049,2
1672945726159107154,193332,1672945726190511238,gps,2,1,42.3009609252,-83.6978513697,272.618896484,0.001089,0.0,0.0,0.0,0.001089,0.0,0.0,0.0,0.0049,2
1672945726179081319,193333,1672945726210527551,gps,2,1,42.3009609324,-83.6978513821,272.619110107,0.001089,0.0,0.0,0.0,0.001089,0.0,0.0,0.0,0.0049,2
1672945726199192538,193334,1672945726230479582,gps,2,1,42.3009609395,-83.6978513953,272.619262695,0.001089,0.0,0.0,0.0,0.001089,0.0,0.0,0.0,0.0049,2
1672945726219131998,193335,1672945726250417028,gps,2,1,42.30096094,-83.6978514144,272.619262695,0.001089,0.0,0.0,0.0,0.001089,0.0,0.0,0.0,0.0049,2
1672945726239202904,193336,1672945726270388925,gps,2,1,42.3009609476,-83.6978514319,272.619445801,0.001089,0.0,0.0,0.0,0.001089,0.0,0.0,0.0,0.0049,2
1672945726259244527,193337,1672945726290406498,gps,2,1,42.3009609551,-83.6978514498,272.619598389,0.001089,0.0,0.0,0.0,0.001089,0.0,0.0,0.0,0.0049,2
1672945726279133414,193338,1672945726310521332,gps,2,1,42.3009609566,-83.6978514734,272.619628906,0.001089,0.0,0.0,0.0,0.001089,0.0,0.0,0.0,0.0049,2
1672945726299071657,193339,1672945726330391806,gps,2,1,42.3009609641,-83.697851495,272.619842529,0.001089,0.0,0.0,0.0,0.001089,0.0,0.0,0.0,0.0049,2
1672945726319000743,193340,1672945726350392450,gps,2,1,42.3009609715,-83.697851517,272.620025635,0.001089,0.0,0.0,0.0,0.001089,0.0,0.0,0.0,0.0049,2
1672945726339402672,193341,1672945726370456642,gps,2,1,42.3009609739,-83.697851545,272.620056152,0.001089,0.0,0.0,0.0,0.001089,0.0,0.0,0.0,0.0049,2
1672945726358862897,193342,1672945726390396050,gps,2,1,42.3009609818,-83.6978515714,272.620269775,0.001089,0.0,0.0,0.0,0.001089,0.0,0.0,0.0,0.0049,2
1672945726379243607,193343,1672945726410450146,gps,2,1,42.3009609895,-83.6978515982,272.620452881,0.001089,0.0,0.0,0.0,0.001089,0.0,0.0,0.0,0.0049,2
1672945726399019840,193344,1672945726430430727,gps,2,1,42.3009609925,-83.697851631,272.620513916,0.001089,0.0,0.0,0.0,0.001089,0.0,0.0,0.0,0.0049,2
1672945726419046977,193345,1672945726450393276,gps,2,1,42.3009610013,-83.6978516634,272.620666504,0.001089,0.0,0.0,0.0,0.001089,0.0,0.0,0.0,0.0049,2
1672945726438994627,193346,1672945726470354353,gps,2,1,42.3009610101,-83.6978516963,272.620819092,0.001089,0.0,0.0,0.0,0.001089,0.0,0.0,0.0,0.0049,2
1672945726459178389,193347,1672945726490482831,gps,2,1,42.3009610136,-83.6978517353,272.620819092,0.001089,0.0,0.0,0.0,0.001089,0.0,0.0,0.0,0.0049,2
1672945726478931652,193348,1672945726510387670,gps,2,1,42.3009610237,-83.6978517754,272.620941162,0.001089,0.0,0.0,0.0,0.001089,0.0,0.0,0.0,0.0049,2
1672945726499289378,193349,1672945726530474873,gps,2,1,42.3009610336,-83.697851816,272.621032715,0.001089,0.0,0.0,0.0,0.001089,0.0,0.0,0.0,0.0049,2
1672945726519279830,193350,1672945726550468013,gps,2,1,42.3009610382,-83.697851863,272.621002197,0.001089,0.0,0.0,0.0,0.001089,0.0,0.0,0.0,0.0049,2
1672945726539422612,193351,1672945726570501239,gps,2,1,42.300961049,-83.6978519121,272.62109375,0.001089,0.0,0.0,0.0,0.001089,0.0,0.0,0.0,0.0049,2
1672945726559242311,193352,1672945726590419185,gps,2,1,42.3009610612,-83.6978519599,272.62121582,0.001089,0.0,0.0,0.0,0.001089,0.0,0.0,0.0,0.0049,2
1672945726579206392,193353,1672945726610485095,gps,2,1,42.3009610672,-83.6978520162,272.621185303,0.001089,0.0,0.0,0.0,0.001089,0.0,0.0,0.0,0.0049,2
1672945726599065864,193354,1672945726630399536,gps,2,1,42.3009610807,-83.6978520741,272.621307373,0.001089,0.0,0.0,0.0,0.001089,0.0,0.0,0.0,0.0049,2
1672945726618949739,193355,1672945726650416725,gps,2,1,42.3009610943,-83.6978521327,272.621459961,0.001089,0.0,0.0,0.0,0.001089,0.0,0.0,0.0,0.0049,2
1672945726639140577,193356,1672945726670382882,gps,2,1,42.3009611016,-83.6978521996,272.621429443,0.001089,0.0,0.0,0.0,0.001089,0.0,0.0,0.0,0.0049,2
1672945726659079199,193357,1672945726690406410,gps,2,1,42.3009611161,-83.6978522688,272.621582031,0.001089,0.0,0.0,0.0,0.001089,0.0,0.0,0.0,0.0049,2
1672945726679250885,193358,1672945726710484999,gps,2,1,42.3009611305,-83.6978523387,272.621704102,0.001089,0.0,0.0,0.0,0.001089,0.0,0.0,0.0,0.0049,2
1672945726699195210,193359,1672945726730446200,gps,2,1,42.3009611393,-83.6978524169,272.621704102,0.001089,0.0,0.0,0.0,0.001089,0.0,0.0,0.0,0.0049,2
1672945726719150928,193360,1672945726750346695,gps,2,1,42.3009611546,-83.6978524978,272.621795654,0.001089,0.0,0.0,0.0,0.001089,0.0,0.0,0.0,0.0049,2
1672945726739045162,193361,1672945726770428752,gps,2,1,42.30096117,-83.6978525796,272.621887207,0.001089,0.0,0.0,0.0,0.001089,0.0,0.0,0.0,0.0049,2
1672945726759268631,193362,1672945726790532571,gps,2,1,42.3009611805,-83.6978526699,272.621917725,0.001089,0.0,0.0,0.0,0.001089,0.0,0.0,0.0,0.0049,2
1672945726778837565,193363,1672945726810412817,gps,2,1,42.3009611975,-83.6978527638,272.622009277,0.001089,0.0,0.0,0.0,0.001089,0.0,0.0,0.0,0.0049,2
1672945726799216180,193364,1672945726830371407,gps,2,1,42.3009612148,-83.6978528592,272.62210083,0.001089,0.0,0.0,0.0,0.001089,0.0,0.0,0.0,0.0049,2
1672945726819216794,193365,1672945726850469925,gps,2,1,42.3009612279,-83.6978529627,272.622131348,0.001089,0.0,0.0,0.0,0.001089,0.0,0.0,0.0,0.0049,2
1672945726839143692,193366,1672945726870428946,gps,2,1,42.3009612477,-83.6978530717,272.622192383,0.001089,0.0,0.0,0.0,0.001089,0.0,0.0,0.0,0.0049,2
1672945726859201595,193367,1672945726890575437,gps,2,1,42.3009612676,-83.6978531813,272.622253418,0.001089,0.0,0.0,0.0,0.001089,0.0,0.0,0.0,0.0049,2
1672945726879025195,193368,1672945726910405079,gps,2,1,42.3009612838,-83.6978532994,272.622283936,0.001089,0.0,0.0,0.0,0.001089,0.0,0.0,0.0,0.0049,2
1672945726898929011,193369,1672945726930434758,gps,2,1,42.3009613062,-83.6978534244,272.622283936,0.001089,0.0,0.0,0.0,0.001089,0.0,0.0,0.0,0.0049,2
1672945726919018942,193370,1672945726950389084,gps,2,1,42.3009613284,-83.6978535497,272.622314453,0.001089,0.0,0.0,0.0,0.001089,0.0,0.0,0.0,0.0049,2
1672945726939128677,193371,1672945726970411942,gps,2,1,42.3009613488,-83.6978536846,272.622314453,0.001089,0.0,0.0,0.0,0.001089,0.0,0.0,0.0,0.0049,2
1672945726959071394,193372,1672945726990401610,gps,2,1,42.3009613754,-83.6978538269,272.622314453,0.001089,0.0,0.0,0.0,0.001089,0.0,0.0,0.0,0.0049,2
1672945726979193643,193373,1672945727010392266,gps,2,1,42.3009614034,-83.6978539708,272.622283936,0.001089,0.0,0.0,0.0,0.001089,0.0,0.0,0.0,0.0049,2
1672945726999290064,193374,1672945727030462248,gps,2,1,42.3009614285,-83.6978541239,272.6222229,0.001089,0.0,0.0,0.0,0.001089,0.0,0.0,0.0,0.0049,2
1672945727019330741,193375,1672945727050617875,gps,2,1,42.3009614608,-83.6978542856,272.622192383,0.001089,0.0,0.0,0.0,0.001089,0.0,0.0,0.0,0.0049,2
1672945727039107781,193376,1672945727070408985,gps,2,1,42.3009614941,-83.6978544473,272.622070312,0.001089,0.0,0.0,0.0,0.001089,0.0,0.0,0.0,0.0049,2
1672945727059323213,193377,1672945727090533475,gps,2,1,42.300961524,-83.6978546196,272.62197876,0.001089,0.0,0.0,0.0,0.001089,0.0,0.0,0.0,0.0049,2
1672945727079309489,193378,1672945727110562365,gps,2,1,42.3009615614,-83.6978547999,272.621826172,0.001089,0.0,0.0,0.0,0.001089,0.0,0.0,0.0,0.0049,2
1672945727098821771,193379,1672945727130383800,gps,2,1,42.3009615989,-83.6978549818,272.621673584,0.001089,0.0,0.0,0.0,0.001089,0.0,0.0,0.0,0.0049,2
1672945727119305148,193380,1672945727150450403,gps,2,1,42.3009616333,-83.6978551741,272.621551514,0.001089,0.0,0.0,0.0,0.001089,0.0,0.0,0.0,0.0049,2
1672945727139203987,193381,1672945727170513435,gps,2,1,42.3009616744,-83.697855376,272.621429443,0.001089,0.0,0.0,0.0,0.001089,0.0,0.0,0.0,0.0049,2
1672945727158991473,193382,1672945727190395974,gps,2,1,42.3009617164,-83.6978555782,272.621276855,0.001089,0.0,0.0,0.0,0.001089,0.0,0.0,0.0,0.0049,2
1672945727179370682,193383,1672945727210629488,gps,2,1,42.3009617541,-83.6978557914,272.621185303,0.001089,0.0,0.0,0.0,0.001089,0.0,0.0,0.0,0.0049,2
1672945727199167078,193384,1672945727230517595,gps,2,1,42.3009617982,-83.6978560127,272.621124268,0.001089,0.0,0.0,0.0,0.001089,0.0,0.0,0.0,0.0049,2
1672945727218846226,193385,1672945727250387423,gps,2,1,42.3009618422,-83.6978562361,272.621002197,0.001089,0.0,0.0,0.0,0.001089,0.0,0.0,0.0,0.0049,2
1672945727239094273,193386,1672945727270414013,gps,2,1,42.3009618822,-83.6978564695,272.621032715,0.001089,0.0,0.0,0.0,0.001089,0.0,0.0,0.0,0.0049,2
1672945727259102376,193387,1672945727290430184,gps,2,1,42.3009619274,-83.6978567124,272.621063232,0.001089,0.0,0.0,0.0,0.001089,0.0,0.0,0.0,0.0049,2
1672945727279250559,193388,1672945727310372257,gps,2,1,42.3009619725,-83.6978569583,272.621124268,0.001089,0.0,0.0,0.0,0.001089,0.0,0.0,0.0,0.0049,2
1672945727299099583,193389,1672945727330490157,gps,2,1,42.3009620132,-83.6978572131,272.621337891,0.001089,0.0,0.0,0.0,0.001089,0.0,0.0,0.0,0.0049,2
1672945727319243013,193390,1672945727350467503,gps,2,1,42.3009620583,-83.6978574801,272.621490479,0.001089,0.0,0.0,0.0,0.001089,0.0,0.0,0.0,0.0049,2
1672945727338873285,193391,1672945727370364089,gps,2,1,42.3009621038,-83.6978577462,272.621673584,0.001089,0.0,0.0,0.0,0.001089,0.0,0.0,0.0,0.0049,2
1672945727359168279,193392,1672945727390533850,gps,2,1,42.3009621457,-83.6978580257,272.621826172,0.001089,0.0,0.0,0.0,0.001089,0.0,0.0,0.0,0.0049,2
1672945727379177111,193393,1672945727410432807,gps,2,1,42.300962192,-83.6978583161,272.621948242,0.001089,0.0,0.0,0.0,0.001089,0.0,0.0,0.0,0.0049,2
1672945727399026949,193394,1672945727430368367,gps,2,1,42.3009622377,-83.6978586093,272.621948242,0.001089,0.0,0.0,0.0,0.001089,0.0,0.0,0.0,0.0049,2
1672945727419141786,193395,1672945727450507929,gps,2,1,42.3009622812,-83.6978589109,272.622039795,0.001089,0.0,0.0,0.0,0.001089,0.0,0.0,0.0,0.0049,2
1672945727439063990,193396,1672945727470375613,gps,2,1,42.30096233,-83.6978592255,272.622039795,0.001089,0.0,0.0,0.0,0.001089,0.0,0.0,0.0,0.0049,2
1672945727459053178,193397,1672945727490433732,gps,2,1,42.3009623795,-83.6978595404,272.621917725,0.001089,0.0,0.0,0.0,0.001089,0.0,0.0,0.0,0.0049,2
1672945727479283462,193398,1672945727510437938,gps,2,1,42.3009624268,-83.6978598675,272.621765137,0.001089,0.0,0.0,0.0,0.001089,0.0,0.0,0.0,0.0049,2
1672945727499030260,193399,1672945727530355007,gps,2,1,42.3009624796,-83.6978602085,272.621429443,0.001089,0.0,0.0,0.0,0.001089,0.0,0.0,0.0,0.0049,2
1672945727519111531,193400,1672945727550448740,gps,2,1,42.3009625326,-83.697860551,272.62109375,0.001089,0.0,0.0,0.0,0.001089,0.0,0.0,0.0,0.0049,2
1672945727539257013,193401,1672945727570474610,gps,2,1,42.3009625838,-83.6978609051,272.620758057,0.001089,0.0,0.0,0.0,0.001089,0.0,0.0,0.0,0.0049,2
1672945727559269393,193402,1672945727590492530,gps,2,1,42.3009626416,-83.6978612739,272.620147705,0.001089,0.0,0.0,0.0,0.001089,0.0,0.0,0.0,0.0049,2
1672945727579202745,193403,1672945727610414798,gps,2,1,42.3009627,-83.6978616441,272.619567871,0.001089,0.0,0.0,0.0,0.001089,0.0,0.0,0.0,0.0049,2
1672945727599089659,193404,1672945727630437976,gps,2,1,42.300962756,-83.6978620267,272.619140625,0.001089,0.0,0.0,0.0,0.001089,0.0,0.0,0.0,0.0049,2
1672945727619093060,193405,1672945727650342301,gps,2,1,42.3009628186,-83.6978624234,272.618621826,0.001089,0.0,0.0,0.0,0.001089,0.0,0.0,0.0,0.0049,2
1672945727638732088,193406,1672945727670331670,gps,2,1,42.300962881,-83.6978628218,272.618133545,0.001089,0.0,0.0,0.0,0.001089,0.0,0.0,0.0,0.0049,2
1672945727659133565,193407,1672945727690409143,gps,2,1,42.3009629407,-83.6978632328,272.617919922,0.001089,0.0,0.0,0.0,0.001089,0.0,0.0,0.0,0.0049,2
1672945727679314750,193408,1672945727710516487,gps,2,1,42.3009630063,-83.6978636586,272.617706299,0.001089,0.0,0.0,0.0,0.001089,0.0,0.0,0.0,0.0049,2
1672945727699374755,193409,1672945727730376629,gps,2,1,42.3009630701,-83.6978640869,272.617431641,0.001089,0.0,0.0,0.0,0.001089,0.0,0.0,0.0,0.0049,2
1672945727719123766,193410,1672945727750438574,gps,2,1,42.3009631319,-83.697864525,272.617492676,0.001089,0.0,0.0,0.0,0.001089,0.0,0.0,0.0,0.0049,2
1672945727739113434,193411,1672945727770371876,gps,2,1,42.3009631967,-83.6978649783,272.617523193,0.001089,0.0,0.0,0.0,0.001089,0.0,0.0,0.0,0.0049,2
1672945727759304409,193412,1672945727790441028,gps,2,1,42.3009632612,-83.697865433,272.617523193,0.000841,0.0,0.0,0.0,0.0009,0.0,0.0,0.0,0.004624,2
1672945727779158729,193413,1672945727810444421,gps,2,1,42.300963323,-83.6978658965,272.617828369,0.000841,0.0,0.0,0.0,0.0009,0.0,0.0,0.0,0.004624,2
1672945727799037129,193414,1672945727830392071,gps,2,1,42.3009633881,-83.6978663734,272.618041992,0.000841,0.0,0.0,0.0,0.0009,0.0,0.0,0.0,0.004624,2
1672945727819117919,193415,1672945727850376195,gps,2,1,42.3009634533,-83.6978668516,272.618255615,0.000841,0.0,0.0,0.0,0.0009,0.0,0.0,0.0,0.004624,2
1672945727839086146,193416,1672945727870405292,gps,2,1,42.3009635144,-83.6978673384,272.618591309,0.000841,0.0,0.0,0.0,0.0009,0.0,0.0,0.0,0.004624,2
1672945727859397646,193417,1672945727890444449,gps,2,1,42.3009635793,-83.6978678379,272.618743896,0.000841,0.0,0.0,0.0,0.0009,0.0,0.0,0.0,0.004624,2
1672945727878997138,193418,1672945727910368285,gps,2,1,42.3009636438,-83.697868338,272.618896484,0.000841,0.0,0.0,0.0,0.0009,0.0,0.0,0.0,0.004624,2
1672945727898807759,193419,1672945727930431796,gps,2,1,42.3009637055,-83.6978688467,272.619110107,0.000841,0.0,0.0,0.0,0.0009,0.0,0.0,0.0,0.004624,2
1672945727919247466,193420,1672945727950354074,gps,2,1,42.300963771,-83.6978693661,272.618988037,0.000841,0.0,0.0,0.0,0.0009,0.0,0.0,0.0,0.004624,2
1672945727939171775,193421,1672945727970325461,gps,2,1,42.3009638366,-83.6978698861,272.618835449,0.000841,0.0,0.0,0.0,0.0009,0.0,0.0,0.0,0.004624,2
1672945727959216032,193422,1672945727990351575,gps,2,1,42.3009638996,-83.6978704147,272.618804932,0.000841,0.0,0.0,0.0,0.0009,0.0,0.0,0.0,0.004624,2
1672945727979217246,193423,1672945728010337004,gps,2,1,42.3009639663,-83.6978709534,272.618469238,0.000841,0.0,0.0,0.0,0.0009,0.0,0.0,0.0,0.004624,2
1672945727998802239,193424,1672945728030347923,gps,2,1,42.300964033,-83.6978714939,272.618164062,0.000841,0.0,0.0,0.0,0.0009,0.0,0.0,0.0,0.004624,2
1672945728019178778,193425,1672945728050494147,gps,2,1,42.3009640972,-83.6978720415,272.617858887,0.000841,0.0,0.0,0.0,0.0009,0.0,0.0,0.0,0.004624,2
1672945728039284874,193426,1672945728070408377,gps,2,1,42.3009641653,-83.6978725992,272.617248535,0.000841,0.0,0.0,0.0,0.0009,0.0,0.0,0.0,0.004624,2
1672945728058945912,193427,1672945728090488155,gps,2,1,42.3009642332,-83.6978731575,272.616638184,0.000841,0.0,0.0,0.0,0.0009,0.0,0.0,0.0,0.004624,2
1672945728079313356,193428,1672945728110430366,gps,2,1,42.3009642985,-83.6978737241,272.616210938,0.000841,0.0,0.0,0.0,0.0009,0.0,0.0,0.0,0.004624,2
1672945728099237212,193429,1672945728130334633,gps,2,1,42.3009643671,-83.6978743016,272.615539551,0.000841,0.0,0.0,0.0,0.0009,0.0,0.0,0.0,0.004624,2
1672945728119114840,193430,1672945728150351870,gps,2,1,42.3009644359,-83.6978748802,272.614868164,0.000841,0.0,0.0,0.0,0.0009,0.0,0.0,0.0,0.004624,2
1672945728139135450,193431,1672945728170365675,gps,2,1,42.3009645021,-83.6978754654,272.614440918,0.000841,0.0,0.0,0.0,0.0009,0.0,0.0,0.0,0.004624,2
1672945728159061545,193432,1672945728190381637,gps,2,1,42.3009645718,-83.6978760613,272.613830566,0.000841,0.0,0.0,0.0,0.0009,0.0,0.0,0.0,0.004624,2
1672945728179083582,193433,1672945728210471680,gps,2,1,42.3009646417,-83.6978766579,272.613189697,0.000841,0.0,0.0,0.0,0.0009,0.0,0.0,0.0,0.004624,2
1672945728199440674,193434,1672945728230409762,gps,2,1,42.3009647093,-83.6978772613,272.612762451,0.000841,0.0,0.0,0.0,0.0009,0.0,0.0,0.0,0.004624,2
1672945728219074476,193435,1672945728250383747,gps,2,1,42.3009647812,-83.6978778743,272.612121582,0.000841,0.0,0.0,0.0,0.0009,0.0,0.0,0.0,0.004624,2
1672945728239019661,193436,1672945728270296788,gps,2,1,42.3009648531,-83.6978784883,272.611480713,0.000841,0.0,0.0,0.0,0.0009,0.0,0.0,0.0,0.004624,2
1672945728259223762,193437,1672945728290352277,gps,2,1,42.3009649219,-83.6978791095,272.610992432,0.000841,0.0,0.0,0.0,0.0009,0.0,0.0,0.0,0.004624,2
1672945728279146034,193438,1672945728310327554,gps,2,1,42.3009649948,-83.6978797399,272.61026001,0.000841,0.0,0.0,0.0,0.0009,0.0,0.0,0.0,0.004624,2
1672945728299026900,193439,1672945728330375126,gps,2,1,42.3009650675,-83.6978803743,272.609558105,0.000841,0.0,0.0,0.0,0.0009,0.0,0.0,0.0,0.004624,2
1672945728319048704,193440,1672945728350383879,gps,2,1,42.3009651376,-83.6978810131,272.608917236,0.000841,0.0,0.0,0.0,0.0009,0.0,0.0,0.0,0.004624,2
1672945728339123663,193441,1672945728370353938,gps,2,1,42.3009652113,-83.6978816638,272.608123779,0.000841,0.0,0.0,0.0,0.0009,0.0,0.0,0.0,0.004624,2
1672945728359226890,193442,1672945728390415492,gps,2,1,42.3009652852,-83.6978823155,272.607330322,0.000841,0.0,0.0,0.0,0.0009,0.0,0.0,0.0,0.004624,2
1672945728379176748,193443,1672945728410311199,gps,2,1,42.3009653569,-83.6978829715,272.606628418,0.000841,0.0,0.0,0.0,0.0009,0.0,0.0,0.0,0.004624,2
1672945728399031302,193444,1672945728430281800,gps,2,1,42.3009654325,-83.6978836362,272.60559082,0.000841,0.0,0.0,0.0,0.0009,0.0,0.0,0.0,0.004624,2
1672945728418975927,193445,1672945728450291027,gps,2,1,42.3009655079,-83.6978843015,272.604553223,0.000841,0.0,0.0,0.0,0.0009,0.0,0.0,0.0,0.004624,2
1672945728439080010,193446,1672945728470469263,gps,2,1,42.3009655812,-83.697884975,272.603729248,0.000841,0.0,0.0,0.0,0.0009,0.0,0.0,0.0,0.004624,2
1672945728459084537,193447,1672945728490324354,gps,2,1,42.3009656583,-83.6978856567,272.602600098,0.000841,0.0,0.0,0.0,0.0009,0.0,0.0,0.0,0.004624,2
1672945728478885264,193448,1672945728510238834,gps,2,1,42.3009657352,-83.6978863394,272.60144043,0.000841,0.0,0.0,0.0,0.0009,0.0,0.0,0.0,0.004624,2
1672945728499399732,193449,1672945728530430427,gps,2,1,42.3009658098,-83.6978870297,272.600463867,0.000841,0.0,0.0,0.0,0.0009,0.0,0.0,0.0,0.004624,2
1672945728518814571,193450,1672945728550357339,gps,2,1,42.3009658876,-83.6978877286,272.599212646,0.000841,0.0,0.0,0.0,0.0009,0.0,0.0,0.0,0.004624,2
1672945728539162000,193451,1672945728570364706,gps,2,1,42.3009659665,-83.6978884293,272.598114014,0.000841,0.0,0.0,0.0,0.0009,0.0,0.0,0.0,0.004624,2
1672945728559420857,193452,1672945728590395792,gps,2,1,42.3009660421,-83.6978891363,272.597045898,0.000841,0.0,0.0,0.0,0.0009,0.0,0.0,0.0,0.004624,2
1672945728579074478,193453,1672945728610330607,gps,2,1,42.3009661219,-83.6978898526,272.595916748,0.000841,0.0,0.0,0.0,0.0009,0.0,0.0,0.0,0.004624,2
1672945728598989292,193454,1672945728630286871,gps,2,1,42.3009662009,-83.697890569,272.594726562,0.000841,0.0,0.0,0.0,0.0009,0.0,0.0,0.0,0.004624,2
1672945728618835228,193455,1672945728650356861,gps,2,1,42.3009662766,-83.6978912919,272.593688965,0.000841,0.0,0.0,0.0,0.0009,0.0,0.0,0.0,0.004624,2
1672945728639082966,193456,1672945728670337646,gps,2,1,42.3009663553,-83.6978920234,272.592712402,0.000841,0.0,0.0,0.0,0.0009,0.0,0.0,0.0,0.004624,2
1672945728659123456,193457,1672945728690302114,gps,2,1,42.3009664339,-83.6978927555,272.591705322,0.000841,0.0,0.0,0.0,0.0009,0.0,0.0,0.0,0.004624,2
1672945728679172943,193458,1672945728710434354,gps,2,1,42.3009665091,-83.6978934942,272.590820312,0.000841,0.0,0.0,0.0,0.0009,0.0,0.0,0.0,0.004624,2
1672945728699150697,193459,1672945728730306310,gps,2,1,42.3009665864,-83.6978942412,272.589874268,0.000841,0.0,0.0,0.0,0.0009,0.0,0.0,0.0,0.004624,2
1672945728719005636,193460,1672945728750301154,gps,2,1,42.3009666639,-83.6978949888,272.588867188,0.000841,0.0,0.0,0.0,0.0009,0.0,0.0,0.0,0.004624,2
1672945728739051364,193461,1672945728770345121,gps,2,1,42.3009667378,-83.6978957431,272.58807373,0.000841,0.0,0.0,0.0,0.0009,0.0,0.0,0.0,0.004624,2
1672945728758859808,193462,1672945728790353374,gps,2,1,42.3009668139,-83.6978965054,272.587127686,0.000841,0.0,0.0,0.0,0.0009,0.0,0.0,0.0,0.004624,2
1672945728779044921,193463,1672945728810306705,gps,2,1,42.30096689,-83.6978972685,272.586181641,0.000841,0.0,0.0,0.0,0.0009,0.0,0.0,0.0,0.004624,2
1672945728799101117,193464,1672945728830316824,gps,2,1,42.3009669628,-83.6978980377,272.585357666,0.000841,0.0,0.0,0.0,0.0009,0.0,0.0,0.0,0.004624,2
1672945728819173786,193465,1672945728850267004,gps,2,1,42.3009670345,-83.6978988175,272.584320068,0.000841,0.0,0.0,0.0,0.0009,0.0,0.0,0.0,0.004624,2
1672945728839031524,193466,1672945728870250936,gps,2,1,42.3009671063,-83.6978995978,272.583251953,0.000841,0.0,0.0,0.0,0.0009,0.0,0.0,0.0,0.004624,2
1672945728859182510,193467,1672945728890446566,gps,2,1,42.300967178,-83.6979003822,272.582366943,0.000841,0.0,0.0,0.0,0.0009,0.0,0.0,0.0,0.004624,2
1672945728878970068,193468,1672945728910271110,gps,2,1,42.3009672488,-83.6979011767,272.581268311,0.000841,0.0,0.0,0.0,0.0009,0.0,0.0,0.0,0.004624,2
1672945728898849003,193469,1672945728930324248,gps,2,1,42.3009673156,-83.6979019724,272.58013916,0.000841,0.0,0.0,0.0,0.0009,0.0,0.0,0.0,0.004624,2
1672945728918857909,193470,1672945728950344655,gps,2,1,42.3009673866,-83.6979027713,272.579162598,0.000841,0.0,0.0,0.0,0.0009,0.0,0.0,0.0,0.004624,2
1672945728938788632,193471,1672945728970314608,gps,2,1,42.3009674536,-83.6979035806,272.577972412,0.000841,0.0,0.0,0.0,0.0009,0.0,0.0,0.0,0.004624,2
1672945728959157209,193472,1672945728990313243,gps,2,1,42.3009675207,-83.69790439,272.576782227,0.000841,0.0,0.0,0.0,0.0009,0.0,0.0,0.0,0.004624,2
1672945728979081260,193473,1672945729010349248,gps,2,1,42.3009675921,-83.6979052025,272.575897217,0.000841,0.0,0.0,0.0,0.0009,0.0,0.0,0.0,0.004624,2
1672945728999080123,193474,1672945729030381733,gps,2,1,42.3009676629,-83.6979060241,272.574951172,0.000841,0.0,0.0,0.0,0.0009,0.0,0.0,0.0,0.004624,2
1672945729019064697,193475,1672945729050373000,gps,2,1,42.3009677339,-83.6979068458,272.574005127,0.000841,0.0,0.0,0.0,0.0009,0.0,0.0,0.0,0.004624,2
1672945729039190899,193476,1672945729070356237,gps,2,1,42.3009678058,-83.6979076716,272.573425293,0.000841,0.0,0.0,0.0,0.0009,0.0,0.0,0.0,0.004624,2
1672945729059391558,193477,1672945729090409532,gps,2,1,42.3009678765,-83.6979085069,272.572479248,0.000841,0.0,0.0,0.0,0.0009,0.0,0.0,0.0,0.004624,2
1672945729078981824,193478,1672945729110310540,gps,2,1,42.3009679476,-83.6979093426,272.571533203,0.000841,0.0,0.0,0.0,0.0009,0.0,0.0,0.0,0.004624,2
1672945729099128875,193479,1672945729130278577,gps,2,1,42.3009680191,-83.6979101824,272.571075439,0.000841,0.0,0.0,0.0,0.0009,0.0,0.0,0.0,0.004624,2
1672945729119126218,193480,1672945729150273136,gps,2,1,42.3009680878,-83.6979110327,272.570098877,0.000841,0.0,0.0,0.0,0.0009,0.0,0.0,0.0,0.004624,2
1672945729138988689,193481,1672945729170257665,gps,2,1,42.3009681567,-83.6979118836,272.569213867,0.000841,0.0,0.0,0.0,0.0009,0.0,0.0,0.0,0.004624,2
1672945729159161452,193482,1672945729190332913,gps,2,1,42.3009682275,-83.6979127374,272.568511963,0.000841,0.0,0.0,0.0,0.0009,0.0,0.0,0.0,0.004624,2
1672945729178841643,193483,1672945729210271555,gps,2,1,42.3009682959,-83.697913602,272.567260742,0.000841,0.0,0.0,0.0,0.0009,0.0,0.0,0.0,0.004624,2
1672945729199161048,193484,1672945729230292746,gps,2,1,42.3009683626,-83.6979144676,272.566040039,0.000841,0.0,0.0,0.0,0.0009,0.0,0.0,0.0,0.004624,2
1672945729219016874,193485,1672945729250280753,gps,2,1,42.3009684334,-83.697915336,272.564941406,0.000841,0.0,0.0,0.0,0.0009,0.0,0.0,0.0,0.004624,2
1672945729239033814,193486,1672945729270308924,gps,2,1,42.3009685,-83.6979162151,272.563323975,0.000841,0.0,0.0,0.0,0.0009,0.0,0.0,0.0,0.004624,2
1672945729259091148,193487,1672945729290313457,gps,2,1,42.3009685671,-83.6979170952,272.561798096,0.000841,0.0,0.0,0.0,0.0009,0.0,0.0,0.0,0.004624,2
1672945729279012878,193488,1672945729310258988,gps,2,1,42.3009686381,-83.6979179783,272.560333252,0.000841,0.0,0.0,0.0,0.0009,0.0,0.0,0.0,0.004624,2
1672945729298998038,193489,1672945729330235495,gps,2,1,42.3009687016,-83.6979188719,272.558410645,0.000841,0.0,0.0,0.0,0.0009,0.0,0.0,0.0,0.004624,2
1672945729318889830,193490,1672945729350308931,gps,2,1,42.3009687654,-83.6979197659,272.556518555,0.000841,0.0,0.0,0.0,0.0009,0.0,0.0,0.0,0.004624,2
1672945729339339814,193491,1672945729370347857,gps,2,1,42.3009688369,-83.6979206628,272.55480957,0.000841,0.0,0.0,0.0,0.0009,0.0,0.0,0.0,0.004624,2
1672945729359011782,193492,1672945729390325053,gps,2,1,42.3009689014,-83.6979215697,272.552825928,0.000841,0.0,0.0,0.0,0.0009,0.0,0.0,0.0,0.004624,2
1672945729379024818,193493,1672945729410292611,gps,2,1,42.3009689664,-83.6979224773,272.550872803,0.000841,0.0,0.0,0.0,0.0009,0.0,0.0,0.0,0.004624,2
1672945729399213904,193494,1672945729430315835,gps,2,1,42.3009690383,-83.6979233878,272.549163818,0.000841,0.0,0.0,0.0,0.0009,0.0,0.0,0.0,0.004624,2
1672945729419041544,193495,1672945729450372410,gps,2,1,42.3009691041,-83.6979243078,272.547424316,0.000841,0.0,0.0,0.0,0.0009,0.0,0.0,0.0,0.004624,2
1672945729438931032,193496,1672945729470247839,gps,2,1,42.3009691705,-83.6979252288,272.545684814,0.000841,0.0,0.0,0.0,0.0009,0.0,0.0,0.0,0.004624,2
1672945729458990585,193497,1672945729490327926,gps,2,1,42.3009692428,-83.6979261521,272.544250488,0.000841,0.0,0.0,0.0,0.0009,0.0,0.0,0.0,0.004624,2
1672945729478700864,193498,1672945729510244023,gps,2,1,42.3009693068,-83.6979270872,272.542816162,0.000841,0.0,0.0,0.0,0.0009,0.0,0.0,0.0,0.004624,2
1672945729499064987,193499,1672945729530336191,gps,2,1,42.3009693711,-83.6979280227,272.541381836,0.000841,0.0,0.0,0.0,0.0009,0.0,0.0,0.0,0.004624,2
1672945729519055622,193500,1672945729550282199,gps,2,1,42.3009694426,-83.6979289589,272.540130615,0.000841,0.0,0.0,0.0,0.0009,0.0,0.0,0.0,0.004624,2
1672945729538910296,193501,1672945729570338908,gps,2,1,42.3009695032,-83.6979299068,272.538635254,0.000841,0.0,0.0,0.0,0.0009,0.0,0.0,0.0,0.004624,2
1672945729559063768,193502,1672945729590322221,gps,2,1,42.3009695641,-83.6979308555,272.537109375,0.000841,0.0,0.0,0.0,0.0009,0.0,0.0,0.0,0.004624,2
1672945729579088414,193503,1672945729610271372,gps,2,1,42.3009696338,-83.6979318041,272.536010742,0.000841,0.0,0.0,0.0,0.0009,0.0,0.0,0.0,0.004624,2
1672945729599131631,193504,1672945729630329215,gps,2,1,42.3009696919,-83.6979327643,272.534545898,0.000841,0.0,0.0,0.0,0.0009,0.0,0.0,0.0,0.004624,2
1672945729618734556,193505,1672945729650285609,gps,2,1,42.3009697502,-83.6979337251,272.533081055,0.000841,0.0,0.0,0.0,0.0009,0.0,0.0,0.0,0.004624,2
1672945729639108043,193506,1672945729670228402,gps,2,1,42.3009698184,-83.6979346856,272.531951904,0.000841,0.0,0.0,0.0,0.0009,0.0,0.0,0.0,0.004624,2
1672945729659105820,193507,1672945729690302674,gps,2,1,42.3009698766,-83.6979356573,272.530334473,0.000841,0.0,0.0,0.0,0.0009,0.0,0.0,0.0,0.004624,2
1672945729678779487,193508,1672945729710287735,gps,2,1,42.3009699352,-83.6979366289,272.528778076,0.000841,0.0,0.0,0.0,0.0009,0.0,0.0,0.0,0.004624,2
1672945729699138820,193509,1672945729730264744,gps,2,1,42.3009700035,-83.6979376007,272.527526855,0.000841,0.0,0.0,0.0,0.0009,0.0,0.0,0.0,0.004624,2
1672945729719113621,193510,1672945729750277666,gps,2,1,42.3009700626,-83.6979385815,272.525939941,0.000841,0.0,0.0,0.0,0.0009,0.0,0.0,0.0,0.004624,2
1672945729738836028,193511,1672945729770263395,gps,2,1,42.3009701223,-83.6979395632,272.52432251,0.000841,0.0,0.0,0.0,0.0009,0.0,0.0,0.0,0.004624,2
1672945729759195246,193512,1672945729790314527,gps,2,1,42.3009701913,-83.697940545,272.523132324,0.001089,0.0,0.0,0.0,0.001089,0.0,0.0,0.0,0.004761,2
1672945729779099542,193513,1672945729810222912,gps,2,1,42.3009702502,-83.6979415356,272.521881104,0.001089,0.0,0.0,0.0,0.001089,0.0,0.0,0.0,0.004761,2
1672945729799038087,193514,1672945729830288210,gps,2,1,42.3009703094,-83.6979425272,272.520599365,0.001089,0.0,0.0,0.0,0.001089,0.0,0.0,0.0,0.004761,2
1672945729819069623,193515,1672945729850224969,gps,2,1,42.3009703771,-83.6979435195,272.51965332,0.001089,0.0,0.0,0.0,0.001089,0.0,0.0,0.0,0.004761,2
1672945729839021938,193516,1672945729870273409,gps,2,1,42.300970434,-83.6979445206,272.518493652,0.001089,0.0,0.0,0.0,0.001089,0.0,0.0,0.0,0.004761,2
1672945729859128441,193517,1672945729890324158,gps,2,1,42.3009704883,-83.6979455245,272.517272949,0.001089,0.0,0.0,0.0,0.001089,0.0,0.0,0.0,0.004761,2
1672945729878946857,193518,1672945729910245788,gps,2,1,42.3009705534,-83.6979465267,272.516296387,0.001089,0.0,0.0,0.0,0.001089,0.0,0.0,0.0,0.004761,2
1672945729899161615,193519,1672945729930262357,gps,2,1,42.3009706058,-83.6979475406,272.514801025,0.001089,0.0,0.0,0.0,0.001089,0.0,0.0,0.0,0.004761,2
1672945729918745971,193520,1672945729950248457,gps,2,1,42.3009706588,-83.6979485539,272.513336182,0.001089,0.0,0.0,0.0,0.001089,0.0,0.0,0.0,0.004761,2
1672945729939024524,193521,1672945729970232590,gps,2,1,42.3009707222,-83.6979495672,272.511932373,0.001089,0.0,0.0,0.0,0.001089,0.0,0.0,0.0,0.004761,2
1672945729959124744,193522,1672945729990213259,gps,2,1,42.3009707747,-83.6979505907,272.50994873,0.001089,0.0,0.0,0.0,0.001089,0.0,0.0,0.0,0.004761,2
1672945729979115444,193523,1672945730010209856,gps,2,1,42.3009708275,-83.6979516149,272.507965088,0.001089,0.0,0.0,0.0,0.001089,0.0,0.0,0.0,0.004761,2
1672945729999073322,193524,1672945730030222847,gps,2,1,42.300970891,-83.6979526386,272.505981445,0.001089,0.0,0.0,0.0,0.001089,0.0,0.0,0.0,0.004761,2
1672945730019391576,193525,1672945730050430688,gps,2,1,42.3009709399,-83.6979536734,272.503387451,0.001089,0.0,0.0,0.0,0.001089,0.0,0.0,0.0,0.004761,2
1672945730038882598,193526,1672945730070218228,gps,2,1,42.3009709891,-83.6979547088,272.500793457,0.001089,0.0,0.0,0.0,0.001089,0.0,0.0,0.0,0.004761,2
1672945730059338671,193527,1672945730090384079,gps,2,1,42.3009710533,-83.6979557422,272.498413086,0.001089,0.0,0.0,0.0,0.001089,0.0,0.0,0.0,0.004761,2
1672945730078876890,193528,1672945730110333452,gps,2,1,42.3009711014,-83.6979567869,272.495544434,0.001089,0.0,0.0,0.0,0.001089,0.0,0.0,0.0,0.004761,2
1672945730099017268,193529,1672945730130187871,gps,2,1,42.30097115,-83.6979578314,272.492675781,0.001089,0.0,0.0,0.0,0.001089,0.0,0.0,0.0,0.004761,2
1672945730119235467,193530,1672945730150348137,gps,2,1,42.3009712133,-83.6979588747,272.49017334,0.001089,0.0,0.0,0.0,0.001089,0.0,0.0,0.0,0.004761,2
1672945730139178260,193531,1672945730170277632,gps,2,1,42.3009712618,-83.6979599287,272.487304688,0.001089,0.0,0.0,0.0,0.001089,0.0,0.0,0.0,0.004761,2
1672945730159167507,193532,1672945730190176137,gps,2,1,42.3009713112,-83.6979609828,272.484466553,0.001089,0.0,0.0,0.0,0.001089,0.0,0.0,0.0,0.004761,2
1672945730178974190,193533,1672945730210281175,gps,2,1,42.3009713741,-83.6979620359,272.481964111,0.001089,0.0,0.0,0.0,0.001089,0.0,0.0,0.0,0.004761,2
1672945730199207492,193534,1672945730230402187,gps,2,1,42.3009714239,-83.6979630991,272.479095459,0.001089,0.0,0.0,0.0,0.001089,0.0,0.0,0.0,0.004761,2
1672945730218716902,193535,1672945730250216008,gps,2,1,42.3009714739,-83.6979641626,272.476226807,0.001089,0.0,0.0,0.0,0.001089,0.0,0.0,0.0,0.004761,2
1672945730238992200,193536,1672945730270221328,gps,2,1,42.3009715366,-83.6979652245,272.473724365,0.001089,0.0,0.0,0.0,0.001089,0.0,0.0,0.0,0.004761,2
1672945730258966477,193537,1672945730290212257,gps,2,1,42.3009715868,-83.6979662963,272.471008301,0.001089,0.0,0.0,0.0,0.001089,0.0,0.0,0.0,0.004761,2
1672945730278932730,193538,1672945730310200660,gps,2,1,42.3009716373,-83.6979673685,272.468322754,0.001089,0.0,0.0,0.0,0.001089,0.0,0.0,0.0,0.004761,2
1672945730298998354,193539,1672945730330239378,gps,2,1,42.3009716993,-83.6979684392,272.466064453,0.001089,0.0,0.0,0.0,0.001089,0.0,0.0,0.0,0.004761,2
1672945730319161308,193540,1672945730350261777,gps,2,1,42.3009717451,-83.6979695204,272.463623047,0.001089,0.0,0.0,0.0,0.001089,0.0,0.0,0.0,0.004761,2
1672945730339030002,193541,1672945730370167272,gps,2,1,42.3009717912,-83.6979706015,272.461242676,0.001089,0.0,0.0,0.0,0.001089,0.0,0.0,0.0,0.004761,2
1672945730359077810,193542,1672945730390359832,gps,2,1,42.3009718518,-83.6979716818,272.459106445,0.001089,0.0,0.0,0.0,0.001089,0.0,0.0,0.0,0.004761,2
1672945730379325713,193543,1672945730410270568,gps,2,1,42.3009718968,-83.6979727731,272.456787109,0.001089,0.0,0.0,0.0,0.001089,0.0,0.0,0.0,0.004761,2
1672945730399109461,193544,1672945730430254705,gps,2,1,42.3009719431,-83.697973865,272.454437256,0.001089,0.0,0.0,0.0,0.001089,0.0,0.0,0.0,0.004761,2
1672945730419027242,193545,1672945730450261014,gps,2,1,42.3009720015,-83.6979749548,272.452453613,0.001089,0.0,0.0,0.0,0.001089,0.0,0.0,0.0,0.004761,2
1672945730439012167,193546,1672945730470200653,gps,2,1,42.300972046,-83.6979760531,272.450408936,0.001089,0.0,0.0,0.0,0.001089,0.0,0.0,0.0,0.004761,2
1672945730458833697,193547,1672945730490259760,gps,2,1,42.3009720912,-83.6979771521,272.448364258,0.001089,0.0,0.0,0.0,0.001089,0.0,0.0,0.0,0.004761,2
1672945730479102595,193548,1672945730510271533,gps,2,1,42.300972147,-83.6979782501,272.446685791,0.001089,0.0,0.0,0.0,0.001089,0.0,0.0,0.0,0.004761,2
1672945730498849166,193549,1672945730530142469,gps,2,1,42.3009721852,-83.6979793617,272.444824219,0.001089,0.0,0.0,0.0,0.001089,0.0,0.0,0.0,0.004761,2
1672945730519140114,193550,1672945730550313495,gps,2,1,42.3009722224,-83.6979804739,272.442962646,0.001089,0.0,0.0,0.0,0.001089,0.0,0.0,0.0,0.004761,2
1672945730539436601,193551,1672945730570386279,gps,2,1,42.3009722749,-83.6979815808,272.441192627,0.001089,0.0,0.0,0.0,0.001089,0.0,0.0,0.0,0.004761,2
1672945730558891559,193552,1672945730590293045,gps,2,1,42.3009723063,-83.6979827036,272.438903809,0.001089,0.0,0.0,0.0,0.001089,0.0,0.0,0.0,0.004761,2
1672945730579182964,193553,1672945730610256678,gps,2,1,42.3009723374,-83.6979838237,272.436645508,0.001089,0.0,0.0,0.0,0.001089,0.0,0.0,0.0,0.004761,2
1672945730599367327,193554,1672945730630288483,gps,2,1,42.3009723888,-83.6979849408,272.434448242,0.001089,0.0,0.0,0.0,0.001089,0.0,0.0,0.0,0.004761,2
1672945730619095689,193555,1672945730650235415,gps,2,1,42.3009724208,-83.6979860705,272.43170166,0.001089,0.0,0.0,0.0,0.001089,0.0,0.0,0.0,0.004761,2
1672945730638836233,193556,1672945730670181946,gps,2,1,42.3009724535,-83.6979872,272.429138184,0.001089,0.0,0.0,0.0,0.001089,0.0,0.0,0.0,0.004761,2
1672945730659175133,193557,1672945730690228850,gps,2,1,42.300972506,-83.6979883255,272.426452637,0.001089,0.0,0.0,0.0,0.001089,0.0,0.0,0.0,0.004761,2
1672945730679287994,193558,1672945730710177232,gps,2,1,42.3009725412,-83.6979894627,272.423492432,0.001089,0.0,0.0,0.0,0.001089,0.0,0.0,0.0,0.004761,2
1672945730699240233,193559,1672945730730203843,gps,2,1,42.3009725757,-83.6979906012,272.420471191,0.001089,0.0,0.0,0.0,0.001089,0.0,0.0,0.0,0.004761,2
1672945730719289372,193560,1672945730750259274,gps,2,1,42.3009726297,-83.697991735,272.417510986,0.001089,0.0,0.0,0.0,0.001089,0.0,0.0,0.0,0.004761,2
1672945730738959182,193561,1672945730770210360,gps,2,1,42.3009726664,-83.6979928813,272.414459229,0.001089,0.0,0.0,0.0,0.001089,0.0,0.0,0.0,0.004761,2
1672945730758951909,193562,1672945730790294791,gps,2,1,42.3009727034,-83.6979940271,272.411376953,0.001089,0.0,0.0,0.0,0.001089,0.0,0.0,0.0,0.004761,2
1672945730779358120,193563,1672945730810286443,gps,2,1,42.3009727584,-83.6979951687,272.408569336,0.001089,0.0,0.0,0.0,0.001089,0.0,0.0,0.0,0.004761,2
1672945730799245793,193564,1672945730830244379,gps,2,1,42.3009727945,-83.6979963235,272.405761719,0.001089,0.0,0.0,0.0,0.001089,0.0,0.0,0.0,0.004761,2
1672945730819495309,193565,1672945730850191008,gps,2,1,42.3009728316,-83.6979974779,272.402984619,0.001089,0.0,0.0,0.0,0.001089,0.0,0.0,0.0,0.004761,2
1672945730839338885,193566,1672945730870281743,gps,2,1,42.3009728864,-83.6979986268,272.400360107,0.001089,0.0,0.0,0.0,0.001089,0.0,0.0,0.0,0.004761,2
1672945730859231633,193567,1672945730890272725,gps,2,1,42.3009729233,-83.6979997878,272.397857666,0.001089,0.0,0.0,0.0,0.001089,0.0,0.0,0.0,0.004761,2
1672945730879319061,193568,1672945730910214317,gps,2,1,42.3009729606,-83.6980009485,272.395355225,0.001089,0.0,0.0,0.0,0.001089,0.0,0.0,0.0,0.004761,2
1672945730898912671,193569,1672945730930210276,gps,2,1,42.3009730141,-83.6980021041,272.393096924,0.001089,0.0,0.0,0.0,0.001089,0.0,0.0,0.0,0.004761,2
1672945730918855593,193570,1672945730950185954,gps,2,1,42.3009730512,-83.6980032692,272.390899658,0.001089,0.0,0.0,0.0,0.001089,0.0,0.0,0.0,0.004761,2
1672945730938843085,193571,1672945730970135978,gps,2,1,42.3009730886,-83.6980044338,272.38873291,0.001089,0.0,0.0,0.0,0.001089,0.0,0.0,0.0,0.004761,2
1672945730959371009,193572,1672945730990238790,gps,2,1,42.3009731406,-83.6980055954,272.386688232,0.001089,0.0,0.0,0.0,0.001089,0.0,0.0,0.0,0.004761,2
1672945730979054754,193573,1672945731010155408,gps,2,1,42.3009731769,-83.698006765,272.384552002,0.001089,0.0,0.0,0.0,0.001089,0.0,0.0,0.0,0.004761,2
1672945730999133599,193574,1672945731030238699,gps,2,1,42.300973209,-83.6980079391,272.382446289,0.001089,0.0,0.0,0.0,0.001089,0.0,0.0,0.0,0.004761,2
1672945731018954318,193575,1672945731050275707,gps,2,1,42.300973258,-83.6980091062,272.380279541,0.001089,0.0,0.0,0.0,0.001089,0.0,0.0,0.0,0.004761,2
1672945731039323135,193576,1672945731070356842,gps,2,1,42.3009732804,-83.6980102847,272.378143311,0.001089,0.0,0.0,0.0,0.001089,0.0,0.0,0.0,0.004761,2
1672945731059108877,193577,1672945731090264601,gps,2,1,42.3009733033,-83.6980114622,272.37588501,0.001089,0.0,0.0,0.0,0.001089,0.0,0.0,0.0,0.004761,2
1672945731078847840,193578,1672945731110230395,gps,2,1,42.3009733495,-83.6980126321,272.374053955,0.001089,0.0,0.0,0.0,0.001089,0.0,0.0,0.0,0.004761,2
1672945731098813854,193579,1672945731130218586,gps,2,1,42.3009733684,-83.6980138134,272.372314453,0.001089,0.0,0.0,0.0,0.001089,0.0,0.0,0.0,0.004761,2
1672945731119160854,193580,1672945731150155695,gps,2,1,42.3009733884,-83.6980149943,272.370574951,0.001089,0.0,0.0,0.0,0.001089,0.0,0.0,0.0,0.004761,2
1672945731139305217,193581,1672945731170176162,gps,2,1,42.3009734306,-83.698016168,272.368682861,0.001089,0.0,0.0,0.0,0.001089,0.0,0.0,0.0,0.004761,2
1672945731159346003,193582,1672945731190240957,gps,2,1,42.3009734473,-83.6980173506,272.366455078,0.001089,0.0,0.0,0.0,0.001089,0.0,0.0,0.0,0.004761,2
1672945731178898666,193583,1672945731210133987,gps,2,1,42.3009734639,-83.6980185326,272.364135742,0.001089,0.0,0.0,0.0,0.001089,0.0,0.0,0.0,0.004761,2
1672945731198759302,193584,1672945731230162327,gps,2,1,42.3009735019,-83.6980197096,272.361755371,0.001089,0.0,0.0,0.0,0.001089,0.0,0.0,0.0,0.004761,2
1672945731219177910,193585,1672945731250208117,gps,2,1,42.3009735169,-83.6980208943,272.358825684,0.001089,0.0,0.0,0.0,0.001089,0.0,0.0,0.0,0.004761,2
1672945731239076031,193586,1672945731270144050,gps,2,1,42.3009735325,-83.6980220797,272.355895996,0.001089,0.0,0.0,0.0,0.001089,0.0,0.0,0.0,0.004761,2
1672945731259201994,193587,1672945731290157982,gps,2,1,42.3009735691,-83.6980232591,272.352935791,0.001089,0.0,0.0,0.0,0.001089,0.0,0.0,0.0,0.004761,2
1672945731279027932,193588,1672945731310223839,gps,2,1,42.3009735847,-83.6980244493,272.349609375,0.001089,0.0,0.0,0.0,0.001089,0.0,0.0,0.0,0.004761,2
1672945731299190207,193589,1672945731330151348,gps,2,1,42.3009736013,-83.6980256392,272.346252441,0.001089,0.0,0.0,0.0,0.001089,0.0,0.0,0.0,0.004761,2
1672945731319069573,193590,1672945731350231807,gps,2,1,42.3009736375,-83.6980268223,272.34286499,0.001089,0.0,0.0,0.0,0.001089,0.0,0.0,0.0,0.004761,2
1672945731338723085,193591,1672945731370179768,gps,2,1,42.3009736554,-83.698028015,272.339172363,0.001089,0.0,0.0,0.0,0.001089,0.0,0.0,0.0,0.004761,2
1672945731359123532,193592,1672945731390267919,gps,2,1,42.3009736738,-83.6980292078,272.335327148,0.001089,0.0,0.0,0.0,0.001089,0.0,0.0,0.0,0.004761,2
1672945731379151008,193593,1672945731410245756,gps,2,1,42.3009737109,-83.6980303938,272.331695557,0.001089,0.0,0.0,0.0,0.001089,0.0,0.0,0.0,0.004761,2
1672945731399120155,193594,1672945731430236746,gps,2,1,42.3009737295,-83.6980315887,272.327758789,0.001089,0.0,0.0,0.0,0.001089,0.0,0.0,0.0,0.004761,2
1672945731419027176,193595,1672945731450161378,gps,2,1,42.3009737487,-83.6980327842,272.323822021,0.001089,0.0,0.0,0.0,0.001089,0.0,0.0,0.0,0.004761,2
1672945731439097645,193596,1672945731470179483,gps,2,1,42.3009737877,-83.6980339737,272.320129395,0.001089,0.0,0.0,0.0,0.001089,0.0,0.0,0.0,0.004761,2
1672945731458746066,193597,1672945731490260775,gps,2,1,42.3009738095,-83.6980351715,272.316223145,0.001089,0.0,0.0,0.0,0.001089,0.0,0.0,0.0,0.004761,2
1672945731478688807,193598,1672945731510156063,gps,2,1,42.3009738313,-83.6980363687,272.312286377,0.001089,0.0,0.0,0.0,0.001089,0.0,0.0,0.0,0.004761,2
1672945731498950747,193599,1672945731530298646,gps,2,1,42.3009738722,-83.6980375618,272.308441162,0.001089,0.0,0.0,0.0,0.001089,0.0,0.0,0.0,0.004761,2
1672945731518890602,193600,1672945731550235684,gps,2,1,42.3009738903,-83.6980387627,272.304138184,0.001089,0.0,0.0,0.0,0.001089,0.0,0.0,0.0,0.004761,2
1672945731539160800,193601,1672945731570275755,gps,2,1,42.300973909,-83.6980399637,272.299865723,0.001089,0.0,0.0,0.0,0.001089,0.0,0.0,0.0,0.004761,2
1672945731559134704,193602,1672945731590237692,gps,2,1,42.30097395,-83.69804116,272.296051025,0.001089,0.0,0.0,0.0,0.001089,0.0,0.0,0.0,0.004761,2
1672945731579181730,193603,1672945731610197806,gps,2,1,42.3009739683,-83.6980423641,272.29208374,0.001089,0.0,0.0,0.0,0.001089,0.0,0.0,0.0,0.004761,2
1672945731599075198,193604,1672945731630174445,gps,2,1,42.3009739856,-83.6980435689,272.288146973,0.001089,0.0,0.0,0.0,0.001089,0.0,0.0,0.0,0.004761,2
1672945731619034324,193605,1672945731650240931,gps,2,1,42.3009740234,-83.6980447692,272.284698486,0.001089,0.0,0.0,0.0,0.001089,0.0,0.0,0.0,0.004761,2
1672945731638806565,193606,1672945731670150960,gps,2,1,42.300974037,-83.6980459782,272.281188965,0.001089,0.0,0.0,0.0,0.001089,0.0,0.0,0.0,0.004761,2
1672945731659044107,193607,1672945731690174291,gps,2,1,42.3009740509,-83.6980471868,272.277679443,0.001089,0.0,0.0,0.0,0.001089,0.0,0.0,0.0,0.004761,2
1672945731679000152,193608,1672945731710185426,gps,2,1,42.3009740829,-83.6980483909,272.274505615,0.001089,0.0,0.0,0.0,0.001089,0.0,0.0,0.0,0.004761,2
1672945731698976821,193609,1672945731730232418,gps,2,1,42.3009740908,-83.6980496024,272.271209717,0.001089,0.0,0.0,0.0,0.001089,0.0,0.0,0.0,0.004761,2
1672945731718927618,193610,1672945731750189356,gps,2,1,42.3009740993,-83.698050814,272.267944336,0.001089,0.0,0.0,0.0,0.001089,0.0,0.0,0.0,0.004761,2
1672945731739043754,193611,1672945731770148919,gps,2,1,42.3009741261,-83.6980520208,272.265014648,0.001089,0.0,0.0,0.0,0.001089,0.0,0.0,0.0,0.004761,2
1672945731759298745,193612,1672945731790292089,gps,2,1,42.3009741312,-83.6980532347,272.262023926,0.001089,0.0,0.0,0.0,0.001089,0.0,0.0,0.0,0.004761,2
1672945731779258041,193613,1672945731810157279,gps,2,1,42.3009741354,-83.6980544492,272.258972168,0.001089,0.0,0.0,0.0,0.001089,0.0,0.0,0.0,0.004761,2
1672945731799086314,193614,1672945731830233827,gps,2,1,42.3009741597,-83.6980556581,272.256256104,0.001089,0.0,0.0,0.0,0.001089,0.0,0.0,0.0,0.004761,2
1672945731819043880,193615,1672945731850165221,gps,2,1,42.3009741633,-83.6980568746,272.253265381,0.001089,0.0,0.0,0.0,0.001089,0.0,0.0,0.0,0.004761,2
1672945731839023891,193616,1672945731870105118,gps,2,1,42.3009741678,-83.6980580898,272.250335693,0.001089,0.0,0.0,0.0,0.001089,0.0,0.0,0.0,0.004761,2
1672945731858991394,193617,1672945731890279495,gps,2,1,42.300974192,-83.6980593005,272.247619629,0.001089,0.0,0.0,0.0,0.001089,0.0,0.0,0.0,0.004761,2
1672945731878842038,193618,1672945731910190794,gps,2,1,42.3009741985,-83.6980605176,272.244659424,0.001089,0.0,0.0,0.0,0.001089,0.0,0.0,0.0,0.004761,2
1672945731898779797,193619,1672945731930178563,gps,2,1,42.3009742051,-83.6980617347,272.241760254,0.001089,0.0,0.0,0.0,0.001089,0.0,0.0,0.0,0.004761,2
1672945731919098209,193620,1672945731950227755,gps,2,1,42.3009742311,-83.6980629457,272.239074707,0.001089,0.0,0.0,0.0,0.001089,0.0,0.0,0.0,0.004761,2
1672945731938803174,193621,1672945731970139818,gps,2,1,42.3009742407,-83.6980641636,272.23626709,0.001089,0.0,0.0,0.0,0.001089,0.0,0.0,0.0,0.004761,2
1672945731959041692,193622,1672945731990157484,gps,2,1,42.300974251,-83.6980653807,272.233520508,0.001089,0.0,0.0,0.0,0.001089,0.0,0.0,0.0,0.004761,2
1672945731979008343,193623,1672945732010197194,gps,2,1,42.3009742792,-83.6980665922,272.231079102,0.001089,0.0,0.0,0.0,0.001089,0.0,0.0,0.0,0.004761,2
1672945731999055976,193624,1672945732030099553,gps,2,1,42.3009742916,-83.6980678092,272.228668213,0.001089,0.0,0.0,0.0,0.001089,0.0,0.0,0.0,0.004761,2
1672945732019303379,193625,1672945732050267235,gps,2,1,42.3009743044,-83.6980690254,272.226318359,0.001089,0.0,0.0,0.0,0.001089,0.0,0.0,0.0,0.004761,2
1672945732039115690,193626,1672945732070187035,gps,2,1,42.3009743346,-83.6980702372,272.224182129,0.001089,0.0,0.0,0.0,0.001089,0.0,0.0,0.0,0.004761,2
1672945732058748506,193627,1672945732090122199,gps,2,1,42.3009743431,-83.6980714551,272.222045898,0.001089,0.0,0.0,0.0,0.001089,0.0,0.0,0.0,0.004761,2
1672945732079258563,193628,1672945732110202896,gps,2,1,42.3009743522,-83.6980726733,272.219940186,0.001089,0.0,0.0,0.0,0.001089,0.0,0.0,0.0,0.004761,2
1672945732099260817,193629,1672945732130300497,gps,2,1,42.3009743819,-83.698073886,272.217956543,0.001089,0.0,0.0,0.0,0.001089,0.0,0.0,0.0,0.004761,2
1672945732119013864,193630,1672945732150264263,gps,2,1,42.3009743912,-83.6980751069,272.21585083,0.001089,0.0,0.0,0.0,0.001089,0.0,0.0,0.0,0.004761,2
1672945732139001885,193631,1672945732170257467,gps,2,1,42.3009744006,-83.6980763282,272.2137146,0.001089,0.0,0.0,0.0,0.001089,0.0,0.0,0.0,0.004761,2
1672945732158850356,193632,1672945732190234839,gps,2,1,42.3009744275,-83.6980775417,272.211669922,0.001089,0.0,0.0,0.0,0.001089,0.0,0.0,0.0,0.004761,2
1672945732179122579,193633,1672945732210207104,gps,2,1,42.3009744336,-83.6980787632,272.209381104,0.001089,0.0,0.0,0.0,0.001089,0.0,0.0,0.0,0.004761,2
1672945732199184234,193634,1672945732230188543,gps,2,1,42.300974439,-83.6980799829,272.207122803,0.001089,0.0,0.0,0.0,0.001089,0.0,0.0,0.0,0.004761,2
1672945732219197270,193635,1672945732250213841,gps,2,1,42.3009744609,-83.6980811974,272.204833984,0.001089,0.0,0.0,0.0,0.001089,0.0,0.0,0.0,0.004761,2
1672945732239072351,193636,1672945732270118842,gps,2,1,42.3009744619,-83.6980824177,272.202331543,0.001089,0.0,0.0,0.0,0.001089,0.0,0.0,0.0,0.004761,2
1672945732259138795,193637,1672945732290158802,gps,2,1,42.3009744647,-83.698083638,272.199829102,0.001089,0.0,0.0,0.0,0.001089,0.0,0.0,0.0,0.004761,2
1672945732279057359,193638,1672945732310122664,gps,2,1,42.300974482,-83.6980848534,272.197357178,0.001089,0.0,0.0,0.0,0.001089,0.0,0.0,0.0,0.004761,2
1672945732298945412,193639,1672945732330218608,gps,2,1,42.3009744808,-83.6980860745,272.194702148,0.001089,0.0,0.0,0.0,0.001089,0.0,0.0,0.0,0.004761,2
1672945732319083083,193640,1672945732350145056,gps,2,1,42.30097448,-83.6980872956,272.192047119,0.001089,0.0,0.0,0.0,0.001089,0.0,0.0,0.0,0.004761,2
1672945732339030166,193641,1672945732370152049,gps,2,1,42.3009744949,-83.6980885122,272.189453125,0.001089,0.0,0.0,0.0,0.001089,0.0,0.0,0.0,0.004761,2
1672945732359048520,193642,1672945732390188645,gps,2,1,42.3009744935,-83.6980897336,272.186859131,0.001089,0.0,0.0,0.0,0.001089,0.0,0.0,0.0,0.004761,2
1672945732379036583,193643,1672945732410172060,gps,2,1,42.3009744929,-83.6980909548,272.184265137,0.001089,0.0,0.0,0.0,0.001089,0.0,0.0,0.0,0.004761,2
1672945732399018911,193644,1672945732430228942,gps,2,1,42.3009745079,-83.6980921719,272.18182373,0.001089,0.0,0.0,0.0,0.001089,0.0,0.0,0.0,0.004761,2
1672945732418969568,193645,1672945732450149208,gps,2,1,42.300974509,-83.6980933925,272.179412842,0.001089,0.0,0.0,0.0,0.001089,0.0,0.0,0.0,0.004761,2
1672945732438958577,193646,1672945732470130802,gps,2,1,42.3009745103,-83.6980946132,272.177032471,0.001089,0.0,0.0,0.0,0.001089,0.0,0.0,0.0,0.004761,2
1672945732459323534,193647,1672945732490192139,gps,2,1,42.300974527,-83.6980958307,272.174865723,0.001089,0.0,0.0,0.0,0.001089,0.0,0.0,0.0,0.004761,2
1672945732479113865,193648,1672945732510126553,gps,2,1,42.3009745308,-83.6980970511,272.17288208,0.001089,0.0,0.0,0.0,0.001089,0.0,0.0,0.0,0.004761,2
1672945732499240189,193649,1672945732530127955,gps,2,1,42.3009745368,-83.6980982741,272.170715332,0.001089,0.0,0.0,0.0,0.001089,0.0,0.0,0.0,0.004761,2
1672945732519141577,193650,1672945732550226924,gps,2,1,42.3009745553,-83.6980994919,272.168945312,0.001089,0.0,0.0,0.0,0.001089,0.0,0.0,0.0,0.004761,2
1672945732539165520,193651,1672945732570258209,gps,2,1,42.3009745628,-83.6981007145,272.167266846,0.001089,0.0,0.0,0.0,0.001089,0.0,0.0,0.0,0.004761,2
1672945732559056335,193652,1672945732590186011,gps,2,1,42.3009745665,-83.6981019381,272.165435791,0.001089,0.0,0.0,0.0,0.001089,0.0,0.0,0.0,0.004761,2
1672945732579081449,193653,1672945732610243745,gps,2,1,42.3009745862,-83.6981031558,272.164093018,0.001089,0.0,0.0,0.0,0.001089,0.0,0.0,0.0,0.004761,2
1672945732598860069,193654,1672945732630145907,gps,2,1,42.3009745935,-83.6981043839,272.162414551,0.001089,0.0,0.0,0.0,0.001089,0.0,0.0,0.0,0.004761,2
1672945732618721490,193655,1672945732650125598,gps,2,1,42.3009746011,-83.6981056126,272.160797119,0.001089,0.0,0.0,0.0,0.001089,0.0,0.0,0.0,0.004761,2
1672945732639064802,193656,1672945732670103798,gps,2,1,42.3009746207,-83.6981068303,272.159667969,0.001089,0.0,0.0,0.0,0.001089,0.0,0.0,0.0,0.004761,2
