%time,field.header.seq,field.header.stamp,field.header.frame_id,field.status.status,field.status.service,field.latitude,field.longitude,field.altitude,field.position_covariance0,field.position_covariance1,field.position_covariance2,field.position_covariance3,field.position_covariance4,field.position_covariance5,field.position_covariance6,field.position_covariance7,field.position_covariance8,field.position_covariance_type
1672944145200728864,114283,1672944145214264957,gps,2,1,42.2999273129,-83.6985059535,270.273681641,0.000961,0.0,0.0,0.0,0.000961,0.0,0.0,0.0,0.005184,2
1672944145220535060,114284,1672944145234336715,gps,2,1,42.2999277723,-83.6985061108,270.275268555,0.000961,0.0,0.0,0.0,0.000961,0.0,0.0,0.0,0.005184,2
1672944145240629218,114285,1672944145254303869,gps,2,1,42.2999282337,-83.6985062645,270.276885986,0.000961,0.0,0.0,0.0,0.000961,0.0,0.0,0.0,0.005184,2
1672944145260457825,114286,1672944145274290284,gps,2,1,42.2999287013,-83.6985064254,270.278381348,0.000961,0.0,0.0,0.0,0.000961,0.0,0.0,0.0,0.005184,2
1672944145280617864,114287,1672944145294287871,gps,2,1,42.2999291692,-83.6985065861,270.279876709,0.000961,0.0,0.0,0.0,0.000961,0.0,0.0,0.0,0.005184,2
1672944145300866992,114288,1672944145314355663,gps,2,1,42.2999296389,-83.6985067435,270.281341553,0.000961,0.0,0.0,0.0,0.000961,0.0,0.0,0.0,0.005184,2
1672944145320818035,114289,1672944145334254893,gps,2,1,42.2999301133,-83.6985069077,270.282684326,0.000961,0.0,0.0,0.0,0.000961,0.0,0.0,0.0,0.005184,2
1672944145340238082,114290,1672944145354244017,gps,2,1,42.2999305881,-83.6985070718,270.284057617,0.000961,0.0,0.0,0.0,0.000961,0.0,0.0,0.0,0.005184,2
1672944145360807242,114291,1672944145374326573,gps,2,1,42.2999310653,-83.6985072328,270.285339355,0.000961,0.0,0.0,0.0,0.000961,0.0,0.0,0.0,0.005184,2
1672944145380566041,114292,1672944145394330617,gps,2,1,42.2999315464,-83.6985074003,270.286590576,0.000961,0.0,0.0,0.0,0.000961,0.0,0.0,0.0,0.005184,2
1672944145400745588,114293,1672944145414313417,gps,2,1,42.2999320279,-83.6985075679,270.287811279,0.000961,0.0,0.0,0.0,0.000961,0.0,0.0,0.0,0.005184,2
1672944145420539782,114294,1672944145434340310,gps,2,1,42.2999325112,-83.6985077327,270.289031982,0.000961,0.0,0.0,0.0,0.000961,0.0,0.0,0.0,0.005184,2
1672944145440385643,114295,1672944145454269448,gps,2,1,42.299932999,-83.6985079046,270.290283203,0.000961,0.0,0.0,0.0,0.000961,0.0,0.0,0.0,0.005184,2
1672944145460460956,114296,1672944145474280453,gps,2,1,42.2999334871,-83.6985080766,270.291564941,0.000961,0.0,0.0,0.0,0.000961,0.0,0.0,0.0,0.005184,2
1672944145480392576,114297,1672944145494308777,gps,2,1,42.2999339762,-83.6985082458,270.292907715,0.000961,0.0,0.0,0.0,0.000961,0.0,0.0,0.0,0.005184,2
1672944145500422979,114298,1672944145514294995,gps,2,1,42.2999344696,-83.6985084216,270.294311523,0.000961,0.0,0.0,0.0,0.000961,0.0,0.0,0.0,0.005184,2
1672944145520267495,114299,1672944145534304278,gps,2,1,42.2999349606,-83.6985086003,270.295776367,0.000961,0.0,0.0,0.0,0.000961,0.0,0.0,0.0,0.005184,2
1672944145540727729,114300,1672944145554350301,gps,2,1,42.2999354552,-83.6985087732,270.297241211,0.000961,0.0,0.0,0.0,0.000961,0.0,0.0,0.0,0.005184,2
1672944145560721278,114301,1672944145574457802,gps,2,1,42.2999359515,-83.6985089539,270.298828125,0.000961,0.0,0.0,0.0,0.000961,0.0,0.0,0.0,0.005184,2
1672944145580393718,114302,1672944145594398683,gps,2,1,42.2999364481,-83.6985091373,270.300476074,0.000961,0.0,0.0,0.0,0.000961,0.0,0.0,0.0,0.005184,2
1672944145600881383,114303,1672944145614379624,gps,2,1,42.299936948,-83.6985093119,270.302124023,0.000961,0.0,0.0,0.0,0.000961,0.0,0.0,0.0,0.005184,2
1672944145620359127,114304,1672944145634304757,gps,2,1,42.2999374526,-83.6985094945,270.303863525,0.000961,0.0,0.0,0.0,0.000961,0.0,0.0,0.0,0.005184,2
1672944145640276875,114305,1672944145654236824,gps,2,1,42.2999379575,-83.6985096765,270.305603027,0.000961,0.0,0.0,0.0,0.000961,0.0,0.0,0.0,0.005184,2
1672944145660192498,114306,1672944145674313996,gps,2,1,42.2999384625,-83.6985098527,270.307312012,0.000961,0.0,0.0,0.0,0.000961,0.0,0.0,0.0,0.005184,2
1672944145680470570,114307,1672944145694272022,gps,2,1,42.2999389719,-83.6985100357,270.309051514,0.000961,0.0,0.0,0.0,0.000961,0.0,0.0,0.0,0.005184,2
1672944145700632419,114308,1672944145714370645,gps,2,1,42.2999394812,-83.6985102186,270.310791016,0.000961,0.0,0.0,0.0,0.000961,0.0,0.0,0.0,0.005184,2
1672944145720357246,114309,1672944145734279383,gps,2,1,42.2999399907,-83.6985103958,270.312469482,0.000961,0.0,0.0,0.0,0.000961,0.0,0.0,0.0,0.005184,2
1672944145740538017,114310,1672944145754302480,gps,2,1,42.299940503,-83.6985105797,270.314147949,0.000961,0.0,0.0,0.0,0.000961,0.0,0.0,0.0,0.005184,2
1672944145760225179,114311,1672944145774269465,gps,2,1,42.2999410151,-83.6985107632,270.315826416,0.000961,0.0,0.0,0.0,0.000961,0.0,0.0,0.0,0.005184,2
1672944145780810263,114312,1672944145794423054,gps,2,1,42.2999415287,-83.6985109413,270.3175354,0.001156,0.0,0.0,0.0,0.001156,0.0,0.0,0.0,0.005329,2
1672944145800817511,114313,1672944145814272775,gps,2,1,42.2999420449,-83.6985111276,270.319335938,0.001156,0.0,0.0,0.0,0.001156,0.0,0.0,0.0,0.005329,2
1672944145820747393,114314,1672944145834324722,gps,2,1,42.2999425611,-83.6985113139,270.321136475,0.001156,0.0,0.0,0.0,0.001156,0.0,0.0,0.0,0.005329,2
1672944145840397118,114315,1672944145854343588,gps,2,1,42.2999430785,-83.6985114934,270.322937012,0.001156,0.0,0.0,0.0,0.001156,0.0,0.0,0.0,0.005329,2
1672944145860296884,114316,1672944145874292041,gps,2,1,42.2999435985,-83.6985116816,270.324859619,0.001156,0.0,0.0,0.0,0.001156,0.0,0.0,0.0,0.005329,2
1672944145880496833,114317,1672944145894407434,gps,2,1,42.2999441185,-83.6985118698,270.326782227,0.001156,0.0,0.0,0.0,0.001156,0.0,0.0,0.0,0.005329,2
1672944145900709422,114318,1672944145914302338,gps,2,1,42.2999446395,-83.698512052,270.328582764,0.001156,0.0,0.0,0.0,0.001156,0.0,0.0,0.0,0.005329,2
1672944145920354811,114319,1672944145934264756,gps,2,1,42.2999451632,-83.6985122456,270.330352783,0.001156,0.0,0.0,0.0,0.001156,0.0,0.0,0.0,0.005329,2
1672944145940408483,114320,1672944145954283365,gps,2,1,42.2999456868,-83.6985124384,270.33215332,0.001156,0.0,0.0,0.0,0.001156,0.0,0.0,0.0,0.005329,2
1672944145960402575,114321,1672944145974282061,gps,2,1,42.299946211,-83.6985126244,270.333862305,0.001156,0.0,0.0,0.0,0.001156,0.0,0.0,0.0,0.005329,2
1672944145980388013,114322,1672944145994286727,gps,2,1,42.2999467376,-83.6985128212,270.335571289,0.001156,0.0,0.0,0.0,0.001156,0.0,0.0,0.0,0.005329,2
1672944146000326439,114323,1672944146014309207,gps,2,1,42.2999472643,-83.6985130177,270.337249756,0.001156,0.0,0.0,0.0,0.001156,0.0,0.0,0.0,0.005329,2
1672944146020489252,114324,1672944146034345707,gps,2,1,42.2999477918,-83.6985132075,270.338928223,0.001156,0.0,0.0,0.0,0.001156,0.0,0.0,0.0,0.005329,2
1672944146040421175,114325,1672944146054386183,gps,2,1,42.2999483236,-83.6985134084,270.340484619,0.001156,0.0,0.0,0.0,0.001156,0.0,0.0,0.0,0.005329,2
1672944146060569446,114326,1672944146074438782,gps,2,1,42.2999488552,-83.6985136088,270.342102051,0.001156,0.0,0.0,0.0,0.001156,0.0,0.0,0.0,0.005329,2
1672944146080426189,114327,1672944146094340172,gps,2,1,42.2999493865,-83.6985138027,270.343719482,0.001156,0.0,0.0,0.0,0.001156,0.0,0.0,0.0,0.005329,2
1672944146100482909,114328,1672944146114310874,gps,2,1,42.299949922,-83.6985140066,270.345306396,0.001156,0.0,0.0,0.0,0.001156,0.0,0.0,0.0,0.005329,2
1672944146120351202,114329,1672944146134310061,gps,2,1,42.2999504591,-83.6985142113,270.346862793,0.001156,0.0,0.0,0.0,0.001156,0.0,0.0,0.0,0.005329,2
1672944146140271415,114330,1672944146154351337,gps,2,1,42.2999509948,-83.6985144089,270.348571777,0.001156,0.0,0.0,0.0,0.001156,0.0,0.0,0.0,0.005329,2
1672944146160401869,114331,1672944146174332228,gps,2,1,42.2999515363,-83.6985146167,270.350219727,0.001156,0.0,0.0,0.0,0.001156,0.0,0.0,0.0,0.005329,2
1672944146180415989,114332,1672944146194348982,gps,2,1,42.299952078,-83.6985148245,270.351898193,0.001156,0.0,0.0,0.0,0.001156,0.0,0.0,0.0,0.005329,2
1672944146200564815,114333,1672944146214336167,gps,2,1,42.2999526187,-83.6985150255,270.353729248,0.001156,0.0,0.0,0.0,0.001156,0.0,0.0,0.0,0.005329,2
1672944146220486348,114334,1672944146234365359,gps,2,1,42.2999531642,-83.6985152363,270.355499268,0.001156,0.0,0.0,0.0,0.001156,0.0,0.0,0.0,0.005329,2
1672944146240561233,114335,1672944146254281367,gps,2,1,42.2999537099,-83.6985154468,270.357330322,0.001156,0.0,0.0,0.0,0.001156,0.0,0.0,0.0,0.005329,2
1672944146260374243,114336,1672944146274345581,gps,2,1,42.299954256,-83.6985156497,270.359313965,0.001156,0.0,0.0,0.0,0.001156,0.0,0.0,0.0,0.005329,2
1672944146280264831,114337,1672944146294326292,gps,2,1,42.2999548068,-83.6985158612,270.36126709,0.001156,0.0,0.0,0.0,0.001156,0.0,0.0,0.0,0.005329,2
1672944146300189501,114338,1672944146314237468,gps,2,1,42.2999553585,-83.6985160733,270.363342285,0.001156,0.0,0.0,0.0,0.001156,0.0,0.0,0.0,0.005329,2
1672944146320567007,114339,1672944146334348868,gps,2,1,42.2999559102,-83.698516277,270.36541748,0.001156,0.0,0.0,0.0,0.001156,0.0,0.0,0.0,0.005329,2
1672944146340488791,114340,1672944146354344140,gps,2,1,42.2999564669,-83.6985164894,270.367614746,0.001156,0.0,0.0,0.0,0.001156,0.0,0.0,0.0,0.005329,2
1672944146360459497,114341,1672944146374258248,gps,2,1,42.2999570239,-83.6985167017,270.369812012,0.001156,0.0,0.0,0.0,0.001156,0.0,0.0,0.0,0.005329,2
1672944146380587498,114342,1672944146394436152,gps,2,1,42.2999575811,-83.6985169064,270.372039795,0.001156,0.0,0.0,0.0,0.001156,0.0,0.0,0.0,0.005329,2
1672944146400352916,114343,1672944146414321456,gps,2,1,42.2999581437,-83.6985171194,270.374359131,0.001156,0.0,0.0,0.0,0.001156,0.0,0.0,0.0,0.005329,2
1672944146420289269,114344,1672944146434251392,gps,2,1,42.299958705,-83.6985173327,270.376647949,0.001156,0.0,0.0,0.0,0.001156,0.0,0.0,0.0,0.005329,2
1672944146440433922,114345,1672944146454316243,gps,2,1,42.2999592681,-83.6985175386,270.378936768,0.001156,0.0,0.0,0.0,0.001156,0.0,0.0,0.0,0.005329,2
1672944146460191468,114346,1672944146474329427,gps,2,1,42.2999598354,-83.698517753,270.381225586,0.001156,0.0,0.0,0.0,0.001156,0.0,0.0,0.0,0.005329,2
1672944146480452089,114347,1672944146494333973,gps,2,1,42.2999604043,-83.6985179679,270.383514404,0.001156,0.0,0.0,0.0,0.001156,0.0,0.0,0.0,0.005329,2
1672944146500462817,114348,1672944146514306878,gps,2,1,42.2999609737,-83.6985181755,270.385681152,0.001156,0.0,0.0,0.0,0.001156,0.0,0.0,0.0,0.005329,2
1672944146520524002,114349,1672944146534380870,gps,2,1,42.299961549,-83.6985183919,270.387786865,0.001156,0.0,0.0,0.0,0.001156,0.0,0.0,0.0,0.005329,2
1672944146540461874,114350,1672944146554288304,gps,2,1,42.2999621249,-83.6985186101,270.389801025,0.001156,0.0,0.0,0.0,0.001156,0.0,0.0,0.0,0.005329,2
1672944146560876433,114351,1672944146574529560,gps,2,1,42.2999627008,-83.69851882,270.391815186,0.001156,0.0,0.0,0.0,0.001156,0.0,0.0,0.0,0.005329,2
1672944146580566759,114352,1672944146594421340,gps,2,1,42.2999632829,-83.6985190402,270.393707275,0.001156,0.0,0.0,0.0,0.001156,0.0,0.0,0.0,0.005329,2
1672944146600408186,114353,1672944146614293596,gps,2,1,42.2999638637,-83.6985192607,270.395599365,0.001156,0.0,0.0,0.0,0.001156,0.0,0.0,0.0,0.005329,2
1672944146620469584,114354,1672944146634361412,gps,2,1,42.2999644461,-83.698519473,270.397583008,0.001156,0.0,0.0,0.0,0.001156,0.0,0.0,0.0,0.005329,2
1672944146640403421,114355,1672944146654280261,gps,2,1,42.2999650331,-83.6985196953,270.399597168,0.001156,0.0,0.0,0.0,0.001156,0.0,0.0,0.0,0.005329,2
1672944146660676801,114356,1672944146674297024,gps,2,1,42.2999656205,-83.6985199174,270.401580811,0.001156,0.0,0.0,0.0,0.001156,0.0,0.0,0.0,0.005329,2
1672944146680434966,114357,1672944146694305163,gps,2,1,42.2999662093,-83.698520132,270.403747559,0.001156,0.0,0.0,0.0,0.001156,0.0,0.0,0.0,0.005329,2
1672944146700326631,114358,1672944146714257374,gps,2,1,42.2999668028,-83.6985203558,270.406005859,0.001156,0.0,0.0,0.0,0.001156,0.0,0.0,0.0,0.005329,2
1672944146720446618,114359,1672944146734318440,gps,2,1,42.2999673972,-83.6985205814,270.408233643,0.001156,0.0,0.0,0.0,0.001156,0.0,0.0,0.0,0.005329,2
1672944146740573733,114360,1672944146754339855,gps,2,1,42.2999679926,-83.698520798,270.410614014,0.001156,0.0,0.0,0.0,0.001156,0.0,0.0,0.0,0.005329,2
1672944146760501960,114361,1672944146774351059,gps,2,1,42.2999685933,-83.6985210262,270.41305542,0.001156,0.0,0.0,0.0,0.001156,0.0,0.0,0.0,0.005329,2
1672944146780618145,114362,1672944146794249302,gps,2,1,42.2999691939,-83.6985212551,270.415466309,0.001156,0.0,0.0,0.0,0.001156,0.0,0.0,0.0,0.005329,2
1672944146800092246,114363,1672944146814302387,gps,2,1,42.2999697961,-83.6985214758,270.417999268,0.001156,0.0,0.0,0.0,0.001156,0.0,0.0,0.0,0.005329,2
1672944146820493042,114364,1672944146834304564,gps,2,1,42.2999704032,-83.6985217088,270.420440674,0.001156,0.0,0.0,0.0,0.001156,0.0,0.0,0.0,0.005329,2
1672944146840382822,114365,1672944146854241972,gps,2,1,42.2999710108,-83.6985219422,270.422912598,0.001156,0.0,0.0,0.0,0.001156,0.0,0.0,0.0,0.005329,2
1672944146860276361,114366,1672944146874327775,gps,2,1,42.2999716197,-83.6985221679,270.425445557,0.001156,0.0,0.0,0.0,0.001156,0.0,0.0,0.0,0.005329,2
1672944146880549233,114367,1672944146894341762,gps,2,1,42.2999722341,-83.6985224054,270.427856445,0.001156,0.0,0.0,0.0,0.001156,0.0,0.0,0.0,0.005329,2
1672944146900723471,114368,1672944146914295557,gps,2,1,42.2999728488,-83.6985226425,270.430236816,0.001156,0.0,0.0,0.0,0.001156,0.0,0.0,0.0,0.005329,2
1672944146920466020,114369,1672944146934313801,gps,2,1,42.2999734655,-83.6985228722,270.432617188,0.001156,0.0,0.0,0.0,0.001156,0.0,0.0,0.0,0.005329,2
1672944146940514111,114370,1672944146954275015,gps,2,1,42.2999740882,-83.6985231119,270.434906006,0.001156,0.0,0.0,0.0,0.001156,0.0,0.0,0.0,0.005329,2
1672944146960495161,114371,1672944146974239452,gps,2,1,42.299974711,-83.6985233514,270.437164307,0.001156,0.0,0.0,0.0,0.001156,0.0,0.0,0.0,0.005329,2
1672944146980456650,114372,1672944146994314283,gps,2,1,42.2999753362,-83.6985235831,270.439483643,0.001156,0.0,0.0,0.0,0.001156,0.0,0.0,0.0,0.005329,2
1672944147000285024,114373,1672944147014260844,gps,2,1,42.2999759676,-83.6985238233,270.441711426,0.001156,0.0,0.0,0.0,0.001156,0.0,0.0,0.0,0.005329,2
1672944147020532378,114374,1672944147034320911,gps,2,1,42.299976598,-83.698524065,270.444000244,0.001156,0.0,0.0,0.0,0.001156,0.0,0.0,0.0,0.005329,2
1672944147040444365,114375,1672944147054433620,gps,2,1,42.2999772321,-83.6985242974,270.44631958,0.001156,0.0,0.0,0.0,0.001156,0.0,0.0,0.0,0.005329,2
1672944147060628327,114376,1672944147074449986,gps,2,1,42.2999778707,-83.6985245419,270.448608398,0.001156,0.0,0.0,0.0,0.001156,0.0,0.0,0.0,0.005329,2
1672944147080580626,114377,1672944147094331862,gps,2,1,42.299978509,-83.698524786,270.450958252,0.001156,0.0,0.0,0.0,0.001156,0.0,0.0,0.0,0.005329,2
1672944147100479335,114378,1672944147114347816,gps,2,1,42.2999791517,-83.6985250202,270.453338623,0.001156,0.0,0.0,0.0,0.001156,0.0,0.0,0.0,0.005329,2
1672944147120290051,114379,1672944147134251753,gps,2,1,42.2999797988,-83.6985252664,270.455780029,0.001156,0.0,0.0,0.0,0.001156,0.0,0.0,0.0,0.005329,2
1672944147140547125,114380,1672944147154408454,gps,2,1,42.2999804459,-83.6985255127,270.458190918,0.001156,0.0,0.0,0.0,0.001156,0.0,0.0,0.0,0.005329,2
1672944147160166208,114381,1672944147174387970,gps,2,1,42.2999810974,-83.6985257499,270.460662842,0.001156,0.0,0.0,0.0,0.001156,0.0,0.0,0.0,0.005329,2
1672944147180140885,114382,1672944147194299410,gps,2,1,42.2999817533,-83.6985259987,270.463165283,0.001156,0.0,0.0,0.0,0.001156,0.0,0.0,0.0,0.005329,2
1672944147200587460,114383,1672944147214419389,gps,2,1,42.2999824097,-83.6985262471,270.465667725,0.001156,0.0,0.0,0.0,0.001156,0.0,0.0,0.0,0.005329,2
1672944147220391940,114384,1672944147234315163,gps,2,1,42.2999830705,-83.6985264875,270.468200684,0.001156,0.0,0.0,0.0,0.001156,0.0,0.0,0.0,0.005329,2
1672944147240287812,114385,1672944147254257284,gps,2,1,42.2999837376,-83.6985267422,270.47064209,0.001156,0.0,0.0,0.0,0.001156,0.0,0.0,0.0,0.005329,2
1672944147260417396,114386,1672944147274300903,gps,2,1,42.2999844051,-83.6985269968,270.473114014,0.001156,0.0,0.0,0.0,0.001156,0.0,0.0,0.0,0.005329,2
1672944147280322817,114387,1672944147294304858,gps,2,1,42.2999850753,-83.69852724,270.475646973,0.001156,0.0,0.0,0.0,0.001156,0.0,0.0,0.0,0.005329,2
1672944147300216014,114388,1672944147314256613,gps,2,1,42.2999857517,-83.6985274971,270.478088379,0.001156,0.0,0.0,0.0,0.001156,0.0,0.0,0.0,0.005329,2
1672944147320501240,114389,1672944147334314521,gps,2,1,42.2999864278,-83.6985277547,270.480651855,0.001156,0.0,0.0,0.0,0.001156,0.0,0.0,0.0,0.005329,2
1672944147340449833,114390,1672944147354305839,gps,2,1,42.2999871073,-83.6985280017,270.483093262,0.001156,0.0,0.0,0.0,0.001156,0.0,0.0,0.0,0.005329,2
1672944147360485174,114391,1672944147374303828,gps,2,1,42.2999877923,-83.6985282631,270.485443115,0.001156,0.0,0.0,0.0,0.001156,0.0,0.0,0.0,0.005329,2
1672944147380527873,114392,1672944147394310831,gps,2,1,42.2999884785,-83.6985285216,270.487762451,0.001156,0.0,0.0,0.0,0.001156,0.0,0.0,0.0,0.005329,2
1672944147400618021,114393,1672944147414335297,gps,2,1,42.2999891667,-83.6985287728,270.49005127,0.001156,0.0,0.0,0.0,0.001156,0.0,0.0,0.0,0.005329,2
1672944147420371024,114394,1672944147434353176,gps,2,1,42.2999898613,-83.6985290347,270.492370605,0.001156,0.0,0.0,0.0,0.001156,0.0,0.0,0.0,0.005329,2
1672944147440262953,114395,1672944147454295981,gps,2,1,42.299990556,-83.6985292964,270.494628906,0.001156,0.0,0.0,0.0,0.001156,0.0,0.0,0.0,0.005329,2
1672944147460436119,114396,1672944147474357840,gps,2,1,42.299991253,-83.6985295509,270.497009277,0.001156,0.0,0.0,0.0,0.001156,0.0,0.0,0.0,0.005329,2
1672944147480449455,114397,1672944147494280916,gps,2,1,42.2999919561,-83.6985298148,270.499511719,0.001156,0.0,0.0,0.0,0.001156,0.0,0.0,0.0,0.005329,2
1672944147500555526,114398,1672944147514314247,gps,2,1,42.2999926595,-83.6985300785,270.50201416,0.001156,0.0,0.0,0.0,0.001156,0.0,0.0,0.0,0.005329,2
1672944147520433677,114399,1672944147534314839,gps,2,1,42.299993365,-83.6985303354,270.504669189,0.001156,0.0,0.0,0.0,0.001156,0.0,0.0,0.0,0.005329,2
1672944147540437600,114400,1672944147554384910,gps,2,1,42.2999940733,-83.6985306062,270.507415771,0.001156,0.0,0.0,0.0,0.001156,0.0,0.0,0.0,0.005329,2
1672944147560620099,114401,1672944147574514848,gps,2,1,42.2999947811,-83.6985308796,270.510192871,0.001156,0.0,0.0,0.0,0.001156,0.0,0.0,0.0,0.005329,2
1672944147580533326,114402,1672944147594349161,gps,2,1,42.2999954951,-83.698531139,270.513031006,0.001156,0.0,0.0,0.0,0.001156,0.0,0.0,0.0,0.005329,2
1672944147600579848,114403,1672944147614322766,gps,2,1,42.2999962109,-83.6985314149,270.515899658,0.001156,0.0,0.0,0.0,0.001156,0.0,0.0,0.0,0.005329,2
1672944147620487679,114404,1672944147634302052,gps,2,1,42.2999969278,-83.6985316874,270.518707275,0.001156,0.0,0.0,0.0,0.001156,0.0,0.0,0.0,0.005329,2
1672944147640445420,114405,1672944147654397645,gps,2,1,42.2999976492,-83.6985319495,270.521514893,0.001156,0.0,0.0,0.0,0.001156,0.0,0.0,0.0,0.005329,2
1672944147660436297,114406,1672944147674334777,gps,2,1,42.2999983726,-83.6985322244,270.524169922,0.001156,0.0,0.0,0.0,0.001156,0.0,0.0,0.0,0.005329,2
1672944147680438645,114407,1672944147694384448,gps,2,1,42.2999990977,-83.6985324989,270.526947021,0.001156,0.0,0.0,0.0,0.001156,0.0,0.0,0.0,0.005329,2
1672944147700365279,114408,1672944147714314992,gps,2,1,42.2999998252,-83.6985327632,270.529632568,0.001156,0.0,0.0,0.0,0.001156,0.0,0.0,0.0,0.005329,2
1672944147720254638,114409,1672944147734259554,gps,2,1,42.3000005558,-83.6985330379,270.532348633,0.001156,0.0,0.0,0.0,0.001156,0.0,0.0,0.0,0.005329,2
1672944147740603572,114410,1672944147754296196,gps,2,1,42.3000012865,-83.6985333121,270.535064697,0.001156,0.0,0.0,0.0,0.001156,0.0,0.0,0.0,0.005329,2
1672944147760417086,114411,1672944147774305327,gps,2,1,42.3000020195,-83.698533577,270.537811279,0.001156,0.0,0.0,0.0,0.001156,0.0,0.0,0.0,0.005329,2
1672944147780481862,114412,1672944147794242854,gps,2,1,42.3000027547,-83.6985338515,270.540740967,0.001156,0.0,0.0,0.0,0.001156,0.0,0.0,0.0,0.005329,2
1672944147800575633,114413,1672944147814330657,gps,2,1,42.3000034904,-83.6985341258,270.543640137,0.001156,0.0,0.0,0.0,0.001156,0.0,0.0,0.0,0.005329,2
1672944147820420902,114414,1672944147834401515,gps,2,1,42.3000042276,-83.6985343917,270.546600342,0.001156,0.0,0.0,0.0,0.001156,0.0,0.0,0.0,0.005329,2
1672944147840420907,114415,1672944147854289254,gps,2,1,42.3000049666,-83.6985346684,270.549591064,0.001156,0.0,0.0,0.0,0.001156,0.0,0.0,0.0,0.005329,2
1672944147860267826,114416,1672944147874294945,gps,2,1,42.300005706,-83.6985349447,270.552581787,0.001156,0.0,0.0,0.0,0.001156,0.0,0.0,0.0,0.005329,2
1672944147880624343,114417,1672944147894453981,gps,2,1,42.3000064469,-83.6985352126,270.55557251,0.001156,0.0,0.0,0.0,0.001156,0.0,0.0,0.0,0.005329,2
1672944147900634131,114418,1672944147914221946,gps,2,1,42.3000071894,-83.6985354904,270.558502197,0.001156,0.0,0.0,0.0,0.001156,0.0,0.0,0.0,0.005329,2
1672944147920093103,114419,1672944147934302922,gps,2,1,42.3000079319,-83.6985357706,270.561523438,0.001156,0.0,0.0,0.0,0.001156,0.0,0.0,0.0,0.005329,2
1672944147940459292,114420,1672944147954342391,gps,2,1,42.3000086762,-83.69853604,270.56439209,0.001156,0.0,0.0,0.0,0.001156,0.0,0.0,0.0,0.005329,2
1672944147960358262,114421,1672944147974229477,gps,2,1,42.3000094223,-83.6985363205,270.567230225,0.001156,0.0,0.0,0.0,0.001156,0.0,0.0,0.0,0.005329,2
1672944147980387440,114422,1672944147994281221,gps,2,1,42.3000101682,-83.6985366007,270.570068359,0.001156,0.0,0.0,0.0,0.001156,0.0,0.0,0.0,0.005329,2
1672944148000457215,114423,1672944148014288170,gps,2,1,42.300010916,-83.69853687,270.572784424,0.001156,0.0,0.0,0.0,0.001156,0.0,0.0,0.0,0.005329,2
1672944148020662432,114424,1672944148034393704,gps,2,1,42.3000116665,-83.6985371484,270.575378418,0.001156,0.0,0.0,0.0,0.001156,0.0,0.0,0.0,0.005329,2
1672944148040475097,114425,1672944148054348043,gps,2,1,42.3000124175,-83.6985374286,270.577911377,0.001156,0.0,0.0,0.0,0.001156,0.0,0.0,0.0,0.005329,2
1672944148060557734,114426,1672944148074505404,gps,2,1,42.3000131684,-83.6985376978,270.580535889,0.001156,0.0,0.0,0.0,0.001156,0.0,0.0,0.0,0.005329,2
1672944148080398365,114427,1672944148094366739,gps,2,1,42.300013922,-83.6985379779,270.582977295,0.001156,0.0,0.0,0.0,0.001156,0.0,0.0,0.0,0.005329,2
1672944148100602025,114428,1672944148114355694,gps,2,1,42.3000146756,-83.6985382572,270.585418701,0.001156,0.0,0.0,0.0,0.001156,0.0,0.0,0.0,0.005329,2
1672944148120426424,114429,1672944148134319720,gps,2,1,42.3000154292,-83.6985385268,270.587982178,0.001156,0.0,0.0,0.0,0.001156,0.0,0.0,0.0,0.005329,2
1672944148140280985,114430,1672944148154299861,gps,2,1,42.3000161843,-83.6985388072,270.590423584,0.001156,0.0,0.0,0.0,0.001156,0.0,0.0,0.0,0.005329,2
1672944148160620652,114431,1672944148174328661,gps,2,1,42.3000169402,-83.6985390873,270.59286499,0.001156,0.0,0.0,0.0,0.001156,0.0,0.0,0.0,0.005329,2
1672944148180452663,114432,1672944148194302004,gps,2,1,42.3000176961,-83.6985393569,270.595367432,0.001156,0.0,0.0,0.0,0.001156,0.0,0.0,0.0,0.005329,2
1672944148200450185,114433,1672944148214276144,gps,2,1,42.3000184537,-83.6985396364,270.597747803,0.001156,0.0,0.0,0.0,0.001156,0.0,0.0,0.0,0.005329,2
1672944148220418187,114434,1672944148234319077,gps,2,1,42.3000192114,-83.6985399141,270.600219727,0.001156,0.0,0.0,0.0,0.001156,0.0,0.0,0.0,0.005329,2
1672944148240439869,114435,1672944148254327670,gps,2,1,42.3000199695,-83.6985401836,270.602661133,0.001156,0.0,0.0,0.0,0.001156,0.0,0.0,0.0,0.005329,2
1672944148260597323,114436,1672944148274352886,gps,2,1,42.3000207286,-83.6985404611,270.605133057,0.001156,0.0,0.0,0.0,0.001156,0.0,0.0,0.0,0.005329,2
1672944148280280461,114437,1672944148294293574,gps,2,1,42.3000214889,-83.6985407405,270.607513428,0.001156,0.0,0.0,0.0,0.001156,0.0,0.0,0.0,0.005329,2
1672944148300239894,114438,1672944148314262524,gps,2,1,42.3000222484,-83.6985410105,270.610015869,0.001156,0.0,0.0,0.0,0.001156,0.0,0.0,0.0,0.005329,2
1672944148320621855,114439,1672944148334361159,gps,2,1,42.3000230093,-83.6985412909,270.612518311,0.001156,0.0,0.0,0.0,0.001156,0.0,0.0,0.0,0.005329,2
1672944148340057284,114440,1672944148354291616,gps,2,1,42.3000237703,-83.6985415714,270.614990234,0.001156,0.0,0.0,0.0,0.001156,0.0,0.0,0.0,0.005329,2
1672944148360666059,114441,1672944148374356146,gps,2,1,42.3000245308,-83.6985418428,270.617584229,0.001156,0.0,0.0,0.0,0.001156,0.0,0.0,0.0,0.005329,2
1672944148380530038,114442,1672944148394445953,gps,2,1,42.3000252924,-83.6985421241,270.620239258,0.001156,0.0,0.0,0.0,0.001156,0.0,0.0,0.0,0.005329,2
1672944148400465479,114443,1672944148414369770,gps,2,1,42.3000260539,-83.6985424049,270.622894287,0.001156,0.0,0.0,0.0,0.001156,0.0,0.0,0.0,0.005329,2
1672944148420284933,114444,1672944148434372833,gps,2,1,42.3000268151,-83.6985426779,270.625701904,0.001156,0.0,0.0,0.0,0.001156,0.0,0.0,0.0,0.005329,2
1672944148440249028,114445,1672944148454297582,gps,2,1,42.3000275774,-83.6985429602,270.628631592,0.001156,0.0,0.0,0.0,0.001156,0.0,0.0,0.0,0.005329,2
1672944148460456550,114446,1672944148474314008,gps,2,1,42.3000283396,-83.6985432423,270.631530762,0.001156,0.0,0.0,0.0,0.001156,0.0,0.0,0.0,0.005329,2
1672944148480691339,114447,1672944148494368876,gps,2,1,42.3000291016,-83.6985435155,270.634552002,0.001156,0.0,0.0,0.0,0.001156,0.0,0.0,0.0,0.005329,2
1672944148500355411,114448,1672944148514248807,gps,2,1,42.3000298647,-83.6985437969,270.637573242,0.001156,0.0,0.0,0.0,0.001156,0.0,0.0,0.0,0.005329,2
1672944148520418832,114449,1672944148534248630,gps,2,1,42.3000306281,-83.6985440775,270.640716553,0.001156,0.0,0.0,0.0,0.001156,0.0,0.0,0.0,0.005329,2
1672944148540451209,114450,1672944148554422024,gps,2,1,42.3000313908,-83.6985443502,270.643798828,0.001156,0.0,0.0,0.0,0.001156,0.0,0.0,0.0,0.005329,2
1672944148560706972,114451,1672944148574537809,gps,2,1,42.3000321549,-83.6985446289,270.646820068,0.001156,0.0,0.0,0.0,0.001156,0.0,0.0,0.0,0.005329,2
1672944148580538968,114452,1672944148594403580,gps,2,1,42.3000329193,-83.6985449094,270.649810791,0.001156,0.0,0.0,0.0,0.001156,0.0,0.0,0.0,0.005329,2
1672944148600593058,114453,1672944148614365890,gps,2,1,42.3000336829,-83.6985451808,270.652740479,0.001156,0.0,0.0,0.0,0.001156,0.0,0.0,0.0,0.005329,2
1672944148620574728,114454,1672944148634347518,gps,2,1,42.3000344469,-83.6985454607,270.655548096,0.001156,0.0,0.0,0.0,0.001156,0.0,0.0,0.0,0.005329,2
1672944148640572559,114455,1672944148654284246,gps,2,1,42.3000352109,-83.6985457397,270.65838623,0.001156,0.0,0.0,0.0,0.001156,0.0,0.0,0.0,0.005329,2
1672944148660401272,114456,1672944148674320711,gps,2,1,42.3000359748,-83.698546011,270.661102295,0.001156,0.0,0.0,0.0,0.001156,0.0,0.0,0.0,0.005329,2
1672944148680428571,114457,1672944148694392611,gps,2,1,42.3000367391,-83.69854629,270.663726807,0.001156,0.0,0.0,0.0,0.001156,0.0,0.0,0.0,0.005329,2
1672944148700339363,114458,1672944148714331413,gps,2,1,42.3000375035,-83.6985465687,270.666381836,0.001156,0.0,0.0,0.0,0.001156,0.0,0.0,0.0,0.005329,2
1672944148720552892,114459,1672944148734356483,gps,2,1,42.3000382679,-83.6985468399,270.668914795,0.001156,0.0,0.0,0.0,0.001156,0.0,0.0,0.0,0.005329,2
1672944148740441504,114460,1672944148754271472,gps,2,1,42.3000390341,-83.6985471207,270.671295166,0.001156,0.0,0.0,0.0,0.001156,0.0,0.0,0.0,0.005329,2
1672944148760495883,114461,1672944148774288962,gps,2,1,42.3000398004,-83.6985474014,270.673675537,0.001156,0.0,0.0,0.0,0.001156,0.0,0.0,0.0,0.005329,2
1672944148780444078,114462,1672944148794411104,gps,2,1,42.3000405662,-83.6985476724,270.676025391,0.001156,0.0,0.0,0.0,0.001156,0.0,0.0,0.0,0.005329,2
1672944148800289296,114463,1672944148814251664,gps,2,1,42.3000413336,-83.6985479522,270.678222656,0.001156,0.0,0.0,0.0,0.001156,0.0,0.0,0.0,0.005329,2
1672944148820368932,114464,1672944148834275506,gps,2,1,42.3000421011,-83.6985482303,270.680419922,0.001156,0.0,0.0,0.0,0.001156,0.0,0.0,0.0,0.005329,2
1672944148840514702,114465,1672944148854372150,gps,2,1,42.3000428681,-83.6985485012,270.682617188,0.001156,0.0,0.0,0.0,0.001156,0.0,0.0,0.0,0.005329,2
1672944148860300773,114466,1672944148874250527,gps,2,1,42.3000436372,-83.6985487789,270.684692383,0.001156,0.0,0.0,0.0,0.001156,0.0,0.0,0.0,0.005329,2
1672944148880420937,114467,1672944148894306289,gps,2,1,42.3000444062,-83.6985490561,270.686767578,0.001156,0.0,0.0,0.0,0.001156,0.0,0.0,0.0,0.005329,2
1672944148900620496,114468,1672944148914292861,gps,2,1,42.3000451749,-83.6985493267,270.688903809,0.001156,0.0,0.0,0.0,0.001156,0.0,0.0,0.0,0.005329,2
1672944148920398926,114469,1672944148934288835,gps,2,1,42.3000459437,-83.6985496041,270.691192627,0.001156,0.0,0.0,0.0,0.001156,0.0,0.0,0.0,0.005329,2
1672944148940412506,114470,1672944148954285562,gps,2,1,42.300046712,-83.6985498811,270.693450928,0.001156,0.0,0.0,0.0,0.001156,0.0,0.0,0.0,0.005329,2
1672944148960537910,114471,1672944148974303535,gps,2,1,42.3000474824,-83.6985501522,270.695770264,0.001156,0.0,0.0,0.0,0.001156,0.0,0.0,0.0,0.005329,2
1672944148980389109,114472,1672944148994299102,gps,2,1,42.3000482525,-83.6985504296,270.698272705,0.001156,0.0,0.0,0.0,0.001156,0.0,0.0,0.0,0.005329,2
1672944149000392505,114473,1672944149014320180,gps,2,1,42.3000490224,-83.6985507069,270.700775146,0.001156,0.0,0.0,0.0,0.001156,0.0,0.0,0.0,0.005329,2
1672944149020260134,114474,1672944149034387366,gps,2,1,42.3000497942,-83.6985509783,270.703338623,0.001156,0.0,0.0,0.0,0.001156,0.0,0.0,0.0,0.005329,2
1672944149040439789,114475,1672944149054324771,gps,2,1,42.3000505665,-83.6985512578,270.7059021,0.001156,0.0,0.0,0.0,0.001156,0.0,0.0,0.0,0.005329,2
1672944149060602782,114476,1672944149074480728,gps,2,1,42.3000513396,-83.6985515388,270.708343506,0.001156,0.0,0.0,0.0,0.001156,0.0,0.0,0.0,0.005329,2
1672944149080537176,114477,1672944149094451470,gps,2,1,42.3000521126,-83.698551811,270.710998535,0.001156,0.0,0.0,0.0,0.001156,0.0,0.0,0.0,0.005329,2
1672944149100427245,114478,1672944149114372024,gps,2,1,42.3000528869,-83.6985520916,270.713500977,0.001156,0.0,0.0,0.0,0.001156,0.0,0.0,0.0,0.005329,2
1672944149120351940,114479,1672944149134373144,gps,2,1,42.3000536622,-83.6985523731,270.716064453,0.001156,0.0,0.0,0.0,0.001156,0.0,0.0,0.0,0.005329,2
1672944149140612263,114480,1672944149154364269,gps,2,1,42.3000544364,-83.6985526449,270.718780518,0.001156,0.0,0.0,0.0,0.001156,0.0,0.0,0.0,0.005329,2
1672944149160606731,114481,1672944149174319678,gps,2,1,42.3000552131,-83.6985529253,270.721374512,0.001156,0.0,0.0,0.0,0.001156,0.0,0.0,0.0,0.005329,2
1672944149180515542,114482,1672944149194323860,gps,2,1,42.3000559899,-83.6985532053,270.723937988,0.001156,0.0,0.0,0.0,0.001156,0.0,0.0,0.0,0.005329,2
1672944149200495190,114483,1672944149214360779,gps,2,1,42.300056766,-83.6985534761,270.726623535,0.001156,0.0,0.0,0.0,0.001156,0.0,0.0,0.0,0.005329,2
1672944149220531226,114484,1672944149234378586,gps,2,1,42.3000575434,-83.6985537533,270.729248047,0.001156,0.0,0.0,0.0,0.001156,0.0,0.0,0.0,0.005329,2
1672944149240355156,114485,1672944149254272143,gps,2,1,42.3000583209,-83.6985540304,270.731903076,0.001156,0.0,0.0,0.0,0.001156,0.0,0.0,0.0,0.005329,2
1672944149260406720,114486,1672944149274373494,gps,2,1,42.300059099,-83.6985543007,270.734619141,0.001156,0.0,0.0,0.0,0.001156,0.0,0.0,0.0,0.005329,2
1672944149280314656,114487,1672944149294226495,gps,2,1,42.3000598781,-83.6985545771,270.737335205,0.001156,0.0,0.0,0.0,0.001156,0.0,0.0,0.0,0.005329,2
1672944149300501692,114488,1672944149314339820,gps,2,1,42.3000606578,-83.6985548534,270.740081787,0.001156,0.0,0.0,0.0,0.001156,0.0,0.0,0.0,0.005329,2
1672944149320575293,114489,1672944149334341817,gps,2,1,42.3000614373,-83.6985551235,270.743011475,0.001156,0.0,0.0,0.0,0.001156,0.0,0.0,0.0,0.005329,2
1672944149340678576,114490,1672944149354296797,gps,2,1,42.3000622192,-83.6985553994,270.746032715,0.001156,0.0,0.0,0.0,0.001156,0.0,0.0,0.0,0.005329,2
1672944149360540384,114491,1672944149374286717,gps,2,1,42.3000630011,-83.6985556754,270.749084473,0.001156,0.0,0.0,0.0,0.001156,0.0,0.0,0.0,0.005329,2
1672944149380768141,114492,1672944149394548272,gps,2,1,42.3000637824,-83.6985559444,270.75213623,0.001156,0.0,0.0,0.0,0.001156,0.0,0.0,0.0,0.005329,2
1672944149400403609,114493,1672944149414356383,gps,2,1,42.3000645657,-83.6985562182,270.755279541,0.001156,0.0,0.0,0.0,0.001156,0.0,0.0,0.0,0.005329,2
1672944149420463909,114494,1672944149434363575,gps,2,1,42.3000653491,-83.6985564921,270.758361816,0.001156,0.0,0.0,0.0,0.001156,0.0,0.0,0.0,0.005329,2
1672944149440589882,114495,1672944149454344099,gps,2,1,42.3000661324,-83.6985567579,270.761444092,0.001156,0.0,0.0,0.0,0.001156,0.0,0.0,0.0,0.005329,2
1672944149460485823,114496,1672944149474382882,gps,2,1,42.300066918,-83.6985570273,270.764434814,0.001156,0.0,0.0,0.0,0.001156,0.0,0.0,0.0,0.005329,2
1672944149480093911,114497,1672944149494304351,gps,2,1,42.3000677034,-83.6985572957,270.76739502,0.001156,0.0,0.0,0.0,0.001156,0.0,0.0,0.0,0.005329,2
1672944149500454211,114498,1672944149514352156,gps,2,1,42.3000684892,-83.6985575566,270.770294189,0.001156,0.0,0.0,0.0,0.001156,0.0,0.0,0.0,0.005329,2
1672944149520487700,114499,1672944149534445706,gps,2,1,42.3000692777,-83.6985578191,270.772918701,0.001156,0.0,0.0,0.0,0.001156,0.0,0.0,0.0,0.005329,2
1672944149540406849,114500,1672944149554396039,gps,2,1,42.3000700666,-83.6985580828,270.775512695,0.001156,0.0,0.0,0.0,0.001156,0.0,0.0,0.0,0.005329,2
1672944149560265161,114501,1672944149574501028,gps,2,1,42.3000708563,-83.698558338,270.778015137,0.001156,0.0,0.0,0.0,0.001156,0.0,0.0,0.0,0.005329,2
1672944149580590485,114502,1672944149594426058,gps,2,1,42.3000716492,-83.6985585965,270.780273438,0.001156,0.0,0.0,0.0,0.001156,0.0,0.0,0.0,0.005329,2
1672944149600507919,114503,1672944149614325360,gps,2,1,42.300072441,-83.6985588551,270.782562256,0.001156,0.0,0.0,0.0,0.001156,0.0,0.0,0.0,0.005329,2
1672944149620279552,114504,1672944149634397487,gps,2,1,42.300073234,-83.6985591055,270.784912109,0.001156,0.0,0.0,0.0,0.001156,0.0,0.0,0.0,0.005329,2
1672944149640269804,114505,1672944149654352275,gps,2,1,42.3000740295,-83.6985593605,270.787078857,0.001156,0.0,0.0,0.0,0.001156,0.0,0.0,0.0,0.005329,2
1672944149660452220,114506,1672944149674348642,gps,2,1,42.3000748249,-83.6985596145,270.789306641,0.001156,0.0,0.0,0.0,0.001156,0.0,0.0,0.0,0.005329,2
1672944149680405438,114507,1672944149694295188,gps,2,1,42.3000756217,-83.6985598614,270.791595459,0.001156,0.0,0.0,0.0,0.001156,0.0,0.0,0.0,0.005329,2
1672944149700282977,114508,1672944149714371117,gps,2,1,42.3000764223,-83.6985601125,270.79385376,0.001156,0.0,0.0,0.0,0.001156,0.0,0.0,0.0,0.005329,2
1672944149720396531,114509,1672944149734266897,gps,2,1,42.300077223,-83.6985603634,270.796142578,0.001156,0.0,0.0,0.0,0.001156,0.0,0.0,0.0,0.005329,2
1672944149740396808,114510,1672944149754221595,gps,2,1,42.3000780231,-83.6985606072,270.798583984,0.001156,0.0,0.0,0.0,0.001156,0.0,0.0,0.0,0.005329,2
1672944149760424260,114511,1672944149774344417,gps,2,1,42.3000788263,-83.6985608557,270.801116943,0.001156,0.0,0.0,0.0,0.001156,0.0,0.0,0.0,0.005329,2
1672944149780443975,114512,1672944149794386136,gps,2,1,42.300079628,-83.6985611026,270.803588867,0.0009,0.0,0.0,0.0,0.000961,0.0,0.0,0.0,0.005184,2
1672944149800457757,114513,1672944149814358234,gps,2,1,42.3000804308,-83.6985613447,270.806274414,0.0009,0.0,0.0,0.0,0.000961,0.0,0.0,0.0,0.005184,2
1672944149820374886,114514,1672944149834395952,gps,2,1,42.3000812354,-83.6985615897,270.808898926,0.0009,0.0,0.0,0.0,0.000961,0.0,0.0,0.0,0.005184,2
1672944149840271971,114515,1672944149854284138,gps,2,1,42.3000820399,-83.6985618347,270.811553955,0.0009,0.0,0.0,0.0,0.000961,0.0,0.0,0.0,0.005184,2
1672944149860255944,114516,1672944149874348030,gps,2,1,42.3000828455,-83.6985620752,270.814331055,0.0009,0.0,0.0,0.0,0.000961,0.0,0.0,0.0,0.005184,2
1672944149880442562,114517,1672944149894278132,gps,2,1,42.3000836533,-83.6985623184,270.817016602,0.0009,0.0,0.0,0.0,0.000961,0.0,0.0,0.0,0.005184,2
1672944149900460105,114518,1672944149914275577,gps,2,1,42.3000844612,-83.6985625609,270.819702148,0.0009,0.0,0.0,0.0,0.000961,0.0,0.0,0.0,0.005184,2
1672944149920099299,114519,1672944149934310501,gps,2,1,42.3000852707,-83.6985627991,270.822540283,0.0009,0.0,0.0,0.0,0.000961,0.0,0.0,0.0,0.005184,2
1672944149940414387,114520,1672944149954298856,gps,2,1,42.300086082,-83.6985630417,270.825317383,0.0009,0.0,0.0,0.0,0.000961,0.0,0.0,0.0,0.005184,2
1672944149960515996,114521,1672944149974307056,gps,2,1,42.3000868934,-83.6985632835,270.828094482,0.0009,0.0,0.0,0.0,0.000961,0.0,0.0,0.0,0.005184,2
1672944149980298768,114522,1672944149994299314,gps,2,1,42.3000877074,-83.6985635201,270.830993652,0.0009,0.0,0.0,0.0,0.000961,0.0,0.0,0.0,0.005184,2
1672944150000597085,114523,1672944150014363518,gps,2,1,42.3000885239,-83.6985637597,270.83380127,0.0009,0.0,0.0,0.0,0.000961,0.0,0.0,0.0,0.005184,2
1672944150020475729,114524,1672944150034303755,gps,2,1,42.3000893409,-83.6985639985,270.836639404,0.0009,0.0,0.0,0.0,0.000961,0.0,0.0,0.0,0.005184,2
1672944150040506109,114525,1672944150054370453,gps,2,1,42.3000901587,-83.6985642343,270.839538574,0.0009,0.0,0.0,0.0,0.000961,0.0,0.0,0.0,0.005184,2
1672944150060619571,114526,1672944150074507661,gps,2,1,42.3000909803,-83.6985644743,270.842346191,0.0009,0.0,0.0,0.0,0.000961,0.0,0.0,0.0,0.005184,2
1672944150080543809,114527,1672944150094425318,gps,2,1,42.300091802,-83.6985647141,270.845153809,0.0009,0.0,0.0,0.0,0.000961,0.0,0.0,0.0,0.005184,2
1672944150100098791,114528,1672944150114295932,gps,2,1,42.300092625,-83.698564948,270.847961426,0.0009,0.0,0.0,0.0,0.000961,0.0,0.0,0.0,0.005184,2
1672944150120342214,114529,1672944150134406903,gps,2,1,42.3000934523,-83.6985651852,270.85055542,0.0009,0.0,0.0,0.0,0.000961,0.0,0.0,0.0,0.005184,2
1672944150140412313,114530,1672944150154308095,gps,2,1,42.3000942793,-83.698565422,270.853149414,0.0009,0.0,0.0,0.0,0.000961,0.0,0.0,0.0,0.005184,2
1672944150160459718,114531,1672944150174352357,gps,2,1,42.3000951084,-83.6985656522,270.855682373,0.0009,0.0,0.0,0.0,0.000961,0.0,0.0,0.0,0.005184,2
1672944150180455739,114532,1672944150194343242,gps,2,1,42.3000959419,-83.6985658845,270.857818604,0.0009,0.0,0.0,0.0,0.000961,0.0,0.0,0.0,0.005184,2
1672944150200556537,114533,1672944150214264025,gps,2,1,42.3000967746,-83.6985661168,270.859985352,0.0009,0.0,0.0,0.0,0.000961,0.0,0.0,0.0,0.005184,2
1672944150220630053,114534,1672944150234263208,gps,2,1,42.3000976092,-83.6985663428,270.862091064,0.0009,0.0,0.0,0.0,0.000961,0.0,0.0,0.0,0.005184,2
1672944150240403824,114535,1672944150254374657,gps,2,1,42.3000984457,-83.6985665714,270.864105225,0.0009,0.0,0.0,0.0,0.000961,0.0,0.0,0.0,0.005184,2
1672944150260312293,114536,1672944150274302569,gps,2,1,42.300099283,-83.6985668008,270.866119385,0.0009,0.0,0.0,0.0,0.000961,0.0,0.0,0.0,0.005184,2
1672944150280484211,114537,1672944150294334562,gps,2,1,42.3001001213,-83.698567024,270.86831665,0.0009,0.0,0.0,0.0,0.000961,0.0,0.0,0.0,0.005184,2
1672944150300518968,114538,1672944150314380986,gps,2,1,42.3001009624,-83.6985672484,270.870574951,0.0009,0.0,0.0,0.0,0.000961,0.0,0.0,0.0,0.005184,2
1672944150320451506,114539,1672944150334316025,gps,2,1,42.3001018035,-83.6985674728,270.872894287,0.0009,0.0,0.0,0.0,0.000961,0.0,0.0,0.0,0.005184,2
1672944150340427517,114540,1672944150354298611,gps,2,1,42.3001026469,-83.6985676938,270.875335693,0.0009,0.0,0.0,0.0,0.000961,0.0,0.0,0.0,0.005184,2
1672944150360382609,114541,1672944150374267579,gps,2,1,42.3001034935,-83.6985679158,270.877960205,0.0009,0.0,0.0,0.0,0.000961,0.0,0.0,0.0,0.005184,2
1672944150380467350,114542,1672944150394349342,gps,2,1,42.3001043402,-83.6985681371,270.880584717,0.0009,0.0,0.0,0.0,0.000961,0.0,0.0,0.0,0.005184,2
1672944150400332414,114543,1672944150414332228,gps,2,1,42.3001051894,-83.6985683553,270.883300781,0.0009,0.0,0.0,0.0,0.000961,0.0,0.0,0.0,0.005184,2
1672944150420336509,114544,1672944150434313828,gps,2,1,42.3001060417,-83.6985685755,270.886077881,0.0009,0.0,0.0,0.0,0.000961,0.0,0.0,0.0,0.005184,2
1672944150440089215,114545,1672944150454295604,gps,2,1,42.300106894,-83.6985687958,270.88885498,0.0009,0.0,0.0,0.0,0.000961,0.0,0.0,0.0,0.005184,2
1672944150460701738,114546,1672944150474368437,gps,2,1,42.3001077493,-83.6985690108,270.891662598,0.0009,0.0,0.0,0.0,0.000961,0.0,0.0,0.0,0.005184,2
1672944150480101296,114547,1672944150494305698,gps,2,1,42.3001086078,-83.6985692279,270.89440918,0.0009,0.0,0.0,0.0,0.000961,0.0,0.0,0.0,0.005184,2
1672944150500403661,114548,1672944150514361024,gps,2,1,42.3001094664,-83.6985694452,270.897125244,0.0009,0.0,0.0,0.0,0.000961,0.0,0.0,0.0,0.005184,2
1672944150520419535,114549,1672944150534419845,gps,2,1,42.300110328,-83.698569658,270.899780273,0.0009,0.0,0.0,0.0,0.000961,0.0,0.0,0.0,0.005184,2
1672944150540395543,114550,1672944150554336000,gps,2,1,42.3001111942,-83.6985698708,270.902191162,0.0009,0.0,0.0,0.0,0.000961,0.0,0.0,0.0,0.005184,2
1672944150560788616,114551,1672944150574534656,gps,2,1,42.3001120604,-83.6985700849,270.904602051,0.0009,0.0,0.0,0.0,0.000961,0.0,0.0,0.0,0.005184,2
1672944150580154737,114552,1672944150594379630,gps,2,1,42.3001129283,-83.6985702956,270.906982422,0.0009,0.0,0.0,0.0,0.000961,0.0,0.0,0.0,0.005184,2
1672944150600572423,114553,1672944150614387399,gps,2,1,42.3001138007,-83.6985705077,270.909179688,0.0009,0.0,0.0,0.0,0.000961,0.0,0.0,0.0,0.005184,2
1672944150620081722,114554,1672944150634342366,gps,2,1,42.3001146708,-83.6985707204,270.911437988,0.0009,0.0,0.0,0.0,0.000961,0.0,0.0,0.0,0.005184,2
1672944150640567067,114555,1672944150654341846,gps,2,1,42.3001155444,-83.6985709296,270.913665771,0.0009,0.0,0.0,0.0,0.000961,0.0,0.0,0.0,0.005184,2
1672944150660269735,114556,1672944150674218943,gps,2,1,42.3001164193,-83.698571141,270.915924072,0.0009,0.0,0.0,0.0,0.000961,0.0,0.0,0.0,0.005184,2
1672944150680326179,114557,1672944150694304212,gps,2,1,42.3001172954,-83.698571352,270.918121338,0.0009,0.0,0.0,0.0,0.000961,0.0,0.0,0.0,0.005184,2
1672944150700257896,114558,1672944150714340108,gps,2,1,42.3001181745,-83.6985715595,270.920318604,0.0009,0.0,0.0,0.0,0.000961,0.0,0.0,0.0,0.005184,2
1672944150720452626,114559,1672944150734323270,gps,2,1,42.3001190583,-83.6985717668,270.922210693,0.0009,0.0,0.0,0.0,0.000961,0.0,0.0,0.0,0.005184,2
1672944150740537261,114560,1672944150754278729,gps,2,1,42.3001199425,-83.6985719739,270.924133301,0.0009,0.0,0.0,0.0,0.000961,0.0,0.0,0.0,0.005184,2
1672944150760489534,114561,1672944150774376229,gps,2,1,42.3001208277,-83.6985721793,270.926055908,0.0009,0.0,0.0,0.0,0.000961,0.0,0.0,0.0,0.005184,2
1672944150780394149,114562,1672944150794381637,gps,2,1,42.3001217177,-83.6985723841,270.92779541,0.0009,0.0,0.0,0.0,0.000961,0.0,0.0,0.0,0.005184,2
1672944150800388925,114563,1672944150814350459,gps,2,1,42.3001226072,-83.698572589,270.929595947,0.0009,0.0,0.0,0.0,0.000961,0.0,0.0,0.0,0.005184,2
1672944150820416755,114564,1672944150834389788,gps,2,1,42.3001234981,-83.6985727922,270.931640625,0.0009,0.0,0.0,0.0,0.000961,0.0,0.0,0.0,0.005184,2
1672944150840313290,114565,1672944150854316359,gps,2,1,42.3001243914,-83.6985729966,270.934020996,0.0009,0.0,0.0,0.0,0.000961,0.0,0.0,0.0,0.005184,2
1672944150860093200,114566,1672944150874310785,gps,2,1,42.3001252857,-83.6985732007,270.936401367,0.0009,0.0,0.0,0.0,0.000961,0.0,0.0,0.0,0.005184,2
1672944150880489218,114567,1672944150894391702,gps,2,1,42.3001261819,-83.6985734032,270.939056396,0.0009,0.0,0.0,0.0,0.000961,0.0,0.0,0.0,0.005184,2
1672944150900420487,114568,1672944150914312160,gps,2,1,42.3001270817,-83.6985736064,270.941833496,0.0009,0.0,0.0,0.0,0.000961,0.0,0.0,0.0,0.005184,2
1672944150920395888,114569,1672944150934314908,gps,2,1,42.3001279821,-83.6985738096,270.944671631,0.0009,0.0,0.0,0.0,0.000961,0.0,0.0,0.0,0.005184,2
1672944150940379684,114570,1672944150954375247,gps,2,1,42.3001288838,-83.6985740111,270.947540283,0.0009,0.0,0.0,0.0,0.000961,0.0,0.0,0.0,0.005184,2
1672944150960329792,114571,1672944150974317601,gps,2,1,42.3001297895,-83.6985742121,270.950408936,0.0009,0.0,0.0,0.0,0.000961,0.0,0.0,0.0,0.005184,2
1672944150980263458,114572,1672944150994355038,gps,2,1,42.3001306953,-83.6985744132,270.953308105,0.0009,0.0,0.0,0.0,0.000961,0.0,0.0,0.0,0.005184,2
1672944151000514574,114573,1672944151014369477,gps,2,1,42.3001316026,-83.6985746117,270.95614624,0.0009,0.0,0.0,0.0,0.000961,0.0,0.0,0.0,0.005184,2
1672944151020579592,114574,1672944151034379825,gps,2,1,42.3001325133,-83.6985748074,270.958770752,0.0009,0.0,0.0,0.0,0.000961,0.0,0.0,0.0,0.005184,2
1672944151040510237,114575,1672944151054432126,gps,2,1,42.3001334244,-83.6985750028,270.961395264,0.0009,0.0,0.0,0.0,0.000961,0.0,0.0,0.0,0.005184,2
1672944151060552337,114576,1672944151074536183,gps,2,1,42.3001343371,-83.6985751974,270.964019775,0.0009,0.0,0.0,0.0,0.000961,0.0,0.0,0.0,0.005184,2
1672944151080482991,114577,1672944151094364375,gps,2,1,42.3001352537,-83.6985753899,270.966278076,0.0009,0.0,0.0,0.0,0.000961,0.0,0.0,0.0,0.005184,2
1672944151100417938,114578,1672944151114394162,gps,2,1,42.3001361706,-83.6985755823,270.968536377,0.0009,0.0,0.0,0.0,0.000961,0.0,0.0,0.0,0.005184,2
1672944151120195051,114579,1672944151134369893,gps,2,1,42.3001370893,-83.6985757732,270.97076416,0.0009,0.0,0.0,0.0,0.000961,0.0,0.0,0.0,0.005184,2
1672944151140457069,114580,1672944151154323730,gps,2,1,42.3001380117,-83.6985759635,270.972686768,0.0009,0.0,0.0,0.0,0.000961,0.0,0.0,0.0,0.005184,2
1672944151160101459,114581,1672944151174271678,gps,2,1,42.3001389341,-83.6985761533,270.974578857,0.0009,0.0,0.0,0.0,0.000961,0.0,0.0,0.0,0.005184,2
1672944151180426703,114582,1672944151194321947,gps,2,1,42.3001398591,-83.69857634,270.976501465,0.0009,0.0,0.0,0.0,0.000961,0.0,0.0,0.0,0.005184,2
1672944151200444948,114583,1672944151214344597,gps,2,1,42.3001407876,-83.6985765255,270.978210449,0.0009,0.0,0.0,0.0,0.000961,0.0,0.0,0.0,0.005184,2
1672944151220436767,114584,1672944151234349097,gps,2,1,42.3001417169,-83.6985767087,270.980041504,0.0009,0.0,0.0,0.0,0.000961,0.0,0.0,0.0,0.005184,2
1672944151240399291,114585,1672944151254243367,gps,2,1,42.3001426474,-83.6985768912,270.981994629,0.0009,0.0,0.0,0.0,0.000961,0.0,0.0,0.0,0.005184,2
1672944151260315295,114586,1672944151274293297,gps,2,1,42.300143582,-83.6985770717,270.984069824,0.0009,0.0,0.0,0.0,0.000961,0.0,0.0,0.0,0.005184,2
1672944151280229732,114587,1672944151294319447,gps,2,1,42.3001445167,-83.6985772518,270.986114502,0.0009,0.0,0.0,0.0,0.000961,0.0,0.0,0.0,0.005184,2
1672944151300603616,114588,1672944151314423658,gps,2,1,42.3001454531,-83.6985774325,270.98815918,0.0009,0.0,0.0,0.0,0.000961,0.0,0.0,0.0,0.005184,2
1672944151320548509,114589,1672944151334310246,gps,2,1,42.3001463938,-83.6985776129,270.990020752,0.0009,0.0,0.0,0.0,0.000961,0.0,0.0,0.0,0.005184,2
1672944151340444088,114590,1672944151354344572,gps,2,1,42.3001473344,-83.6985777928,270.991943359,0.0009,0.0,0.0,0.0,0.000961,0.0,0.0,0.0,0.005184,2
1672944151360480676,114591,1672944151374363063,gps,2,1,42.3001482758,-83.6985779735,270.993896484,0.0009,0.0,0.0,0.0,0.000961,0.0,0.0,0.0,0.005184,2
1672944151380381778,114592,1672944151394240256,gps,2,1,42.3001492207,-83.6985781545,270.995910645,0.0009,0.0,0.0,0.0,0.000961,0.0,0.0,0.0,0.005184,2
1672944151400343304,114593,1672944151414326961,gps,2,1,42.3001501656,-83.698578335,270.997894287,0.0009,0.0,0.0,0.0,0.000961,0.0,0.0,0.0,0.005184,2
1672944151420423337,114594,1672944151434365477,gps,2,1,42.3001511115,-83.6985785151,270.999908447,0.0009,0.0,0.0,0.0,0.000961,0.0,0.0,0.0,0.005184,2
1672944151440411672,114595,1672944151454278522,gps,2,1,42.3001520599,-83.698578696,271.001922607,0.0009,0.0,0.0,0.0,0.000961,0.0,0.0,0.0,0.005184,2
1672944151460474871,114596,1672944151474271510,gps,2,1,42.3001530079,-83.6985788756,271.003997803,0.0009,0.0,0.0,0.0,0.000961,0.0,0.0,0.0,0.005184,2
1672944151480568062,114597,1672944151494496302,gps,2,1,42.3001539581,-83.6985790554,271.006103516,0.0009,0.0,0.0,0.0,0.000961,0.0,0.0,0.0,0.005184,2
1672944151500390655,114598,1672944151514310754,gps,2,1,42.300154911,-83.6985792336,271.008422852,0.0009,0.0,0.0,0.0,0.000961,0.0,0.0,0.0,0.005184,2
1672944151520386325,114599,1672944151534304056,gps,2,1,42.3001558643,-83.6985794121,271.010772705,0.0009,0.0,0.0,0.0,0.000961,0.0,0.0,0.0,0.005184,2
1672944151540716098,114600,1672944151554511480,gps,2,1,42.3001568189,-83.6985795889,271.013183594,0.0009,0.0,0.0,0.0,0.000961,0.0,0.0,0.0,0.005184,2
1672944151560562854,114601,1672944151574491452,gps,2,1,42.300157777,-83.6985797648,271.015655518,0.0009,0.0,0.0,0.0,0.000961,0.0,0.0,0.0,0.005184,2
1672944151580560102,114602,1672944151594438279,gps,2,1,42.3001587349,-83.6985799425,271.018096924,0.0009,0.0,0.0,0.0,0.000961,0.0,0.0,0.0,0.005184,2
1672944151600476772,114603,1672944151614349370,gps,2,1,42.3001596936,-83.6985801162,271.02053833,0.0009,0.0,0.0,0.0,0.000961,0.0,0.0,0.0,0.005184,2
1672944151620099429,114604,1672944151634407913,gps,2,1,42.3001606555,-83.6985802889,271.022857666,0.0009,0.0,0.0,0.0,0.000961,0.0,0.0,0.0,0.005184,2
1672944151640450342,114605,1672944151654335748,gps,2,1,42.3001616173,-83.6985804615,271.025177002,0.0009,0.0,0.0,0.0,0.000961,0.0,0.0,0.0,0.005184,2
1672944151660444055,114606,1672944151674371459,gps,2,1,42.3001625799,-83.6985806301,271.02746582,0.0009,0.0,0.0,0.0,0.000961,0.0,0.0,0.0,0.005184,2
1672944151680502784,114607,1672944151694266253,gps,2,1,42.3001635455,-83.6985807967,271.029541016,0.0009,0.0,0.0,0.0,0.000961,0.0,0.0,0.0,0.005184,2
1672944151700410229,114608,1672944151714341659,gps,2,1,42.3001645112,-83.6985809633,271.031646729,0.0009,0.0,0.0,0.0,0.000961,0.0,0.0,0.0,0.005184,2
1672944151720650712,114609,1672944151734381791,gps,2,1,42.3001654773,-83.698581126,271.033691406,0.0009,0.0,0.0,0.0,0.000961,0.0,0.0,0.0,0.005184,2
1672944151740020894,114610,1672944151754280201,gps,2,1,42.3001664474,-83.6985812866,271.035491943,0.0009,0.0,0.0,0.0,0.000961,0.0,0.0,0.0,0.005184,2
1672944151760532289,114611,1672944151774305785,gps,2,1,42.3001674171,-83.698581447,271.03729248,0.0009,0.0,0.0,0.0,0.000961,0.0,0.0,0.0,0.005184,2
1672944151780536713,114612,1672944151794455452,gps,2,1,42.3001683873,-83.6985816055,271.039093018,0.001156,0.0,0.0,0.0,0.001156,0.0,0.0,0.0,0.005329,2
1672944151800405999,114613,1672944151814332744,gps,2,1,42.3001693606,-83.6985817629,271.040740967,0.001156,0.0,0.0,0.0,0.001156,0.0,0.0,0.0,0.005329,2
1672944151820360744,114614,1672944151834345118,gps,2,1,42.3001703333,-83.6985819213,271.042449951,0.001156,0.0,0.0,0.0,0.001156,0.0,0.0,0.0,0.005329,2
1672944151840408120,114615,1672944151854309904,gps,2,1,42.3001713066,-83.6985820783,271.044189453,0.001156,0.0,0.0,0.0,0.001156,0.0,0.0,0.0,0.005329,2
1672944151860096500,114616,1672944151874324210,gps,2,1,42.3001722824,-83.6985822346,271.045776367,0.001156,0.0,0.0,0.0,0.001156,0.0,0.0,0.0,0.005329,2
1672944151880627158,114617,1672944151894374386,gps,2,1,42.3001732581,-83.698582391,271.047424316,0.001156,0.0,0.0,0.0,0.001156,0.0,0.0,0.0,0.005329,2
1672944151900070183,114618,1672944151914302293,gps,2,1,42.3001742339,-83.6985825452,271.049133301,0.001156,0.0,0.0,0.0,0.001156,0.0,0.0,0.0,0.005329,2
1672944151920056691,114619,1672944151934302503,gps,2,1,42.3001752126,-83.6985826976,271.051055908,0.001156,0.0,0.0,0.0,0.001156,0.0,0.0,0.0,0.005329,2
1672944151940654675,114620,1672944151954283159,gps,2,1,42.3001761908,-83.6985828497,271.052947998,0.001156,0.0,0.0,0.0,0.001156,0.0,0.0,0.0,0.005329,2
1672944151960356175,114621,1672944151974297157,gps,2,1,42.3001771698,-83.6985830006,271.054901123,0.001156,0.0,0.0,0.0,0.001156,0.0,0.0,0.0,0.005329,2
1672944151980309962,114622,1672944151994316568,gps,2,1,42.3001781512,-83.6985831492,271.056793213,0.001156,0.0,0.0,0.0,0.001156,0.0,0.0,0.0,0.005329,2
1672944152000396917,114623,1672944152014297410,gps,2,1,42.3001791325,-83.6985832972,271.058807373,0.001156,0.0,0.0,0.0,0.001156,0.0,0.0,0.0,0.005329,2
1672944152020406571,114624,1672944152034446975,gps,2,1,42.3001801136,-83.698583445,271.060852051,0.001156,0.0,0.0,0.0,0.001156,0.0,0.0,0.0,0.005329,2
1672944152040675337,114625,1672944152054416540,gps,2,1,42.3001810986,-83.6985835929,271.062774658,0.001156,0.0,0.0,0.0,0.001156,0.0,0.0,0.0,0.005329,2
1672944152060536517,114626,1672944152074416094,gps,2,1,42.3001820829,-83.6985837405,271.064758301,0.001156,0.0,0.0,0.0,0.001156,0.0,0.0,0.0,0.005329,2
1672944152080427724,114627,1672944152094475055,gps,2,1,42.3001830663,-83.6985838872,271.066741943,0.001156,0.0,0.0,0.0,0.001156,0.0,0.0,0.0,0.005329,2
1672944152100506222,114628,1672944152114331640,gps,2,1,42.3001840524,-83.6985840342,271.06854248,0.001156,0.0,0.0,0.0,0.001156,0.0,0.0,0.0,0.005329,2
1672944152120255718,114629,1672944152134354088,gps,2,1,42.3001850375,-83.6985841822,271.070404053,0.001156,0.0,0.0,0.0,0.001156,0.0,0.0,0.0,0.005329,2
1672944152140523048,114630,1672944152154448669,gps,2,1,42.3001860229,-83.6985843268,271.072357178,0.001156,0.0,0.0,0.0,0.001156,0.0,0.0,0.0,0.005329,2
1672944152160466581,114631,1672944152174366531,gps,2,1,42.3001870099,-83.6985844711,271.074279785,0.001156,0.0,0.0,0.0,0.001156,0.0,0.0,0.0,0.005329,2
1672944152180502486,114632,1672944152194364277,gps,2,1,42.3001879975,-83.6985846153,271.076171875,0.001156,0.0,0.0,0.0,0.001156,0.0,0.0,0.0,0.005329,2
1672944152200477406,114633,1672944152214475926,gps,2,1,42.3001889853,-83.6985847555,271.078155518,0.001156,0.0,0.0,0.0,0.001156,0.0,0.0,0.0,0.005329,2
1672944152220415797,114634,1672944152234431634,gps,2,1,42.3001899756,-83.6985848934,271.080047607,0.001156,0.0,0.0,0.0,0.001156,0.0,0.0,0.0,0.005329,2
1672944152240319321,114635,1672944152254305165,gps,2,1,42.3001909665,-83.6985850318,271.081970215,0.001156,0.0,0.0,0.0,0.001156,0.0,0.0,0.0,0.005329,2
1672944152260632498,114636,1672944152274384852,gps,2,1,42.3001919568,-83.6985851664,271.083984375,0.001156,0.0,0.0,0.0,0.001156,0.0,0.0,0.0,0.005329,2
1672944152280625955,114637,1672944152294293834,gps,2,1,42.3001929498,-83.6985852993,271.085845947,0.001156,0.0,0.0,0.0,0.001156,0.0,0.0,0.0,0.005329,2
1672944152300534650,114638,1672944152314326365,gps,2,1,42.3001939431,-83.6985854323,271.08770752,0.001156,0.0,0.0,0.0,0.001156,0.0,0.0,0.0,0.005329,2
1672944152320484565,114639,1672944152334424145,gps,2,1,42.3001949359,-83.6985855628,271.089569092,0.001156,0.0,0.0,0.0,0.001156,0.0,0.0,0.0,0.005329,2
1672944152340051362,114640,1672944152354326476,gps,2,1,42.3001959312,-83.6985856914,271.091308594,0.001156,0.0,0.0,0.0,0.001156,0.0,0.0,0.0,0.005329,2
1672944152360329674,114641,1672944152374295828,gps,2,1,42.3001969262,-83.6985858194,271.093078613,0.001156,0.0,0.0,0.0,0.001156,0.0,0.0,0.0,0.005329,2
1672944152380335505,114642,1672944152394378257,gps,2,1,42.3001979208,-83.6985859472,271.095001221,0.001156,0.0,0.0,0.0,0.001156,0.0,0.0,0.0,0.005329,2
1672944152400597267,114643,1672944152414385994,gps,2,1,42.3001989175,-83.698586073,271.096923828,0.001156,0.0,0.0,0.0,0.001156,0.0,0.0,0.0,0.005329,2
1672944152420215350,114644,1672944152434323107,gps,2,1,42.3001999144,-83.6985862011,271.098907471,0.001156,0.0,0.0,0.0,0.001156,0.0,0.0,0.0,0.005329,2
1672944152440524062,114645,1672944152454396756,gps,2,1,42.300200911,-83.698586326,271.100921631,0.001156,0.0,0.0,0.0,0.001156,0.0,0.0,0.0,0.005329,2
1672944152460638283,114646,1672944152474363509,gps,2,1,42.3002019099,-83.6985864514,271.102874756,0.001156,0.0,0.0,0.0,0.001156,0.0,0.0,0.0,0.005329,2
1672944152480424051,114647,1672944152494309985,gps,2,1,42.3002029079,-83.6985865759,271.104858398,0.001156,0.0,0.0,0.0,0.001156,0.0,0.0,0.0,0.005329,2
1672944152500513627,114648,1672944152514384273,gps,2,1,42.3002039063,-83.6985866977,271.106842041,0.001156,0.0,0.0,0.0,0.001156,0.0,0.0,0.0,0.005329,2
1672944152520372466,114649,1672944152534381235,gps,2,1,42.3002049065,-83.6985868193,271.108917236,0.001156,0.0,0.0,0.0,0.001156,0.0,0.0,0.0,0.005329,2
1672944152540538915,114650,1672944152554382155,gps,2,1,42.3002059053,-83.6985869426,271.110900879,0.001156,0.0,0.0,0.0,0.001156,0.0,0.0,0.0,0.005329,2
1672944152560806369,114651,1672944152574651428,gps,2,1,42.3002069063,-83.6985870619,271.113067627,0.001156,0.0,0.0,0.0,0.001156,0.0,0.0,0.0,0.005329,2
1672944152580544006,114652,1672944152594434720,gps,2,1,42.3002079078,-83.6985871825,271.11529541,0.001156,0.0,0.0,0.0,0.001156,0.0,0.0,0.0,0.005329,2
1672944152600456325,114653,1672944152614386906,gps,2,1,42.300208909,-83.6985873036,271.117553711,0.001156,0.0,0.0,0.0,0.001156,0.0,0.0,0.0,0.005329,2
1672944152620639441,114654,1672944152634423931,gps,2,1,42.3002099114,-83.69858742,271.119934082,0.001156,0.0,0.0,0.0,0.001156,0.0,0.0,0.0,0.005329,2
1672944152640493263,114655,1672944152654442148,gps,2,1,42.300210915,-83.6985875375,271.122406006,0.001156,0.0,0.0,0.0,0.001156,0.0,0.0,0.0,0.005329,2
1672944152660547304,114656,1672944152674320040,gps,2,1,42.3002119185,-83.6985876549,271.124786377,0.001156,0.0,0.0,0.0,0.001156,0.0,0.0,0.0,0.005329,2
1672944152680323890,114657,1672944152694394242,gps,2,1,42.3002129224,-83.6985877675,271.127197266,0.001156,0.0,0.0,0.0,0.001156,0.0,0.0,0.0,0.005329,2
1672944152700440415,114658,1672944152714318765,gps,2,1,42.3002139278,-83.6985878805,271.129577637,0.001156,0.0,0.0,0.0,0.001156,0.0,0.0,0.0,0.005329,2
1672944152720441819,114659,1672944152734362910,gps,2,1,42.3002149335,-83.6985879912,271.131896973,0.001156,0.0,0.0,0.0,0.001156,0.0,0.0,0.0,0.005329,2
1672944152740490311,114660,1672944152754373919,gps,2,1,42.3002159392,-83.6985880997,271.134185791,0.001156,0.0,0.0,0.0,0.001156,0.0,0.0,0.0,0.005329,2
1672944152760388450,114661,1672944152774354823,gps,2,1,42.3002169473,-83.6985882059,271.136260986,0.001156,0.0,0.0,0.0,0.001156,0.0,0.0,0.0,0.005329,2
1672944152780380082,114662,1672944152794297002,gps,2,1,42.3002179549,-83.6985883123,271.138336182,0.001156,0.0,0.0,0.0,0.001156,0.0,0.0,0.0,0.005329,2
1672944152800437642,114663,1672944152814377606,gps,2,1,42.3002189628,-83.6985884167,271.140319824,0.001156,0.0,0.0,0.0,0.001156,0.0,0.0,0.0,0.005329,2
1672944152820302359,114664,1672944152834390968,gps,2,1,42.3002199724,-83.6985885202,271.142089844,0.001156,0.0,0.0,0.0,0.001156,0.0,0.0,0.0,0.005329,2
1672944152840451430,114665,1672944152854330420,gps,2,1,42.3002209821,-83.6985886234,271.143920898,0.001156,0.0,0.0,0.0,0.001156,0.0,0.0,0.0,0.005329,2
1672944152860135349,114666,1672944152874366154,gps,2,1,42.3002219917,-83.6985887256,271.1456604,0.001156,0.0,0.0,0.0,0.001156,0.0,0.0,0.0,0.005329,2
1672944152880466120,114667,1672944152894295512,gps,2,1,42.3002230031,-83.6985888273,271.14743042,0.001156,0.0,0.0,0.0,0.001156,0.0,0.0,0.0,0.005329,2
1672944152900638817,114668,1672944152914329414,gps,2,1,42.3002240142,-83.6985889291,271.149200439,0.001156,0.0,0.0,0.0,0.001156,0.0,0.0,0.0,0.005329,2
1672944152920411188,114669,1672944152934337035,gps,2,1,42.3002250259,-83.69858903,271.151062012,0.001156,0.0,0.0,0.0,0.001156,0.0,0.0,0.0,0.005329,2
1672944152940400379,114670,1672944152954311128,gps,2,1,42.3002260395,-83.6985891316,271.152954102,0.001156,0.0,0.0,0.0,0.001156,0.0,0.0,0.0,0.005329,2
1672944152960348724,114671,1672944152974285960,gps,2,1,42.3002270527,-83.6985892329,271.154815674,0.001156,0.0,0.0,0.0,0.001156,0.0,0.0,0.0,0.005329,2
1672944152980535286,114672,1672944152994335586,gps,2,1,42.3002280663,-83.6985893328,271.156768799,0.001156,0.0,0.0,0.0,0.001156,0.0,0.0,0.0,0.005329,2
1672944153000087156,114673,1672944153014323265,gps,2,1,42.300229082,-83.6985894318,271.158569336,0.001156,0.0,0.0,0.0,0.001156,0.0,0.0,0.0,0.005329,2
1672944153020138708,114674,1672944153034292018,gps,2,1,42.300230098,-83.6985895306,271.160400391,0.001156,0.0,0.0,0.0,0.001156,0.0,0.0,0.0,0.005329,2
1672944153040447775,114675,1672944153054378482,gps,2,1,42.3002311133,-83.6985896267,271.16217041,0.001156,0.0,0.0,0.0,0.001156,0.0,0.0,0.0,0.005329,2
1672944153060503845,114676,1672944153074499710,gps,2,1,42.3002321315,-83.6985897207,271.163757324,0.001156,0.0,0.0,0.0,0.001156,0.0,0.0,0.0,0.005329,2
1672944153080372814,114677,1672944153094374530,gps,2,1,42.3002331491,-83.6985898159,271.165252686,0.001156,0.0,0.0,0.0,0.001156,0.0,0.0,0.0,0.005329,2
1672944153100360679,114678,1672944153114387444,gps,2,1,42.3002341661,-83.6985899067,271.166778564,0.001156,0.0,0.0,0.0,0.001156,0.0,0.0,0.0,0.005329,2
