%time,field.header.seq,field.header.stamp,field.header.frame_id,field.status.status,field.status.service,field.latitude,field.longitude,field.altitude,field.position_covariance0,field.position_covariance1,field.position_covariance2,field.position_covariance3,field.position_covariance4,field.position_covariance5,field.position_covariance6,field.position_covariance7,field.position_covariance8,field.position_covariance_type
1672944724473006119,143247,1672944724496911069,gps,2,1,42.3015078365,-83.6987524765,272.773498535,0.001089,0.0,0.0,0.0,0.001089,0.0,0.0,0.0,0.005329,2
1672944724492841027,143248,1672944724516826203,gps,2,1,42.3015078387,-83.6987524748,272.773620605,0.001089,0.0,0.0,0.0,0.001089,0.0,0.0,0.0,0.005329,2
1672944724512749332,143249,1672944724536807149,gps,2,1,42.3015078414,-83.6987524732,272.773712158,0.001089,0.0,0.0,0.0,0.001089,0.0,0.0,0.0,0.005329,2
1672944724533212666,143250,1672944724556949759,gps,2,1,42.3015078389,-83.6987524691,272.773681641,0.001089,0.0,0.0,0.0,0.001089,0.0,0.0,0.0,0.005329,2
1672944724553084651,143251,1672944724576819517,gps,2,1,42.3015078414,-83.6987524673,272.773773193,0.001089,0.0,0.0,0.0,0.001089,0.0,0.0,0.0,0.005329,2
1672944724572865298,143252,1672944724596840950,gps,2,1,42.3015078451,-83.6987524665,272.774017334,0.001089,0.0,0.0,0.0,0.001089,0.0,0.0,0.0,0.005329,2
1672944724592631388,143253,1672944724616909073,gps,2,1,42.3015078426,-83.6987524622,272.773986816,0.001089,0.0,0.0,0.0,0.001089,0.0,0.0,0.0,0.005329,2
1672944724613113800,143254,1672944724636930638,gps,2,1,42.3015078454,-83.6987524626,272.774139404,0.001089,0.0,0.0,0.0,0.001089,0.0,0.0,0.0,0.005329,2
1672944724633186121,143255,1672944724656822159,gps,2,1,42.3015078479,-83.6987524627,272.774291992,0.001089,0.0,0.0,0.0,0.001089,0.0,0.0,0.0,0.005329,2
1672944724652914249,143256,1672944724676812943,gps,2,1,42.3015078452,-83.6987524585,272.774230957,0.001089,0.0,0.0,0.0,0.001089,0.0,0.0,0.0,0.005329,2
1672944724673137526,143257,1672944724696815610,gps,2,1,42.3015078466,-83.6987524585,272.774353027,0.001089,0.0,0.0,0.0,0.001089,0.0,0.0,0.0,0.005329,2
1672944724693126821,143258,1672944724716863858,gps,2,1,42.3015078478,-83.6987524585,272.774475098,0.001089,0.0,0.0,0.0,0.001089,0.0,0.0,0.0,0.005329,2
1672944724713049401,143259,1672944724736767171,gps,2,1,42.301507843,-83.6987524546,272.774414062,0.001089,0.0,0.0,0.0,0.001089,0.0,0.0,0.0,0.005329,2
1672944724733155076,143260,1672944724756931513,gps,2,1,42.3015078409,-83.6987524545,272.77444458,0.001089,0.0,0.0,0.0,0.001089,0.0,0.0,0.0,0.005329,2
1672944724752775108,143261,1672944724776814586,gps,2,1,42.3015078387,-83.6987524544,272.774475098,0.001089,0.0,0.0,0.0,0.001089,0.0,0.0,0.0,0.005329,2
1672944724772683457,143262,1672944724796872402,gps,2,1,42.3015078305,-83.6987524515,272.77432251,0.001089,0.0,0.0,0.0,0.001089,0.0,0.0,0.0,0.005329,2
1672944724792571251,143263,1672944724816808802,gps,2,1,42.3015078243,-83.6987524523,272.774291992,0.001089,0.0,0.0,0.0,0.001089,0.0,0.0,0.0,0.005329,2
1672944724812560549,143264,1672944724836781542,gps,2,1,42.3015078189,-83.698752454,272.774261475,0.001089,0.0,0.0,0.0,0.001089,0.0,0.0,0.0,0.005329,2
1672944724832851384,143265,1672944724856874641,gps,2,1,42.3015078064,-83.6987524525,272.774047852,0.001089,0.0,0.0,0.0,0.001089,0.0,0.0,0.0,0.005329,2
1672944724852761842,143266,1672944724876791350,gps,2,1,42.3015077961,-83.6987524555,272.773986816,0.001089,0.0,0.0,0.0,0.001089,0.0,0.0,0.0,0.005329,2
1672944724872775406,143267,1672944724896817484,gps,2,1,42.3015077854,-83.6987524584,272.773895264,0.001089,0.0,0.0,0.0,0.001089,0.0,0.0,0.0,0.005329,2
1672944724892582316,143268,1672944724916814536,gps,2,1,42.3015077677,-83.6987524584,272.773681641,0.001089,0.0,0.0,0.0,0.001089,0.0,0.0,0.0,0.005329,2
1672944724912680838,143269,1672944724936823623,gps,2,1,42.3015077511,-83.698752462,272.773620605,0.001089,0.0,0.0,0.0,0.001089,0.0,0.0,0.0,0.005329,2
1672944724932583489,143270,1672944724956799956,gps,2,1,42.301507734,-83.6987524656,272.773590088,0.001089,0.0,0.0,0.0,0.001089,0.0,0.0,0.0,0.005329,2
1672944724952578698,143271,1672944724976808906,gps,2,1,42.3015077108,-83.6987524672,272.773376465,0.001089,0.0,0.0,0.0,0.001089,0.0,0.0,0.0,0.005329,2
1672944724972856069,143272,1672944724996782576,gps,2,1,42.3015076885,-83.6987524726,272.77331543,0.001089,0.0,0.0,0.0,0.001089,0.0,0.0,0.0,0.005329,2
1672944724992941778,143273,1672944725016824730,gps,2,1,42.3015076657,-83.6987524779,272.773284912,0.001089,0.0,0.0,0.0,0.001089,0.0,0.0,0.0,0.005329,2
1672944725013090314,143274,1672944725036894365,gps,2,1,42.301507637,-83.6987524818,272.773101807,0.001089,0.0,0.0,0.0,0.001089,0.0,0.0,0.0,0.005329,2
1672944725032903805,143275,1672944725056943315,gps,2,1,42.3015076095,-83.698752491,272.77331543,0.001089,0.0,0.0,0.0,0.001089,0.0,0.0,0.0,0.005329,2
1672944725053034007,143276,1672944725076846957,gps,2,1,42.3015075816,-83.6987525002,272.773529053,0.001089,0.0,0.0,0.0,0.001089,0.0,0.0,0.0,0.005329,2
1672944725073052669,143277,1672944725096898405,gps,2,1,42.3015075467,-83.6987525067,272.773376465,0.001089,0.0,0.0,0.0,0.001089,0.0,0.0,0.0,0.005329,2
1672944725093071894,143278,1672944725116890679,gps,2,1,42.3015075124,-83.6987525181,272.77355957,0.001089,0.0,0.0,0.0,0.001089,0.0,0.0,0.0,0.005329,2
1672944725112920414,143279,1672944725136901504,gps,2,1,42.3015074786,-83.6987525303,272.773742676,0.001089,0.0,0.0,0.0,0.001089,0.0,0.0,0.0,0.005329,2
1672944725133077957,143280,1672944725156885120,gps,2,1,42.3015074369,-83.6987525391,272.773590088,0.001089,0.0,0.0,0.0,0.001089,0.0,0.0,0.0,0.005329,2
1672944725152999396,143281,1672944725176930068,gps,2,1,42.3015073962,-83.6987525529,272.773742676,0.001089,0.0,0.0,0.0,0.001089,0.0,0.0,0.0,0.005329,2
1672944725172758300,143282,1672944725196819832,gps,2,1,42.3015073552,-83.698752567,272.773895264,0.001089,0.0,0.0,0.0,0.001089,0.0,0.0,0.0,0.005329,2
1672944725192716079,143283,1672944725216887683,gps,2,1,42.3015073067,-83.6987525773,272.773742676,0.001089,0.0,0.0,0.0,0.001089,0.0,0.0,0.0,0.005329,2
1672944725212956404,143284,1672944725236934704,gps,2,1,42.3015072587,-83.6987525926,272.773834229,0.001089,0.0,0.0,0.0,0.001089,0.0,0.0,0.0,0.005329,2
1672944725232784161,143285,1672944725256822403,gps,2,1,42.3015072104,-83.6987526079,272.773956299,0.001089,0.0,0.0,0.0,0.001089,0.0,0.0,0.0,0.005329,2
1672944725252881223,143286,1672944725276856273,gps,2,1,42.3015071546,-83.6987526198,272.773773193,0.001089,0.0,0.0,0.0,0.001089,0.0,0.0,0.0,0.005329,2
1672944725273058768,143287,1672944725296886189,gps,2,1,42.3015070988,-83.6987526366,272.773803711,0.001089,0.0,0.0,0.0,0.001089,0.0,0.0,0.0,0.005329,2
1672944725292769626,143288,1672944725316815316,gps,2,1,42.3015070426,-83.6987526541,272.773834229,0.001089,0.0,0.0,0.0,0.001089,0.0,0.0,0.0,0.005329,2
1672944725312857305,143289,1672944725336890902,gps,2,1,42.3015069792,-83.698752668,272.773620605,0.001089,0.0,0.0,0.0,0.001089,0.0,0.0,0.0,0.005329,2
1672944725332729859,143290,1672944725356896221,gps,2,1,42.3015069156,-83.6987526874,272.773620605,0.001089,0.0,0.0,0.0,0.001089,0.0,0.0,0.0,0.005329,2
1672944725353033147,143291,1672944725376816286,gps,2,1,42.3015068516,-83.6987527068,272.773590088,0.001089,0.0,0.0,0.0,0.001089,0.0,0.0,0.0,0.005329,2
1672944725372562360,143292,1672944725396845385,gps,2,1,42.3015067807,-83.6987527229,272.773376465,0.001089,0.0,0.0,0.0,0.001089,0.0,0.0,0.0,0.005329,2
1672944725392767824,143293,1672944725416898933,gps,2,1,42.3015067092,-83.6987527444,272.77331543,0.001089,0.0,0.0,0.0,0.001089,0.0,0.0,0.0,0.005329,2
1672944725412941514,143294,1672944725436829520,gps,2,1,42.3015066376,-83.6987527667,272.773223877,0.001089,0.0,0.0,0.0,0.001089,0.0,0.0,0.0,0.005329,2
1672944725432850354,143295,1672944725456882628,gps,2,1,42.3015065588,-83.6987527852,272.772949219,0.001089,0.0,0.0,0.0,0.001089,0.0,0.0,0.0,0.005329,2
1672944725452684380,143296,1672944725476823188,gps,2,1,42.3015064792,-83.6987528097,272.772796631,0.001089,0.0,0.0,0.0,0.001089,0.0,0.0,0.0,0.005329,2
1672944725472588092,143297,1672944725496847365,gps,2,1,42.301506399,-83.698752834,272.772644043,0.001089,0.0,0.0,0.0,0.001089,0.0,0.0,0.0,0.005329,2
1672944725492942498,143298,1672944725516818506,gps,2,1,42.3015063116,-83.6987528551,272.772338867,0.001089,0.0,0.0,0.0,0.001089,0.0,0.0,0.0,0.005329,2
1672944725513198057,143299,1672944725536871079,gps,2,1,42.3015062226,-83.6987528824,272.772125244,0.001089,0.0,0.0,0.0,0.001089,0.0,0.0,0.0,0.005329,2
1672944725532762912,143300,1672944725556927833,gps,2,1,42.3015061343,-83.6987529111,272.772033691,0.001089,0.0,0.0,0.0,0.001089,0.0,0.0,0.0,0.005329,2
1672944725553089515,143301,1672944725576982786,gps,2,1,42.3015060373,-83.6987529346,272.77166748,0.001089,0.0,0.0,0.0,0.001089,0.0,0.0,0.0,0.005329,2
1672944725572740972,143302,1672944725596915971,gps,2,1,42.3015059393,-83.6987529652,272.77154541,0.001089,0.0,0.0,0.0,0.001089,0.0,0.0,0.0,0.005329,2
1672944725592941555,143303,1672944725616866774,gps,2,1,42.3015058404,-83.6987529957,272.77142334,0.001089,0.0,0.0,0.0,0.001089,0.0,0.0,0.0,0.005329,2
1672944725612856494,143304,1672944725636998471,gps,2,1,42.3015057332,-83.6987530213,272.770996094,0.001089,0.0,0.0,0.0,0.001089,0.0,0.0,0.0,0.005329,2
1672944725632620680,143305,1672944725656835333,gps,2,1,42.3015056238,-83.6987530537,272.770812988,0.001089,0.0,0.0,0.0,0.001089,0.0,0.0,0.0,0.005329,2
1672944725653029654,143306,1672944725676904334,gps,2,1,42.3015055139,-83.6987530859,272.770629883,0.001089,0.0,0.0,0.0,0.001089,0.0,0.0,0.0,0.005329,2
1672944725673040351,143307,1672944725696839703,gps,2,1,42.3015053956,-83.6987531138,272.770172119,0.001089,0.0,0.0,0.0,0.001089,0.0,0.0,0.0,0.005329,2
1672944725692964471,143308,1672944725716800507,gps,2,1,42.3015052748,-83.698753148,272.769958496,0.001089,0.0,0.0,0.0,0.001089,0.0,0.0,0.0,0.005329,2
1672944725712797435,143309,1672944725736802579,gps,2,1,42.3015051537,-83.6987531827,272.769683838,0.001089,0.0,0.0,0.0,0.001089,0.0,0.0,0.0,0.005329,2
1672944725732700683,143310,1672944725756811740,gps,2,1,42.3015050241,-83.698753213,272.769226074,0.001089,0.0,0.0,0.0,0.001089,0.0,0.0,0.0,0.005329,2
1672944725753027177,143311,1672944725776862898,gps,2,1,42.3015048918,-83.69875325,272.768920898,0.001089,0.0,0.0,0.0,0.001089,0.0,0.0,0.0,0.005329,2
1672944725773007595,143312,1672944725796810670,gps,2,1,42.3015047586,-83.6987532867,272.768585205,0.0009,0.0,0.0,0.0,0.0009,0.0,0.0,0.0,0.005041,2
1672944725793104609,143313,1672944725816851379,gps,2,1,42.3015046173,-83.6987533196,272.768096924,0.0009,0.0,0.0,0.0,0.0009,0.0,0.0,0.0,0.005041,2
1672944725813093005,143314,1672944725836882293,gps,2,1,42.3015044726,-83.6987533585,272.767730713,0.0009,0.0,0.0,0.0,0.0009,0.0,0.0,0.0,0.005041,2
1672944725833115696,143315,1672944725856827421,gps,2,1,42.3015043274,-83.6987533973,272.767364502,0.0009,0.0,0.0,0.0,0.0009,0.0,0.0,0.0,0.005041,2
1672944725853026271,143316,1672944725876893260,gps,2,1,42.3015041741,-83.6987534326,272.766815186,0.0009,0.0,0.0,0.0,0.0009,0.0,0.0,0.0,0.005041,2
1672944725872755870,143317,1672944725896795065,gps,2,1,42.3015040171,-83.6987534734,272.766418457,0.0009,0.0,0.0,0.0,0.0009,0.0,0.0,0.0,0.005041,2
1672944725892800637,143318,1672944725916875839,gps,2,1,42.3015038595,-83.6987535142,272.765991211,0.0009,0.0,0.0,0.0,0.0009,0.0,0.0,0.0,0.005041,2
1672944725912941410,143319,1672944725936873573,gps,2,1,42.301503694,-83.6987535517,272.765441895,0.0009,0.0,0.0,0.0,0.0009,0.0,0.0,0.0,0.005041,2
1672944725932896718,143320,1672944725956837039,gps,2,1,42.3015035248,-83.6987535962,272.764953613,0.0009,0.0,0.0,0.0,0.0009,0.0,0.0,0.0,0.005041,2
1672944725952879347,143321,1672944725976761892,gps,2,1,42.3015033551,-83.6987536406,272.76449585,0.0009,0.0,0.0,0.0,0.0009,0.0,0.0,0.0,0.005041,2
1672944725972955799,143322,1672944725996885910,gps,2,1,42.3015031772,-83.6987536801,272.763885498,0.0009,0.0,0.0,0.0,0.0009,0.0,0.0,0.0,0.005041,2
1672944725992864329,143323,1672944726016830874,gps,2,1,42.3015029954,-83.6987537261,272.763397217,0.0009,0.0,0.0,0.0,0.0009,0.0,0.0,0.0,0.005041,2
1672944726012919916,143324,1672944726036820106,gps,2,1,42.3015028128,-83.6987537722,272.762878418,0.0009,0.0,0.0,0.0,0.0009,0.0,0.0,0.0,0.005041,2
1672944726033233608,143325,1672944726056989580,gps,2,1,42.3015026225,-83.6987538134,272.762237549,0.0009,0.0,0.0,0.0,0.0009,0.0,0.0,0.0,0.005041,2
1672944726052941832,143326,1672944726076932097,gps,2,1,42.301502429,-83.6987538623,272.76184082,0.0009,0.0,0.0,0.0,0.0009,0.0,0.0,0.0,0.005041,2
1672944726073139561,143327,1672944726096814895,gps,2,1,42.3015022359,-83.6987539123,272.761352539,0.0009,0.0,0.0,0.0,0.0009,0.0,0.0,0.0,0.005041,2
1672944726092998428,143328,1672944726116920891,gps,2,1,42.3015020334,-83.698753955,272.760681152,0.0009,0.0,0.0,0.0,0.0009,0.0,0.0,0.0,0.005041,2
1672944726112982136,143329,1672944726137041247,gps,2,1,42.3015018284,-83.6987540056,272.760162354,0.0009,0.0,0.0,0.0,0.0009,0.0,0.0,0.0,0.005041,2
1672944726132972722,143330,1672944726156844120,gps,2,1,42.3015016229,-83.6987540561,272.759643555,0.0009,0.0,0.0,0.0,0.0009,0.0,0.0,0.0,0.005041,2
1672944726152772213,143331,1672944726176847473,gps,2,1,42.3015014081,-83.6987540993,272.758972168,0.0009,0.0,0.0,0.0,0.0009,0.0,0.0,0.0,0.005041,2
1672944726172970077,143332,1672944726196872880,gps,2,1,42.3015011906,-83.6987541497,272.758453369,0.0009,0.0,0.0,0.0,0.0009,0.0,0.0,0.0,0.005041,2
1672944726192861212,143333,1672944726216800126,gps,2,1,42.3015009724,-83.6987542008,272.75793457,0.0009,0.0,0.0,0.0,0.0009,0.0,0.0,0.0,0.005041,2
1672944726212569185,143334,1672944726236859972,gps,2,1,42.3015007453,-83.6987542435,272.757263184,0.0009,0.0,0.0,0.0,0.0009,0.0,0.0,0.0,0.005041,2
1672944726233126931,143335,1672944726256886461,gps,2,1,42.301500515,-83.6987542933,272.756744385,0.0009,0.0,0.0,0.0,0.0009,0.0,0.0,0.0,0.005041,2
1672944726253071459,143336,1672944726276776100,gps,2,1,42.3015002839,-83.6987543431,272.756195068,0.0009,0.0,0.0,0.0,0.0009,0.0,0.0,0.0,0.005041,2
1672944726272624111,143337,1672944726296829009,gps,2,1,42.3015000444,-83.6987543844,272.755554199,0.0009,0.0,0.0,0.0,0.0009,0.0,0.0,0.0,0.005041,2
1672944726292691935,143338,1672944726316854631,gps,2,1,42.3014998015,-83.6987544327,272.7550354,0.0009,0.0,0.0,0.0,0.0009,0.0,0.0,0.0,0.005041,2
1672944726312586693,143339,1672944726336783005,gps,2,1,42.301499558,-83.6987544807,272.754486084,0.0009,0.0,0.0,0.0,0.0009,0.0,0.0,0.0,0.005041,2
1672944726332798920,143340,1672944726356809133,gps,2,1,42.3014993057,-83.6987545201,272.753845215,0.0009,0.0,0.0,0.0,0.0009,0.0,0.0,0.0,0.005041,2
1672944726353120840,143341,1672944726376843137,gps,2,1,42.3014990497,-83.6987545659,272.753265381,0.0009,0.0,0.0,0.0,0.0009,0.0,0.0,0.0,0.005041,2
1672944726372598248,143342,1672944726396744003,gps,2,1,42.3014987915,-83.6987546106,272.752716064,0.0009,0.0,0.0,0.0,0.0009,0.0,0.0,0.0,0.005041,2
1672944726392441801,143343,1672944726416765804,gps,2,1,42.3014985263,-83.698754648,272.751983643,0.0009,0.0,0.0,0.0,0.0009,0.0,0.0,0.0,0.005041,2
1672944726412731580,143344,1672944726436853005,gps,2,1,42.3014982553,-83.6987546906,272.751342773,0.0009,0.0,0.0,0.0,0.0009,0.0,0.0,0.0,0.005041,2
1672944726432753933,143345,1672944726456801295,gps,2,1,42.3014979839,-83.6987547327,272.750671387,0.0009,0.0,0.0,0.0,0.0009,0.0,0.0,0.0,0.005041,2
1672944726452634658,143346,1672944726476811182,gps,2,1,42.301497705,-83.6987547678,272.749786377,0.0009,0.0,0.0,0.0,0.0009,0.0,0.0,0.0,0.005041,2
1672944726472615869,143347,1672944726496784597,gps,2,1,42.3014974202,-83.6987548075,272.748931885,0.0009,0.0,0.0,0.0,0.0009,0.0,0.0,0.0,0.005041,2
1672944726492571269,143348,1672944726516813396,gps,2,1,42.3014971348,-83.6987548467,272.748077393,0.0009,0.0,0.0,0.0,0.0009,0.0,0.0,0.0,0.005041,2
1672944726512941745,143349,1672944726536877458,gps,2,1,42.3014968421,-83.6987548792,272.747009277,0.0009,0.0,0.0,0.0,0.0009,0.0,0.0,0.0,0.005041,2
1672944726532912598,143350,1672944726556912232,gps,2,1,42.3014965446,-83.6987549169,272.745910645,0.0009,0.0,0.0,0.0,0.0009,0.0,0.0,0.0,0.005041,2
1672944726553071038,143351,1672944726576834731,gps,2,1,42.3014962466,-83.6987549562,272.744812012,0.0009,0.0,0.0,0.0,0.0009,0.0,0.0,0.0,0.005041,2
1672944726572975828,143352,1672944726596892677,gps,2,1,42.3014959409,-83.6987549858,272.743591309,0.0009,0.0,0.0,0.0,0.0009,0.0,0.0,0.0,0.005041,2
1672944726592631080,143353,1672944726616853763,gps,2,1,42.3014956306,-83.6987550221,272.742462158,0.0009,0.0,0.0,0.0,0.0009,0.0,0.0,0.0,0.005041,2
1672944726612745833,143354,1672944726636880371,gps,2,1,42.3014953204,-83.6987550593,272.741271973,0.0009,0.0,0.0,0.0,0.0009,0.0,0.0,0.0,0.005041,2
1672944726632597208,143355,1672944726656815359,gps,2,1,42.3014950011,-83.6987550865,272.740020752,0.0009,0.0,0.0,0.0,0.0009,0.0,0.0,0.0,0.005041,2
1672944726652920462,143356,1672944726676841695,gps,2,1,42.3014946779,-83.6987551213,272.738800049,0.0009,0.0,0.0,0.0,0.0009,0.0,0.0,0.0,0.005041,2
1672944726672708582,143357,1672944726696777670,gps,2,1,42.3014943537,-83.698755157,272.737487793,0.0009,0.0,0.0,0.0,0.0009,0.0,0.0,0.0,0.005041,2
1672944726692859555,143358,1672944726716829653,gps,2,1,42.3014940213,-83.698755182,272.736236572,0.0009,0.0,0.0,0.0,0.0009,0.0,0.0,0.0,0.005041,2
1672944726712779656,143359,1672944726736863966,gps,2,1,42.3014936843,-83.6987552146,272.734893799,0.0009,0.0,0.0,0.0,0.0009,0.0,0.0,0.0,0.005041,2
1672944726732661862,143360,1672944726756845174,gps,2,1,42.3014933466,-83.6987552468,272.733612061,0.0009,0.0,0.0,0.0,0.0009,0.0,0.0,0.0,0.005041,2
1672944726752552928,143361,1672944726776870325,gps,2,1,42.3014930007,-83.698755268,272.732299805,0.0009,0.0,0.0,0.0,0.0009,0.0,0.0,0.0,0.005041,2
1672944726772961378,143362,1672944726796823528,gps,2,1,42.3014926499,-83.6987552947,272.730926514,0.0009,0.0,0.0,0.0,0.0009,0.0,0.0,0.0,0.005041,2
1672944726792955461,143363,1672944726816851931,gps,2,1,42.3014922985,-83.6987553208,272.729553223,0.0009,0.0,0.0,0.0,0.0009,0.0,0.0,0.0,0.005041,2
1672944726812971743,143364,1672944726836884304,gps,2,1,42.3014919389,-83.6987553354,272.728149414,0.0009,0.0,0.0,0.0,0.0009,0.0,0.0,0.0,0.005041,2
1672944726833022638,143365,1672944726856825727,gps,2,1,42.3014915743,-83.6987553554,272.726837158,0.0009,0.0,0.0,0.0,0.0009,0.0,0.0,0.0,0.005041,2
1672944726852776879,143366,1672944726876831317,gps,2,1,42.301491209,-83.6987553747,272.725494385,0.0009,0.0,0.0,0.0,0.0009,0.0,0.0,0.0,0.005041,2
1672944726872884744,143367,1672944726896856346,gps,2,1,42.3014908364,-83.6987553832,272.724090576,0.0009,0.0,0.0,0.0,0.0009,0.0,0.0,0.0,0.005041,2
1672944726892447521,143368,1672944726916788375,gps,2,1,42.3014904597,-83.6987553975,272.722808838,0.0009,0.0,0.0,0.0,0.0009,0.0,0.0,0.0,0.005041,2
1672944726912558602,143369,1672944726936821349,gps,2,1,42.301490082,-83.6987554131,272.721466064,0.0009,0.0,0.0,0.0,0.0009,0.0,0.0,0.0,0.005041,2
1672944726932589098,143370,1672944726956864767,gps,2,1,42.3014896982,-83.6987554172,272.720123291,0.0009,0.0,0.0,0.0,0.0009,0.0,0.0,0.0,0.005041,2
1672944726952560709,143371,1672944726976774449,gps,2,1,42.3014893099,-83.6987554278,272.718902588,0.0009,0.0,0.0,0.0,0.0009,0.0,0.0,0.0,0.005041,2
1672944726972885311,143372,1672944726996857013,gps,2,1,42.3014889211,-83.6987554376,272.717712402,0.0009,0.0,0.0,0.0,0.0009,0.0,0.0,0.0,0.005041,2
1672944726992768141,143373,1672944727016908793,gps,2,1,42.3014885261,-83.6987554354,272.716552734,0.0009,0.0,0.0,0.0,0.0009,0.0,0.0,0.0,0.005041,2
1672944727013198089,143374,1672944727036901664,gps,2,1,42.3014881266,-83.6987554365,272.715515137,0.0009,0.0,0.0,0.0,0.0009,0.0,0.0,0.0,0.005041,2
1672944727032606357,143375,1672944727056887170,gps,2,1,42.3014877265,-83.6987554368,272.714508057,0.0009,0.0,0.0,0.0,0.0009,0.0,0.0,0.0,0.005041,2
1672944727053042304,143376,1672944727077002816,gps,2,1,42.30148732,-83.6987554266,272.713439941,0.0009,0.0,0.0,0.0,0.0009,0.0,0.0,0.0,0.005041,2
1672944727072582902,143377,1672944727096915506,gps,2,1,42.3014869098,-83.6987554218,272.712463379,0.0009,0.0,0.0,0.0,0.0009,0.0,0.0,0.0,0.005041,2
1672944727092907695,143378,1672944727116882599,gps,2,1,42.3014864993,-83.6987554164,272.711486816,0.0009,0.0,0.0,0.0,0.0009,0.0,0.0,0.0,0.005041,2
1672944727112855344,143379,1672944727137085637,gps,2,1,42.3014860816,-83.6987553986,272.710418701,0.0009,0.0,0.0,0.0,0.0009,0.0,0.0,0.0,0.005041,2
1672944727132717376,143380,1672944727156880017,gps,2,1,42.3014856601,-83.6987553897,272.709411621,0.0009,0.0,0.0,0.0,0.0009,0.0,0.0,0.0,0.005041,2
1672944727152875248,143381,1672944727176920270,gps,2,1,42.3014852381,-83.6987553801,272.708404541,0.0009,0.0,0.0,0.0,0.0009,0.0,0.0,0.0,0.005041,2
1672944727173126118,143382,1672944727196956950,gps,2,1,42.3014848099,-83.6987553535,272.707366943,0.0009,0.0,0.0,0.0,0.0009,0.0,0.0,0.0,0.005041,2
1672944727193103922,143383,1672944727216872769,gps,2,1,42.301484378,-83.698755334,272.706390381,0.0009,0.0,0.0,0.0,0.0009,0.0,0.0,0.0,0.005041,2
1672944727212992040,143384,1672944727236956405,gps,2,1,42.3014839485,-83.6987553149,272.70526123,0.0009,0.0,0.0,0.0,0.0009,0.0,0.0,0.0,0.005041,2
1672944727232894649,143385,1672944727256883368,gps,2,1,42.3014835106,-83.6987552784,272.70425415,0.0009,0.0,0.0,0.0,0.0009,0.0,0.0,0.0,0.005041,2
1672944727252488486,143386,1672944727276789389,gps,2,1,42.3014830716,-83.6987552492,272.703216553,0.0009,0.0,0.0,0.0,0.0009,0.0,0.0,0.0,0.005041,2
1672944727272765658,143387,1672944727296815817,gps,2,1,42.301482632,-83.6987552192,272.702178955,0.0009,0.0,0.0,0.0,0.0009,0.0,0.0,0.0,0.005041,2
1672944727292788371,143388,1672944727316896091,gps,2,1,42.3014821841,-83.6987551731,272.701171875,0.0009,0.0,0.0,0.0,0.0009,0.0,0.0,0.0,0.005041,2
1672944727312603284,143389,1672944727336823067,gps,2,1,42.3014817341,-83.6987551331,272.70022583,0.0009,0.0,0.0,0.0,0.0009,0.0,0.0,0.0,0.005041,2
1672944727333021723,143390,1672944727356829774,gps,2,1,42.3014812833,-83.6987550923,272.699279785,0.0009,0.0,0.0,0.0,0.0009,0.0,0.0,0.0,0.005041,2
1672944727352934704,143391,1672944727376893718,gps,2,1,42.3014808256,-83.6987550357,272.698303223,0.0009,0.0,0.0,0.0,0.0009,0.0,0.0,0.0,0.005041,2
1672944727372511559,143392,1672944727396789994,gps,2,1,42.3014803657,-83.6987549837,272.69732666,0.0009,0.0,0.0,0.0,0.0009,0.0,0.0,0.0,0.005041,2
1672944727392770788,143393,1672944727416906118,gps,2,1,42.3014799052,-83.6987549307,272.696380615,0.0009,0.0,0.0,0.0,0.0009,0.0,0.0,0.0,0.005041,2
1672944727412902162,143394,1672944727436887147,gps,2,1,42.3014794383,-83.6987548621,272.695465088,0.0009,0.0,0.0,0.0,0.0009,0.0,0.0,0.0,0.005041,2
1672944727432628487,143395,1672944727456838533,gps,2,1,42.301478969,-83.6987547986,272.694641113,0.0009,0.0,0.0,0.0,0.0009,0.0,0.0,0.0,0.005041,2
1672944727452797172,143396,1672944727476836537,gps,2,1,42.3014784991,-83.6987547344,272.693817139,0.0009,0.0,0.0,0.0,0.0009,0.0,0.0,0.0,0.005041,2
1672944727472953324,143397,1672944727496885950,gps,2,1,42.3014780233,-83.6987546525,272.693145752,0.0009,0.0,0.0,0.0,0.0009,0.0,0.0,0.0,0.005041,2
1672944727493105366,143398,1672944727516850550,gps,2,1,42.3014775449,-83.6987545749,272.6925354,0.0009,0.0,0.0,0.0,0.0009,0.0,0.0,0.0,0.005041,2
1672944727512616797,143399,1672944727536860251,gps,2,1,42.3014770665,-83.6987544976,272.692016602,0.0009,0.0,0.0,0.0,0.0009,0.0,0.0,0.0,0.005041,2
1672944727533048688,143400,1672944727556906132,gps,2,1,42.3014765816,-83.6987544028,272.69140625,0.0009,0.0,0.0,0.0,0.0009,0.0,0.0,0.0,0.005041,2
1672944727552820656,143401,1672944727576928888,gps,2,1,42.3014760941,-83.6987543135,272.690612793,0.0009,0.0,0.0,0.0,0.0009,0.0,0.0,0.0,0.005041,2
1672944727572692003,143402,1672944727596906416,gps,2,1,42.3014756071,-83.6987542275,272.689880371,0.0009,0.0,0.0,0.0,0.0009,0.0,0.0,0.0,0.005041,2
1672944727593086631,143403,1672944727616959578,gps,2,1,42.3014751131,-83.6987541235,272.688964844,0.0009,0.0,0.0,0.0,0.0009,0.0,0.0,0.0,0.005041,2
1672944727612738271,143404,1672944727636953978,gps,2,1,42.3014746173,-83.6987540323,272.687927246,0.0009,0.0,0.0,0.0,0.0009,0.0,0.0,0.0,0.005041,2
1672944727633000094,143405,1672944727656875611,gps,2,1,42.3014741211,-83.6987539405,272.686889648,0.0009,0.0,0.0,0.0,0.0009,0.0,0.0,0.0,0.005041,2
1672944727652846962,143406,1672944727676879848,gps,2,1,42.3014736184,-83.6987538286,272.686004639,0.0009,0.0,0.0,0.0,0.0009,0.0,0.0,0.0,0.005041,2
1672944727672988763,143407,1672944727696818864,gps,2,1,42.3014731137,-83.6987537252,272.685089111,0.0009,0.0,0.0,0.0,0.0009,0.0,0.0,0.0,0.005041,2
1672944727692997707,143408,1672944727716862713,gps,2,1,42.3014726088,-83.6987536212,272.684173584,0.0009,0.0,0.0,0.0,0.0009,0.0,0.0,0.0,0.005041,2
1672944727712736078,143409,1672944727736887587,gps,2,1,42.3014720979,-83.6987534945,272.683349609,0.0009,0.0,0.0,0.0,0.0009,0.0,0.0,0.0,0.005041,2
1672944727732813035,143410,1672944727756844831,gps,2,1,42.3014715862,-83.6987533723,272.682342529,0.0009,0.0,0.0,0.0,0.0009,0.0,0.0,0.0,0.005041,2
1672944727752738573,143411,1672944727776818175,gps,2,1,42.3014710742,-83.6987532491,272.681304932,0.0009,0.0,0.0,0.0,0.0009,0.0,0.0,0.0,0.005041,2
1672944727773004365,143412,1672944727796937414,gps,2,1,42.3014705559,-83.6987531037,272.680328369,0.001089,0.0,0.0,0.0,0.001156,0.0,0.0,0.0,0.005184,2
1672944727792893295,143413,1672944727816845464,gps,2,1,42.3014700368,-83.6987529623,272.679077148,0.001089,0.0,0.0,0.0,0.001156,0.0,0.0,0.0,0.005184,2
1672944727812428202,143414,1672944727836797026,gps,2,1,42.301469518,-83.6987528241,272.677886963,0.001089,0.0,0.0,0.0,0.001156,0.0,0.0,0.0,0.005184,2
1672944727832859079,143415,1672944727856905175,gps,2,1,42.3014689924,-83.6987526619,272.67666626,0.001089,0.0,0.0,0.0,0.001156,0.0,0.0,0.0,0.005184,2
1672944727852789713,143416,1672944727876824353,gps,2,1,42.3014684662,-83.6987525083,272.675231934,0.001089,0.0,0.0,0.0,0.001156,0.0,0.0,0.0,0.005184,2
1672944727872800258,143417,1672944727896876130,gps,2,1,42.3014679396,-83.6987523533,272.673858643,0.001089,0.0,0.0,0.0,0.001156,0.0,0.0,0.0,0.005184,2
1672944727892724002,143418,1672944727916855765,gps,2,1,42.3014674065,-83.6987521758,272.672485352,0.001089,0.0,0.0,0.0,0.001156,0.0,0.0,0.0,0.005184,2
1672944727913012770,143419,1672944727936940417,gps,2,1,42.3014668744,-83.6987520054,272.671020508,0.001089,0.0,0.0,0.0,0.001156,0.0,0.0,0.0,0.005184,2
1672944727932962687,143420,1672944727956802963,gps,2,1,42.3014663421,-83.6987518341,272.669555664,0.001089,0.0,0.0,0.0,0.001156,0.0,0.0,0.0,0.005184,2
1672944727952822774,143421,1672944727976815403,gps,2,1,42.3014658016,-83.6987516409,272.668273926,0.001089,0.0,0.0,0.0,0.001156,0.0,0.0,0.0,0.005184,2
1672944727972985069,143422,1672944727996881134,gps,2,1,42.3014652623,-83.6987514546,272.667327881,0.001089,0.0,0.0,0.0,0.001156,0.0,0.0,0.0,0.005184,2
1672944727992880874,143423,1672944728016815420,gps,2,1,42.3014647218,-83.6987512703,272.666442871,0.001089,0.0,0.0,0.0,0.001156,0.0,0.0,0.0,0.005184,2
1672944728013058394,143424,1672944728036882549,gps,2,1,42.3014641746,-83.6987510622,272.665649414,0.001089,0.0,0.0,0.0,0.001156,0.0,0.0,0.0,0.005184,2
1672944728032587209,143425,1672944728056928497,gps,2,1,42.3014636294,-83.6987508695,272.665100098,0.001089,0.0,0.0,0.0,0.001156,0.0,0.0,0.0,0.005184,2
1672944728052657726,143426,1672944728076883941,gps,2,1,42.3014630836,-83.6987506755,272.664611816,0.001089,0.0,0.0,0.0,0.001156,0.0,0.0,0.0,0.005184,2
1672944728073038458,143427,1672944728096956225,gps,2,1,42.3014625288,-83.6987504534,272.664337158,0.001089,0.0,0.0,0.0,0.001156,0.0,0.0,0.0,0.005184,2
1672944728092928687,143428,1672944728116946441,gps,2,1,42.3014619755,-83.6987502453,272.664154053,0.001089,0.0,0.0,0.0,0.001156,0.0,0.0,0.0,0.005184,2
1672944728112859231,143429,1672944728136997197,gps,2,1,42.3014614209,-83.698750039,272.663970947,0.001089,0.0,0.0,0.0,0.001156,0.0,0.0,0.0,0.005184,2
1672944728132869256,143430,1672944728156919283,gps,2,1,42.3014608586,-83.6987498039,272.663818359,0.001089,0.0,0.0,0.0,0.001156,0.0,0.0,0.0,0.005184,2
1672944728152766392,143431,1672944728176903866,gps,2,1,42.3014602969,-83.6987495846,272.663574219,0.001089,0.0,0.0,0.0,0.001156,0.0,0.0,0.0,0.005184,2
1672944728172548022,143432,1672944728196826544,gps,2,1,42.3014597338,-83.6987493649,272.663330078,0.001089,0.0,0.0,0.0,0.001156,0.0,0.0,0.0,0.005184,2
1672944728192592644,143433,1672944728216824881,gps,2,1,42.3014591643,-83.6987491172,272.663024902,0.001089,0.0,0.0,0.0,0.001156,0.0,0.0,0.0,0.005184,2
1672944728213025676,143434,1672944728237059937,gps,2,1,42.3014585941,-83.6987488855,272.662567139,0.001089,0.0,0.0,0.0,0.001156,0.0,0.0,0.0,0.005184,2
1672944728232729851,143435,1672944728256768337,gps,2,1,42.3014580236,-83.6987486523,272.662078857,0.001089,0.0,0.0,0.0,0.001156,0.0,0.0,0.0,0.005184,2
1672944728253064841,143436,1672944728276747229,gps,2,1,42.3014574466,-83.6987483936,272.661468506,0.001089,0.0,0.0,0.0,0.001156,0.0,0.0,0.0,0.005184,2
1672944728272740492,143437,1672944728296879636,gps,2,1,42.3014568685,-83.69874815,272.660766602,0.001089,0.0,0.0,0.0,0.001156,0.0,0.0,0.0,0.005184,2
1672944728292857770,143438,1672944728316825414,gps,2,1,42.3014562902,-83.6987479052,272.66003418,0.001089,0.0,0.0,0.0,0.001156,0.0,0.0,0.0,0.005184,2
1672944728312711725,143439,1672944728336932744,gps,2,1,42.301455706,-83.6987476361,272.65927124,0.001089,0.0,0.0,0.0,0.001156,0.0,0.0,0.0,0.005184,2
1672944728332921021,143440,1672944728356784682,gps,2,1,42.3014551231,-83.6987473839,272.65838623,0.001089,0.0,0.0,0.0,0.001156,0.0,0.0,0.0,0.005184,2
1672944728352795460,143441,1672944728376801567,gps,2,1,42.3014545395,-83.6987471305,272.657531738,0.001089,0.0,0.0,0.0,0.001156,0.0,0.0,0.0,0.005184,2
1672944728372435057,143442,1672944728396870845,gps,2,1,42.3014539481,-83.6987468494,272.656677246,0.001089,0.0,0.0,0.0,0.001156,0.0,0.0,0.0,0.005184,2
1672944728392797093,143443,1672944728416873570,gps,2,1,42.3014533578,-83.6987465829,272.655731201,0.001089,0.0,0.0,0.0,0.001156,0.0,0.0,0.0,0.005184,2
1672944728412757324,143444,1672944728436796561,gps,2,1,42.3014527647,-83.6987463152,272.654846191,0.001089,0.0,0.0,0.0,0.001156,0.0,0.0,0.0,0.005184,2
1672944728433036755,143445,1672944728456875489,gps,2,1,42.3014521666,-83.6987460215,272.653869629,0.001089,0.0,0.0,0.0,0.001156,0.0,0.0,0.0,0.005184,2
1672944728452674005,143446,1672944728476891088,gps,2,1,42.3014515672,-83.6987457407,272.652893066,0.001089,0.0,0.0,0.0,0.001156,0.0,0.0,0.0,0.005184,2
1672944728473005547,143447,1672944728496787551,gps,2,1,42.3014509679,-83.6987454641,272.651855469,0.001089,0.0,0.0,0.0,0.001156,0.0,0.0,0.0,0.005184,2
1672944728492855016,143448,1672944728516889299,gps,2,1,42.3014503632,-83.6987451575,272.650787354,0.001089,0.0,0.0,0.0,0.001156,0.0,0.0,0.0,0.005184,2
1672944728512875073,143449,1672944728536871524,gps,2,1,42.3014497576,-83.698744868,272.649719238,0.001089,0.0,0.0,0.0,0.001156,0.0,0.0,0.0,0.005184,2
1672944728532812905,143450,1672944728556910248,gps,2,1,42.3014491528,-83.6987445826,272.648590088,0.001089,0.0,0.0,0.0,0.001156,0.0,0.0,0.0,0.005184,2
1672944728552847913,143451,1672944728576946497,gps,2,1,42.3014485417,-83.698744264,272.647613525,0.001089,0.0,0.0,0.0,0.001156,0.0,0.0,0.0,0.005184,2
1672944728572805650,143452,1672944728596817472,gps,2,1,42.3014479302,-83.6987439667,272.646636963,0.001089,0.0,0.0,0.0,0.001156,0.0,0.0,0.0,0.005184,2
1672944728592749970,143453,1672944728616875343,gps,2,1,42.3014473183,-83.6987436684,272.6456604,0.001089,0.0,0.0,0.0,0.001156,0.0,0.0,0.0,0.005184,2
1672944728613116823,143454,1672944728637010446,gps,2,1,42.3014466999,-83.6987433392,272.644897461,0.001089,0.0,0.0,0.0,0.001156,0.0,0.0,0.0,0.005184,2
1672944728632542975,143455,1672944728656865885,gps,2,1,42.3014460788,-83.698743032,272.644042969,0.001089,0.0,0.0,0.0,0.001156,0.0,0.0,0.0,0.005184,2
1672944728652654636,143456,1672944728676834245,gps,2,1,42.3014454572,-83.698742724,272.643371582,0.001089,0.0,0.0,0.0,0.001156,0.0,0.0,0.0,0.005184,2
1672944728672891135,143457,1672944728696857466,gps,2,1,42.3014448318,-83.6987423859,272.642730713,0.001089,0.0,0.0,0.0,0.001156,0.0,0.0,0.0,0.005184,2
1672944728692801109,143458,1672944728716869519,gps,2,1,42.3014442034,-83.6987420686,272.642150879,0.001089,0.0,0.0,0.0,0.001156,0.0,0.0,0.0,0.005184,2
1672944728712811042,143459,1672944728736799180,gps,2,1,42.3014435736,-83.6987417539,272.641540527,0.001089,0.0,0.0,0.0,0.001156,0.0,0.0,0.0,0.005184,2
1672944728732873319,143460,1672944728756869877,gps,2,1,42.3014429413,-83.6987414077,272.640930176,0.001089,0.0,0.0,0.0,0.001156,0.0,0.0,0.0,0.005184,2
1672944728752590989,143461,1672944728776846413,gps,2,1,42.3014423047,-83.6987410841,272.640258789,0.001089,0.0,0.0,0.0,0.001156,0.0,0.0,0.0,0.005184,2
1672944728773132838,143462,1672944728796815201,gps,2,1,42.3014416684,-83.698740762,272.63961792,0.001089,0.0,0.0,0.0,0.001156,0.0,0.0,0.0,0.005184,2
1672944728793107034,143463,1672944728816885797,gps,2,1,42.3014410295,-83.6987404067,272.638946533,0.001089,0.0,0.0,0.0,0.001156,0.0,0.0,0.0,0.005184,2
1672944728812919883,143464,1672944728836872300,gps,2,1,42.3014403873,-83.6987400745,272.638244629,0.001089,0.0,0.0,0.0,0.001156,0.0,0.0,0.0,0.005184,2
1672944728832809596,143465,1672944728856785720,gps,2,1,42.3014397448,-83.698739741,272.637542725,0.001089,0.0,0.0,0.0,0.001156,0.0,0.0,0.0,0.005184,2
1672944728852644776,143466,1672944728876874357,gps,2,1,42.3014391004,-83.698739375,272.636901855,0.001089,0.0,0.0,0.0,0.001156,0.0,0.0,0.0,0.005184,2
1672944728872720755,143467,1672944728896807760,gps,2,1,42.3014384531,-83.6987390292,272.636230469,0.001089,0.0,0.0,0.0,0.001156,0.0,0.0,0.0,0.005184,2
1672944728892530310,143468,1672944728916873162,gps,2,1,42.3014378048,-83.6987386818,272.6355896,0.001089,0.0,0.0,0.0,0.001156,0.0,0.0,0.0,0.005184,2
1672944728912784379,143469,1672944728936897161,gps,2,1,42.3014371557,-83.6987383038,272.634918213,0.001089,0.0,0.0,0.0,0.001156,0.0,0.0,0.0,0.005184,2
1672944728933033302,143470,1672944728956813209,gps,2,1,42.3014365027,-83.6987379441,272.634277344,0.001089,0.0,0.0,0.0,0.001156,0.0,0.0,0.0,0.005184,2
1672944728952401449,143471,1672944728976801340,gps,2,1,42.3014358494,-83.6987375835,272.633636475,0.001089,0.0,0.0,0.0,0.001156,0.0,0.0,0.0,0.005184,2
1672944728972777046,143472,1672944728996836221,gps,2,1,42.3014351959,-83.6987371933,272.632995605,0.001089,0.0,0.0,0.0,0.001156,0.0,0.0,0.0,0.005184,2
1672944728992562345,143473,1672944729016870017,gps,2,1,42.3014345387,-83.6987368206,272.632385254,0.001089,0.0,0.0,0.0,0.001156,0.0,0.0,0.0,0.005184,2
1672944729012896980,143474,1672944729036922771,gps,2,1,42.3014338788,-83.6987364456,272.63180542,0.001089,0.0,0.0,0.0,0.001156,0.0,0.0,0.0,0.005184,2
1672944729033210847,143475,1672944729057030587,gps,2,1,42.3014332208,-83.6987360443,272.631256104,0.001089,0.0,0.0,0.0,0.001156,0.0,0.0,0.0,0.005184,2
1672944729052592867,143476,1672944729076935440,gps,2,1,42.3014325559,-83.6987356638,272.630615234,0.001089,0.0,0.0,0.0,0.001156,0.0,0.0,0.0,0.005184,2
1672944729072964786,143477,1672944729096895903,gps,2,1,42.3014318914,-83.6987352818,272.629974365,0.001089,0.0,0.0,0.0,0.001156,0.0,0.0,0.0,0.005184,2
1672944729092916990,143478,1672944729116928839,gps,2,1,42.301431228,-83.6987348704,272.629364014,0.001089,0.0,0.0,0.0,0.001156,0.0,0.0,0.0,0.005184,2
1672944729113057183,143479,1672944729136978439,gps,2,1,42.3014305573,-83.6987344781,272.628509521,0.001089,0.0,0.0,0.0,0.001156,0.0,0.0,0.0,0.005184,2
1672944729132860292,143480,1672944729156864129,gps,2,1,42.3014298865,-83.6987340847,272.627655029,0.001089,0.0,0.0,0.0,0.001156,0.0,0.0,0.0,0.005184,2
1672944729152743243,143481,1672944729176920245,gps,2,1,42.3014292182,-83.6987336627,272.626953125,0.001089,0.0,0.0,0.0,0.001156,0.0,0.0,0.0,0.005184,2
1672944729172460812,143482,1672944729196829257,gps,2,1,42.3014285431,-83.6987332581,272.626098633,0.001089,0.0,0.0,0.0,0.001156,0.0,0.0,0.0,0.005184,2
1672944729193021976,143483,1672944729216858273,gps,2,1,42.301427868,-83.6987328523,272.625244141,0.001089,0.0,0.0,0.0,0.001156,0.0,0.0,0.0,0.005184,2
1672944729212870733,143484,1672944729236882252,gps,2,1,42.3014271948,-83.6987324204,272.624542236,0.001089,0.0,0.0,0.0,0.001156,0.0,0.0,0.0,0.005184,2
1672944729233029105,143485,1672944729256815630,gps,2,1,42.3014265136,-83.6987320041,272.623626709,0.001089,0.0,0.0,0.0,0.001156,0.0,0.0,0.0,0.005184,2
1672944729252809319,143486,1672944729276853035,gps,2,1,42.3014258324,-83.6987315868,272.622711182,0.001089,0.0,0.0,0.0,0.001156,0.0,0.0,0.0,0.005184,2
1672944729272680390,143487,1672944729296865480,gps,2,1,42.3014251535,-83.6987311477,272.622009277,0.001089,0.0,0.0,0.0,0.001156,0.0,0.0,0.0,0.005184,2
1672944729292771774,143488,1672944729316852098,gps,2,1,42.3014244663,-83.6987307239,272.621124268,0.001089,0.0,0.0,0.0,0.001156,0.0,0.0,0.0,0.005184,2
1672944729312520535,143489,1672944729336827690,gps,2,1,42.3014237781,-83.6987302983,272.620330811,0.001089,0.0,0.0,0.0,0.001156,0.0,0.0,0.0,0.005184,2
1672944729332534601,143490,1672944729356845656,gps,2,1,42.3014230928,-83.6987298532,272.619628906,0.001089,0.0,0.0,0.0,0.001156,0.0,0.0,0.0,0.005184,2
1672944729353017374,143491,1672944729376823889,gps,2,1,42.3014223985,-83.6987294208,272.618804932,0.001089,0.0,0.0,0.0,0.001156,0.0,0.0,0.0,0.005184,2
1672944729373018046,143492,1672944729396831635,gps,2,1,42.3014217045,-83.6987289878,272.617980957,0.001089,0.0,0.0,0.0,0.001156,0.0,0.0,0.0,0.005184,2
1672944729392780926,143493,1672944729416883334,gps,2,1,42.301421013,-83.6987285357,272.617156982,0.001089,0.0,0.0,0.0,0.001156,0.0,0.0,0.0,0.005184,2
1672944729412725496,143494,1672944729436861657,gps,2,1,42.3014203148,-83.6987280977,272.616241455,0.001089,0.0,0.0,0.0,0.001156,0.0,0.0,0.0,0.005184,2
1672944729432599109,143495,1672944729456843188,gps,2,1,42.3014196165,-83.6987276586,272.615356445,0.001089,0.0,0.0,0.0,0.001156,0.0,0.0,0.0,0.005184,2
1672944729453096608,143496,1672944729476917866,gps,2,1,42.3014189195,-83.6987272002,272.614562988,0.001089,0.0,0.0,0.0,0.001156,0.0,0.0,0.0,0.005184,2
1672944729472510067,143497,1672944729496792586,gps,2,1,42.3014182161,-83.6987267545,272.613739014,0.001089,0.0,0.0,0.0,0.001156,0.0,0.0,0.0,0.005184,2
1672944729493115233,143498,1672944729516964713,gps,2,1,42.3014175122,-83.6987263076,272.612945557,0.001089,0.0,0.0,0.0,0.001156,0.0,0.0,0.0,0.005184,2
1672944729512902258,143499,1672944729537012659,gps,2,1,42.3014168103,-83.6987258417,272.612243652,0.001089,0.0,0.0,0.0,0.001156,0.0,0.0,0.0,0.005184,2
1672944729532795130,143500,1672944729556845144,gps,2,1,42.3014161001,-83.6987253821,272.611785889,0.001089,0.0,0.0,0.0,0.001156,0.0,0.0,0.0,0.005184,2
1672944729552884097,143501,1672944729576928566,gps,2,1,42.3014153894,-83.6987249271,272.611328125,0.001089,0.0,0.0,0.0,0.001156,0.0,0.0,0.0,0.005184,2
1672944729572748114,143502,1672944729596911909,gps,2,1,42.3014146834,-83.6987244519,272.610778809,0.001089,0.0,0.0,0.0,0.001156,0.0,0.0,0.0,0.005184,2
1672944729592701597,143503,1672944729616875031,gps,2,1,42.3014139695,-83.6987239865,272.61050415,0.001089,0.0,0.0,0.0,0.001156,0.0,0.0,0.0,0.005184,2
1672944729613127270,143504,1672944729636985055,gps,2,1,42.3014132567,-83.6987235205,272.61026001,0.001089,0.0,0.0,0.0,0.001156,0.0,0.0,0.0,0.005184,2
1672944729632646626,143505,1672944729656918001,gps,2,1,42.3014125475,-83.6987230349,272.609893799,0.001089,0.0,0.0,0.0,0.001156,0.0,0.0,0.0,0.005184,2
1672944729653093873,143506,1672944729676808490,gps,2,1,42.3014118313,-83.6987225585,272.609924316,0.001089,0.0,0.0,0.0,0.001156,0.0,0.0,0.0,0.005184,2
1672944729672785540,143507,1672944729696865579,gps,2,1,42.3014111152,-83.6987220815,272.609924316,0.001089,0.0,0.0,0.0,0.001156,0.0,0.0,0.0,0.005184,2
1672944729692716578,143508,1672944729716921741,gps,2,1,42.3014104017,-83.6987215869,272.609832764,0.001089,0.0,0.0,0.0,0.001156,0.0,0.0,0.0,0.005184,2
1672944729712570671,143509,1672944729736887802,gps,2,1,42.3014096801,-83.6987211003,272.609893799,0.001089,0.0,0.0,0.0,0.001156,0.0,0.0,0.0,0.005184,2
1672944729732773082,143510,1672944729756910524,gps,2,1,42.3014089582,-83.6987206137,272.609985352,0.001089,0.0,0.0,0.0,0.001156,0.0,0.0,0.0,0.005184,2
1672944729752584603,143511,1672944729776853427,gps,2,1,42.3014082391,-83.6987201147,272.609802246,0.001089,0.0,0.0,0.0,0.001156,0.0,0.0,0.0,0.005184,2
1672944729772525979,143512,1672944729796913871,gps,2,1,42.3014075116,-83.6987196251,272.609802246,0.001156,0.0,0.0,0.0,0.001156,0.0,0.0,0.0,0.005329,2
1672944729793081683,143513,1672944729816936658,gps,2,1,42.3014067842,-83.6987191351,272.609771729,0.001156,0.0,0.0,0.0,0.001156,0.0,0.0,0.0,0.005329,2
1672944729813002200,143514,1672944729836912295,gps,2,1,42.3014060588,-83.6987186337,272.60949707,0.001156,0.0,0.0,0.0,0.001156,0.0,0.0,0.0,0.005329,2
1672944729832716549,143515,1672944729856867623,gps,2,1,42.301405325,-83.6987181445,272.609100342,0.001156,0.0,0.0,0.0,0.001156,0.0,0.0,0.0,0.005329,2
1672944729852803100,143516,1672944729876819937,gps,2,1,42.3014045909,-83.6987176539,272.608703613,0.001156,0.0,0.0,0.0,0.001156,0.0,0.0,0.0,0.005329,2
1672944729872681540,143517,1672944729896934632,gps,2,1,42.3014038599,-83.6987171502,272.608337402,0.001156,0.0,0.0,0.0,0.001156,0.0,0.0,0.0,0.005329,2
1672944729893085977,143518,1672944729916831576,gps,2,1,42.3014031215,-83.6987166566,272.607940674,0.001156,0.0,0.0,0.0,0.001156,0.0,0.0,0.0,0.005329,2
1672944729912793638,143519,1672944729936816963,gps,2,1,42.3014023808,-83.6987161583,272.607757568,0.001156,0.0,0.0,0.0,0.001156,0.0,0.0,0.0,0.005329,2
1672944729932946935,143520,1672944729956902150,gps,2,1,42.3014016459,-83.6987156508,272.607452393,0.001156,0.0,0.0,0.0,0.001156,0.0,0.0,0.0,0.005329,2
1672944729953020161,143521,1672944729976848650,gps,2,1,42.3014009017,-83.6987151476,272.607391357,0.001156,0.0,0.0,0.0,0.001156,0.0,0.0,0.0,0.005329,2
1672944729972948758,143522,1672944729996839453,gps,2,1,42.3014001567,-83.6987146435,272.60723877,0.001156,0.0,0.0,0.0,0.001156,0.0,0.0,0.0,0.005329,2
1672944729992806974,143523,1672944730016873386,gps,2,1,42.3013994169,-83.6987141321,272.606842041,0.001156,0.0,0.0,0.0,0.001156,0.0,0.0,0.0,0.005329,2
1672944730013126714,143524,1672944730036982830,gps,2,1,42.3013986719,-83.6987136264,272.606445312,0.001156,0.0,0.0,0.0,0.001156,0.0,0.0,0.0,0.005329,2
1672944730033236671,143525,1672944730056960664,gps,2,1,42.3013979265,-83.6987131224,272.606048584,0.001156,0.0,0.0,0.0,0.001156,0.0,0.0,0.0,0.005329,2
1672944730052955136,143526,1672944730076974532,gps,2,1,42.3013971802,-83.6987126092,272.60534668,0.001156,0.0,0.0,0.0,0.001156,0.0,0.0,0.0,0.005329,2
1672944730073370974,143527,1672944730096855041,gps,2,1,42.3013964283,-83.6987121051,272.604736328,0.001156,0.0,0.0,0.0,0.001156,0.0,0.0,0.0,0.005329,2
1672944730092956016,143528,1672944730116881250,gps,2,1,42.3013956766,-83.6987116009,272.604125977,0.001156,0.0,0.0,0.0,0.001156,0.0,0.0,0.0,0.005329,2
1672944730112787928,143529,1672944730136981247,gps,2,1,42.3013949234,-83.6987110883,272.603393555,0.001156,0.0,0.0,0.0,0.001156,0.0,0.0,0.0,0.005329,2
1672944730132804779,143530,1672944730156862562,gps,2,1,42.3013941653,-83.6987105871,272.602844238,0.001156,0.0,0.0,0.0,0.001156,0.0,0.0,0.0,0.005329,2
1672944730152640609,143531,1672944730176813935,gps,2,1,42.3013934071,-83.6987100858,272.602264404,0.001156,0.0,0.0,0.0,0.001156,0.0,0.0,0.0,0.005329,2
1672944730172527326,143532,1672944730196861831,gps,2,1,42.3013926479,-83.6987095749,272.601654053,0.001156,0.0,0.0,0.0,0.001156,0.0,0.0,0.0,0.005329,2
1672944730192847597,143533,1672944730216796630,gps,2,1,42.3013918844,-83.6987090738,272.601287842,0.001156,0.0,0.0,0.0,0.001156,0.0,0.0,0.0,0.005329,2
1672944730212431491,143534,1672944730236823548,gps,2,1,42.3013911182,-83.6987085706,272.600952148,0.001156,0.0,0.0,0.0,0.001156,0.0,0.0,0.0,0.005329,2
1672944730232928191,143535,1672944730256895390,gps,2,1,42.301390354,-83.6987080593,272.600524902,0.001156,0.0,0.0,0.0,0.001156,0.0,0.0,0.0,0.005329,2
1672944730252681490,143536,1672944730276877893,gps,2,1,42.3013895835,-83.6987075549,272.600250244,0.001156,0.0,0.0,0.0,0.001156,0.0,0.0,0.0,0.005329,2
1672944730272622516,143537,1672944730296858718,gps,2,1,42.3013888127,-83.6987070506,272.599945068,0.001156,0.0,0.0,0.0,0.001156,0.0,0.0,0.0,0.005329,2
1672944730293069097,143538,1672944730316942194,gps,2,1,42.3013880438,-83.6987065393,272.599395752,0.001156,0.0,0.0,0.0,0.001156,0.0,0.0,0.0,0.005329,2
1672944730312962532,143539,1672944730336957289,gps,2,1,42.3013872685,-83.6987060397,272.598815918,0.001156,0.0,0.0,0.0,0.001156,0.0,0.0,0.0,0.005329,2
1672944730332916802,143540,1672944730356834216,gps,2,1,42.3013864932,-83.6987055404,272.598297119,0.001156,0.0,0.0,0.0,0.001156,0.0,0.0,0.0,0.005329,2
1672944730353002275,143541,1672944730376877336,gps,2,1,42.3013857189,-83.6987050339,272.597564697,0.001156,0.0,0.0,0.0,0.001156,0.0,0.0,0.0,0.005329,2
1672944730372715201,143542,1672944730396805748,gps,2,1,42.3013849378,-83.6987045414,272.596984863,0.001156,0.0,0.0,0.0,0.001156,0.0,0.0,0.0,0.005329,2
1672944730392882735,143543,1672944730416876989,gps,2,1,42.3013841567,-83.698704049,272.596374512,0.001156,0.0,0.0,0.0,0.001156,0.0,0.0,0.0,0.005329,2
1672944730412591268,143544,1672944730436967472,gps,2,1,42.3013833756,-83.6987035509,272.595611572,0.001156,0.0,0.0,0.0,0.001156,0.0,0.0,0.0,0.005329,2
1672944730432550824,143545,1672944730456857271,gps,2,1,42.3013825861,-83.6987030692,272.594848633,0.001156,0.0,0.0,0.0,0.001156,0.0,0.0,0.0,0.005329,2
1672944730452578922,143546,1672944730476936686,gps,2,1,42.3013817961,-83.6987025875,272.594116211,0.001156,0.0,0.0,0.0,0.001156,0.0,0.0,0.0,0.005329,2
1672944730473082881,143547,1672944730496857729,gps,2,1,42.3013810087,-83.6987020988,272.593292236,0.001156,0.0,0.0,0.0,0.001156,0.0,0.0,0.0,0.005329,2
1672944730492887710,143548,1672944730516846348,gps,2,1,42.3013802133,-83.6987016242,272.592651367,0.001156,0.0,0.0,0.0,0.001156,0.0,0.0,0.0,0.005329,2
1672944730512809922,143549,1672944730536858731,gps,2,1,42.3013794175,-83.6987011509,272.592041016,0.001156,0.0,0.0,0.0,0.001156,0.0,0.0,0.0,0.005329,2
1672944730532807193,143550,1672944730556931147,gps,2,1,42.3013786247,-83.6987006684,272.591552734,0.001156,0.0,0.0,0.0,0.001156,0.0,0.0,0.0,0.005329,2
1672944730552871061,143551,1672944730577016241,gps,2,1,42.301377825,-83.6987001978,272.591369629,0.001156,0.0,0.0,0.0,0.001156,0.0,0.0,0.0,0.005329,2
1672944730572621720,143552,1672944730596910025,gps,2,1,42.301377025,-83.6986997307,272.591461182,0.001156,0.0,0.0,0.0,0.001156,0.0,0.0,0.0,0.005329,2
1672944730592858595,143553,1672944730616903261,gps,2,1,42.3013762284,-83.698699252,272.591094971,0.001156,0.0,0.0,0.0,0.001156,0.0,0.0,0.0,0.005329,2
1672944730613119086,143554,1672944730637007882,gps,2,1,42.3013754219,-83.698698792,272.59085083,0.001156,0.0,0.0,0.0,0.001156,0.0,0.0,0.0,0.005329,2
1672944730632474175,143555,1672944730656862857,gps,2,1,42.3013746159,-83.6986983306,272.590576172,0.001156,0.0,0.0,0.0,0.001156,0.0,0.0,0.0,0.005329,2
1672944730652874575,143556,1672944730677026228,gps,2,1,42.3013738142,-83.6986978602,272.589904785,0.001156,0.0,0.0,0.0,0.001156,0.0,0.0,0.0,0.005329,2
1672944730673021216,143557,1672944730696855340,gps,2,1,42.3013730026,-83.6986974081,272.589294434,0.001156,0.0,0.0,0.0,0.001156,0.0,0.0,0.0,0.005329,2
1672944730692720699,143558,1672944730716844153,gps,2,1,42.3013721912,-83.6986969561,272.588684082,0.001156,0.0,0.0,0.0,0.001156,0.0,0.0,0.0,0.005329,2
1672944730712561525,143559,1672944730736911828,gps,2,1,42.3013713832,-83.6986964959,272.58770752,0.001156,0.0,0.0,0.0,0.001156,0.0,0.0,0.0,0.005329,2
1672944730732623921,143560,1672944730756870350,gps,2,1,42.3013705663,-83.6986960534,272.586791992,0.001156,0.0,0.0,0.0,0.001156,0.0,0.0,0.0,0.005329,2
1672944730752558739,143561,1672944730776869628,gps,2,1,42.3013697497,-83.6986956105,272.585845947,0.001156,0.0,0.0,0.0,0.001156,0.0,0.0,0.0,0.005329,2
1672944730772817590,143562,1672944730796882823,gps,2,1,42.3013689362,-83.6986951584,272.584716797,0.001156,0.0,0.0,0.0,0.001156,0.0,0.0,0.0,0.005329,2
1672944730793052719,143563,1672944730816947022,gps,2,1,42.3013681148,-83.69869472,272.583618164,0.001156,0.0,0.0,0.0,0.001156,0.0,0.0,0.0,0.005329,2
1672944730812923038,143564,1672944730836885605,gps,2,1,42.3013672928,-83.6986942834,272.582611084,0.001156,0.0,0.0,0.0,0.001156,0.0,0.0,0.0,0.005329,2
1672944730832648463,143565,1672944730856923554,gps,2,1,42.3013664747,-83.6986938352,272.581268311,0.001156,0.0,0.0,0.0,0.001156,0.0,0.0,0.0,0.005329,2
1672944730852715255,143566,1672944730876854208,gps,2,1,42.3013656489,-83.6986934011,272.580078125,0.001156,0.0,0.0,0.0,0.001156,0.0,0.0,0.0,0.005329,2
1672944730872529368,143567,1672944730896895044,gps,2,1,42.3013648232,-83.6986929673,272.578948975,0.001156,0.0,0.0,0.0,0.001156,0.0,0.0,0.0,0.005329,2
1672944730892699670,143568,1672944730916837283,gps,2,1,42.3013640007,-83.6986925242,272.577636719,0.001156,0.0,0.0,0.0,0.001156,0.0,0.0,0.0,0.005329,2
1672944730912933768,143569,1672944730936843841,gps,2,1,42.3013631689,-83.6986920977,272.576721191,0.001156,0.0,0.0,0.0,0.001156,0.0,0.0,0.0,0.005329,2
1672944730932793381,143570,1672944730956841186,gps,2,1,42.3013623372,-83.6986916709,272.575836182,0.001156,0.0,0.0,0.0,0.001156,0.0,0.0,0.0,0.005329,2
1672944730952947731,143571,1672944730976850634,gps,2,1,42.3013615095,-83.6986912359,272.574920654,0.001156,0.0,0.0,0.0,0.001156,0.0,0.0,0.0,0.005329,2
1672944730972931768,143572,1672944730996859632,gps,2,1,42.301360672,-83.698690817,272.574279785,0.001156,0.0,0.0,0.0,0.001156,0.0,0.0,0.0,0.005329,2
1672944730992800346,143573,1672944731016808257,gps,2,1,42.3013598346,-83.6986904005,272.573577881,0.001156,0.0,0.0,0.0,0.001156,0.0,0.0,0.0,0.005329,2
1672944731013194681,143574,1672944731037000360,gps,2,1,42.3013590006,-83.6986899739,272.572631836,0.001156,0.0,0.0,0.0,0.001156,0.0,0.0,0.0,0.005329,2
1672944731032493707,143575,1672944731056947829,gps,2,1,42.3013581578,-83.6986895638,272.571746826,0.001156,0.0,0.0,0.0,0.001156,0.0,0.0,0.0,0.005329,2
1672944731052513133,143576,1672944731076898913,gps,2,1,42.3013573137,-83.6986891574,272.570922852,0.001156,0.0,0.0,0.0,0.001156,0.0,0.0,0.0,0.005329,2
1672944731073055897,143577,1672944731096894959,gps,2,1,42.3013564744,-83.6986887372,272.569793701,0.001156,0.0,0.0,0.0,0.001156,0.0,0.0,0.0,0.005329,2
1672944731092803937,143578,1672944731116906467,gps,2,1,42.3013556255,-83.6986883361,272.568817139,0.001156,0.0,0.0,0.0,0.001156,0.0,0.0,0.0,0.005329,2
1672944731112925699,143579,1672944731136913107,gps,2,1,42.3013547753,-83.6986879324,272.567840576,0.001156,0.0,0.0,0.0,0.001156,0.0,0.0,0.0,0.005329,2
1672944731132841803,143580,1672944731156967701,gps,2,1,42.301353931,-83.6986875181,272.566589355,0.001156,0.0,0.0,0.0,0.001156,0.0,0.0,0.0,0.005329,2
1672944731152579617,143581,1672944731176847482,gps,2,1,42.3013530756,-83.6986871209,272.56552124,0.001156,0.0,0.0,0.0,0.001156,0.0,0.0,0.0,0.005329,2
1672944731172935403,143582,1672944731196819611,gps,2,1,42.3013522204,-83.6986867231,272.564422607,0.001156,0.0,0.0,0.0,0.001156,0.0,0.0,0.0,0.005329,2
1672944731192910648,143583,1672944731216862738,gps,2,1,42.3013513705,-83.6986863168,272.563079834,0.001156,0.0,0.0,0.0,0.001156,0.0,0.0,0.0,0.005329,2
1672944731213001549,143584,1672944731236956429,gps,2,1,42.3013505106,-83.6986859313,272.561920166,0.001156,0.0,0.0,0.0,0.001156,0.0,0.0,0.0,0.005329,2
1672944731232464459,143585,1672944731256845145,gps,2,1,42.3013496509,-83.6986855457,272.56072998,0.001156,0.0,0.0,0.0,0.001156,0.0,0.0,0.0,0.005329,2
1672944731252906882,143586,1672944731276887903,gps,2,1,42.3013487952,-83.6986851504,272.559448242,0.001156,0.0,0.0,0.0,0.001156,0.0,0.0,0.0,0.005329,2
1672944731272750080,143587,1672944731296845391,gps,2,1,42.30134793,-83.6986847756,272.558380127,0.001156,0.0,0.0,0.0,0.001156,0.0,0.0,0.0,0.005329,2
1672944731292710535,143588,1672944731317044727,gps,2,1,42.3013470648,-83.6986844007,272.557373047,0.001156,0.0,0.0,0.0,0.001156,0.0,0.0,0.0,0.005329,2
1672944731313002484,143589,1672944731336937047,gps,2,1,42.3013462035,-83.6986840168,272.556304932,0.001156,0.0,0.0,0.0,0.001156,0.0,0.0,0.0,0.005329,2
1672944731332464626,143590,1672944731356850041,gps,2,1,42.3013453326,-83.6986836513,272.555480957,0.001156,0.0,0.0,0.0,0.001156,0.0,0.0,0.0,0.005329,2
1672944731352951136,143591,1672944731376836211,gps,2,1,42.3013444613,-83.6986832861,272.5546875,0.001156,0.0,0.0,0.0,0.001156,0.0,0.0,0.0,0.005329,2
1672944731372783117,143592,1672944731396913273,gps,2,1,42.3013435941,-83.6986829147,272.553741455,0.001156,0.0,0.0,0.0,0.001156,0.0,0.0,0.0,0.005329,2
1672944731392958950,143593,1672944731416936189,gps,2,1,42.3013427178,-83.698682561,272.55291748,0.001156,0.0,0.0,0.0,0.001156,0.0,0.0,0.0,0.005329,2
1672944731412791120,143594,1672944731436881478,gps,2,1,42.3013418401,-83.6986822083,272.552124023,0.001156,0.0,0.0,0.0,0.001156,0.0,0.0,0.0,0.005329,2
1672944731432672572,143595,1672944731456950660,gps,2,1,42.3013409669,-83.69868185,272.551147461,0.001156,0.0,0.0,0.0,0.001156,0.0,0.0,0.0,0.005329,2
1672944731452913561,143596,1672944731476940723,gps,2,1,42.3013400843,-83.6986815089,272.550323486,0.001156,0.0,0.0,0.0,0.001156,0.0,0.0,0.0,0.005329,2
1672944731472463748,143597,1672944731496836239,gps,2,1,42.3013392018,-83.6986811702,272.549468994,0.001156,0.0,0.0,0.0,0.001156,0.0,0.0,0.0,0.005329,2
1672944731493064292,143598,1672944731516874512,gps,2,1,42.3013383231,-83.6986808229,272.548583984,0.001156,0.0,0.0,0.0,0.001156,0.0,0.0,0.0,0.005329,2
1672944731512936618,143599,1672944731536996315,gps,2,1,42.3013374361,-83.6986804917,272.547790527,0.001156,0.0,0.0,0.0,0.001156,0.0,0.0,0.0,0.005329,2
1672944731532727483,143600,1672944731556875563,gps,2,1,42.3013365468,-83.6986801649,272.546936035,0.001156,0.0,0.0,0.0,0.001156,0.0,0.0,0.0,0.005329,2
1672944731552901584,143601,1672944731576981729,gps,2,1,42.3013356634,-83.6986798239,272.54586792,0.001156,0.0,0.0,0.0,0.001156,0.0,0.0,0.0,0.005329,2
1672944731573007147,143602,1672944731596978349,gps,2,1,42.3013347704,-83.6986795013,272.544616699,0.001156,0.0,0.0,0.0,0.001156,0.0,0.0,0.0,0.005329,2
1672944731592750862,143603,1672944731616776997,gps,2,1,42.3013338758,-83.6986791793,272.543304443,0.001156,0.0,0.0,0.0,0.001156,0.0,0.0,0.0,0.005329,2
1672944731612724891,143604,1672944731636961078,gps,2,1,42.3013329882,-83.6986788438,272.541931152,0.001156,0.0,0.0,0.0,0.001156,0.0,0.0,0.0,0.005329,2
1672944731632900908,143605,1672944731657009699,gps,2,1,42.3013320899,-83.6986785255,272.540435791,0.001156,0.0,0.0,0.0,0.001156,0.0,0.0,0.0,0.005329,2
1672944731652363282,143606,1672944731676779759,gps,2,1,42.3013311918,-83.6986782072,272.538909912,0.001156,0.0,0.0,0.0,0.001156,0.0,0.0,0.0,0.005329,2
1672944731672871940,143607,1672944731696891383,gps,2,1,42.3013303001,-83.6986778767,272.537384033,0.001156,0.0,0.0,0.0,0.001156,0.0,0.0,0.0,0.005329,2
1672944731692874770,143608,1672944731716902267,gps,2,1,42.3013293981,-83.6986775634,272.535827637,0.001156,0.0,0.0,0.0,0.001156,0.0,0.0,0.0,0.005329,2
1672944731712773074,143609,1672944731736850389,gps,2,1,42.3013284973,-83.6986772495,272.534332275,0.001156,0.0,0.0,0.0,0.001156,0.0,0.0,0.0,0.005329,2
1672944731732630566,143610,1672944731756859396,gps,2,1,42.301327601,-83.6986769264,272.532836914,0.001156,0.0,0.0,0.0,0.001156,0.0,0.0,0.0,0.005329,2
1672944731752432830,143611,1672944731776797531,gps,2,1,42.3013266952,-83.6986766209,272.53137207,0.001156,0.0,0.0,0.0,0.001156,0.0,0.0,0.0,0.005329,2
1672944731772519060,143612,1672944731796894327,gps,2,1,42.3013257896,-83.6986763155,272.529907227,0.0009,0.0,0.0,0.0,0.0009,0.0,0.0,0.0,0.005184,2
1672944731792886115,143613,1672944731816985676,gps,2,1,42.301324888,-83.6986760037,272.528381348,0.0009,0.0,0.0,0.0,0.0009,0.0,0.0,0.0,0.005184,2
1672944731812730109,143614,1672944731836924747,gps,2,1,42.3013239757,-83.6986757135,272.526824951,0.0009,0.0,0.0,0.0,0.0009,0.0,0.0,0.0,0.005184,2
1672944731832755614,143615,1672944731856888188,gps,2,1,42.3013230632,-83.6986754231,272.525299072,0.0009,0.0,0.0,0.0,0.0009,0.0,0.0,0.0,0.005184,2
1672944731852774394,143616,1672944731876945304,gps,2,1,42.3013221559,-83.6986751253,272.523773193,0.0009,0.0,0.0,0.0,0.0009,0.0,0.0,0.0,0.005184,2
1672944731872574870,143617,1672944731896840120,gps,2,1,42.3013212387,-83.6986748481,272.52230835,0.0009,0.0,0.0,0.0,0.0009,0.0,0.0,0.0,0.005184,2
1672944731892884589,143618,1672944731916863108,gps,2,1,42.3013203212,-83.6986745708,272.520812988,0.0009,0.0,0.0,0.0,0.0009,0.0,0.0,0.0,0.005184,2
1672944731912867549,143619,1672944731936894972,gps,2,1,42.3013194088,-83.6986742862,272.519378662,0.0009,0.0,0.0,0.0,0.0009,0.0,0.0,0.0,0.005184,2
1672944731933041451,143620,1672944731956895901,gps,2,1,42.3013184858,-83.6986740194,272.518005371,0.0009,0.0,0.0,0.0,0.0009,0.0,0.0,0.0,0.005184,2
1672944731952903698,143621,1672944731976876780,gps,2,1,42.3013175628,-83.6986737526,272.516601562,0.0009,0.0,0.0,0.0,0.0009,0.0,0.0,0.0,0.005184,2
1672944731973106469,143622,1672944731996878509,gps,2,1,42.3013166459,-83.6986734781,272.515319824,0.0009,0.0,0.0,0.0,0.0009,0.0,0.0,0.0,0.005184,2
1672944731992562050,143623,1672944732016921025,gps,2,1,42.3013157198,-83.6986732189,272.514007568,0.0009,0.0,0.0,0.0,0.0009,0.0,0.0,0.0,0.005184,2
1672944732012931564,143624,1672944732036873848,gps,2,1,42.3013147939,-83.6986729599,272.51272583,0.0009,0.0,0.0,0.0,0.0009,0.0,0.0,0.0,0.005184,2
1672944732032893613,143625,1672944732056918062,gps,2,1,42.3013138734,-83.6986726926,272.511505127,0.0009,0.0,0.0,0.0,0.0009,0.0,0.0,0.0,0.005184,2
1672944732052993111,143626,1672944732076986484,gps,2,1,42.3013129425,-83.6986724436,272.510162354,0.0009,0.0,0.0,0.0,0.0009,0.0,0.0,0.0,0.005184,2
1672944732073016014,143627,1672944732096940130,gps,2,1,42.3013120115,-83.6986721938,272.508789062,0.0009,0.0,0.0,0.0,0.0009,0.0,0.0,0.0,0.005184,2
1672944732093044951,143628,1672944732116872242,gps,2,1,42.3013110882,-83.6986719323,272.507537842,0.0009,0.0,0.0,0.0,0.0009,0.0,0.0,0.0,0.005184,2
1672944732112625732,143629,1672944732137016001,gps,2,1,42.3013101555,-83.6986716881,272.506164551,0.0009,0.0,0.0,0.0,0.0009,0.0,0.0,0.0,0.005184,2
1672944732132599007,143630,1672944732156905857,gps,2,1,42.3013092228,-83.6986714441,272.504760742,0.0009,0.0,0.0,0.0,0.0009,0.0,0.0,0.0,0.005184,2
1672944732153104959,143631,1672944732176926513,gps,2,1,42.3013082965,-83.6986711891,272.503448486,0.0009,0.0,0.0,0.0,0.0009,0.0,0.0,0.0,0.005184,2
1672944732172571607,143632,1672944732196921389,gps,2,1,42.3013073611,-83.698670952,272.50201416,0.0009,0.0,0.0,0.0,0.0009,0.0,0.0,0.0,0.005184,2
1672944732193086804,143633,1672944732216919564,gps,2,1,42.3013064261,-83.6986707146,272.500579834,0.0009,0.0,0.0,0.0,0.0009,0.0,0.0,0.0,0.005184,2
1672944732212922010,143634,1672944732236831584,gps,2,1,42.3013054961,-83.6986704687,272.499176025,0.0009,0.0,0.0,0.0,0.0009,0.0,0.0,0.0,0.005184,2
1672944732232771468,143635,1672944732256917536,gps,2,1,42.3013045564,-83.6986702432,272.497650146,0.0009,0.0,0.0,0.0,0.0009,0.0,0.0,0.0,0.005184,2
1672944732252655725,143636,1672944732276827071,gps,2,1,42.3013036171,-83.698670018,272.496124268,0.0009,0.0,0.0,0.0,0.0009,0.0,0.0,0.0,0.005184,2
1672944732272740141,143637,1672944732296882338,gps,2,1,42.3013026833,-83.6986697841,272.494628906,0.0009,0.0,0.0,0.0,0.0009,0.0,0.0,0.0,0.005184,2
1672944732292533609,143638,1672944732316912395,gps,2,1,42.3013017411,-83.6986695715,272.49307251,0.0009,0.0,0.0,0.0,0.0009,0.0,0.0,0.0,0.005184,2
1672944732312950156,143639,1672944732336822439,gps,2,1,42.3013007987,-83.6986693586,272.491516113,0.0009,0.0,0.0,0.0,0.0009,0.0,0.0,0.0,0.005184,2
1672944732332508393,143640,1672944732356913199,gps,2,1,42.3012998618,-83.6986691366,272.489959717,0.0009,0.0,0.0,0.0,0.0009,0.0,0.0,0.0,0.005184,2
1672944732352432133,143641,1672944732376840455,gps,2,1,42.3012989174,-83.6986689344,272.488433838,0.0009,0.0,0.0,0.0,0.0009,0.0,0.0,0.0,0.005184,2
1672944732372777344,143642,1672944732396850224,gps,2,1,42.3012979725,-83.6986687316,272.486816406,0.0009,0.0,0.0,0.0,0.0009,0.0,0.0,0.0,0.005184,2
1672944732392682619,143643,1672944732416926303,gps,2,1,42.3012970329,-83.698668521,272.485351562,0.0009,0.0,0.0,0.0,0.0009,0.0,0.0,0.0,0.005184,2
1672944732412631975,143644,1672944732436848034,gps,2,1,42.3012960845,-83.6986683316,272.483703613,0.0009,0.0,0.0,0.0,0.0009,0.0,0.0,0.0,0.005184,2
