%time,field.header.seq,field.header.stamp,field.header.frame_id,field.status.status,field.status.service,field.latitude,field.longitude,field.altitude,field.position_covariance0,field.position_covariance1,field.position_covariance2,field.position_covariance3,field.position_covariance4,field.position_covariance5,field.position_covariance6,field.position_covariance7,field.position_covariance8,field.position_covariance_type
1672945882316945767,201140,1672945882344000300,gps,2,1,42.2999542627,-83.6985255863,270.310821533,0.001089,0.0,0.0,0.0,0.001089,0.0,0.0,0.0,0.004761,2
1672945882337321292,201141,1672945882364047105,gps,2,1,42.2999542887,-83.6985256033,270.310943604,0.001089,0.0,0.0,0.0,0.001089,0.0,0.0,0.0,0.004761,2
1672945882357242682,201142,1672945882383965011,gps,2,1,42.2999543168,-83.6985256241,270.310974121,0.001089,0.0,0.0,0.0,0.001089,0.0,0.0,0.0,0.004761,2
1672945882377122070,201143,1672945882403962442,gps,2,1,42.2999543449,-83.6985256448,270.311035156,0.001089,0.0,0.0,0.0,0.001089,0.0,0.0,0.0,0.004761,2
1672945882397118639,201144,1672945882423978427,gps,2,1,42.2999543764,-83.6985256657,270.311126709,0.001089,0.0,0.0,0.0,0.001089,0.0,0.0,0.0,0.004761,2
1672945882417268995,201145,1672945882443968669,gps,2,1,42.299954411,-83.6985256904,270.311187744,0.001089,0.0,0.0,0.0,0.001089,0.0,0.0,0.0,0.004761,2
1672945882437177950,201146,1672945882463923532,gps,2,1,42.2999544461,-83.6985257154,270.311248779,0.001089,0.0,0.0,0.0,0.001089,0.0,0.0,0.0,0.004761,2
1672945882457303284,201147,1672945882484095006,gps,2,1,42.2999544843,-83.6985257408,270.311340332,0.001089,0.0,0.0,0.0,0.001089,0.0,0.0,0.0,0.004761,2
1672945882476839024,201148,1672945882503894933,gps,2,1,42.2999545266,-83.6985257704,270.311401367,0.001089,0.0,0.0,0.0,0.001089,0.0,0.0,0.0,0.004761,2
1672945882497220607,201149,1672945882523943313,gps,2,1,42.2999545688,-83.6985258014,270.311462402,0.001089,0.0,0.0,0.0,0.001089,0.0,0.0,0.0,0.004761,2
1672945882517381478,201150,1672945882544031094,gps,2,1,42.2999546155,-83.6985258325,270.311553955,0.001089,0.0,0.0,0.0,0.001089,0.0,0.0,0.0,0.004761,2
1672945882537299499,201151,1672945882564080083,gps,2,1,42.2999546662,-83.6985258694,270.311523438,0.001089,0.0,0.0,0.0,0.001089,0.0,0.0,0.0,0.004761,2
1672945882557126546,201152,1672945882583980036,gps,2,1,42.2999547167,-83.698525906,270.31149292,0.001089,0.0,0.0,0.0,0.001089,0.0,0.0,0.0,0.004761,2
1672945882577199466,201153,1672945882604035537,gps,2,1,42.2999547724,-83.6985259431,270.311676025,0.001089,0.0,0.0,0.0,0.001089,0.0,0.0,0.0,0.004761,2
1672945882597177614,201154,1672945882623925398,gps,2,1,42.2999548327,-83.6985259852,270.311798096,0.001089,0.0,0.0,0.0,0.001089,0.0,0.0,0.0,0.004761,2
1672945882617165753,201155,1672945882643935851,gps,2,1,42.2999548938,-83.6985260275,270.311950684,0.001089,0.0,0.0,0.0,0.001089,0.0,0.0,0.0,0.004761,2
1672945882637334912,201156,1672945882664081456,gps,2,1,42.299954959,-83.698526071,270.312194824,0.001089,0.0,0.0,0.0,0.001089,0.0,0.0,0.0,0.004761,2
1672945882657122593,201157,1672945882683973880,gps,2,1,42.2999550293,-83.6985261195,270.312408447,0.001089,0.0,0.0,0.0,0.001089,0.0,0.0,0.0,0.004761,2
1672945882677148062,201158,1672945882703974845,gps,2,1,42.2999551007,-83.6985261686,270.312652588,0.001089,0.0,0.0,0.0,0.001089,0.0,0.0,0.0,0.004761,2
1672945882697169019,201159,1672945882724094066,gps,2,1,42.2999551761,-83.6985262191,270.312988281,0.001089,0.0,0.0,0.0,0.001089,0.0,0.0,0.0,0.004761,2
1672945882716859599,201160,1672945882743984159,gps,2,1,42.2999552563,-83.6985262744,270.313262939,0.001089,0.0,0.0,0.0,0.001089,0.0,0.0,0.0,0.004761,2
1672945882736990508,201161,1672945882763979160,gps,2,1,42.299955338,-83.6985263306,270.313568115,0.001089,0.0,0.0,0.0,0.001089,0.0,0.0,0.0,0.004761,2
1672945882756923184,201162,1672945882783977137,gps,2,1,42.2999554243,-83.6985263881,270.313964844,0.001089,0.0,0.0,0.0,0.001089,0.0,0.0,0.0,0.004761,2
1672945882777170601,201163,1672945882803981721,gps,2,1,42.2999555159,-83.6985264506,270.314331055,0.001089,0.0,0.0,0.0,0.001089,0.0,0.0,0.0,0.004761,2
1672945882797166422,201164,1672945882823949988,gps,2,1,42.2999556086,-83.698526516,270.314666748,0.001089,0.0,0.0,0.0,0.001089,0.0,0.0,0.0,0.004761,2
1672945882817409174,201165,1672945882844017061,gps,2,1,42.2999557054,-83.6985265803,270.315155029,0.001089,0.0,0.0,0.0,0.001089,0.0,0.0,0.0,0.004761,2
1672945882837039305,201166,1672945882863967858,gps,2,1,42.2999558081,-83.698526652,270.315582275,0.001089,0.0,0.0,0.0,0.001089,0.0,0.0,0.0,0.004761,2
1672945882857245864,201167,1672945882884000460,gps,2,1,42.2999559118,-83.6985267229,270.315917969,0.001089,0.0,0.0,0.0,0.001089,0.0,0.0,0.0,0.004761,2
1672945882876876471,201168,1672945882903964421,gps,2,1,42.2999560214,-83.6985267962,270.31640625,0.001089,0.0,0.0,0.0,0.001089,0.0,0.0,0.0,0.004761,2
1672945882897270718,201169,1672945882924021138,gps,2,1,42.2999561375,-83.6985268751,270.316833496,0.001089,0.0,0.0,0.0,0.001089,0.0,0.0,0.0,0.004761,2
1672945882916928129,201170,1672945882943942779,gps,2,1,42.2999562523,-83.698526955,270.317352295,0.001089,0.0,0.0,0.0,0.001089,0.0,0.0,0.0,0.004761,2
1672945882937264659,201171,1672945882964022061,gps,2,1,42.299956374,-83.6985270349,270.317932129,0.001089,0.0,0.0,0.0,0.001089,0.0,0.0,0.0,0.004761,2
1672945882957050454,201172,1672945882983934768,gps,2,1,42.2999565019,-83.6985271221,270.31842041,0.001089,0.0,0.0,0.0,0.001089,0.0,0.0,0.0,0.004761,2
1672945882977228126,201173,1672945883003920034,gps,2,1,42.299956631,-83.6985272063,270.318939209,0.001089,0.0,0.0,0.0,0.001089,0.0,0.0,0.0,0.004761,2
1672945882997467742,201174,1672945883024113724,gps,2,1,42.2999567656,-83.6985272952,270.319549561,0.001089,0.0,0.0,0.0,0.001089,0.0,0.0,0.0,0.004761,2
1672945883017125394,201175,1672945883044023308,gps,2,1,42.2999569066,-83.6985273878,270.320068359,0.001089,0.0,0.0,0.0,0.001089,0.0,0.0,0.0,0.004761,2
1672945883037236245,201176,1672945883063997487,gps,2,1,42.2999570487,-83.6985274821,270.320526123,0.001089,0.0,0.0,0.0,0.001089,0.0,0.0,0.0,0.004761,2
1672945883056981434,201177,1672945883084121386,gps,2,1,42.299957196,-83.6985275778,270.321166992,0.001089,0.0,0.0,0.0,0.001089,0.0,0.0,0.0,0.004761,2
1672945883077283889,201178,1672945883103978530,gps,2,1,42.2999573504,-83.698527679,270.321655273,0.001089,0.0,0.0,0.0,0.001089,0.0,0.0,0.0,0.004761,2
1672945883097341938,201179,1672945883123935576,gps,2,1,42.2999575053,-83.6985277805,270.322265625,0.001089,0.0,0.0,0.0,0.001089,0.0,0.0,0.0,0.004761,2
1672945883117190435,201180,1672945883144034470,gps,2,1,42.2999576655,-83.6985278838,270.322906494,0.001089,0.0,0.0,0.0,0.001089,0.0,0.0,0.0,0.004761,2
1672945883137067451,201181,1672945883164031639,gps,2,1,42.2999578327,-83.6985279927,270.323486328,0.001089,0.0,0.0,0.0,0.001089,0.0,0.0,0.0,0.004761,2
1672945883157053965,201182,1672945883183963801,gps,2,1,42.2999580002,-83.6985281018,270.324127197,0.001089,0.0,0.0,0.0,0.001089,0.0,0.0,0.0,0.004761,2
1672945883177318267,201183,1672945883204008644,gps,2,1,42.2999581736,-83.6985282132,270.324829102,0.001089,0.0,0.0,0.0,0.001089,0.0,0.0,0.0,0.004761,2
1672945883197394148,201184,1672945883224010732,gps,2,1,42.2999583544,-83.6985283295,270.325439453,0.001089,0.0,0.0,0.0,0.001089,0.0,0.0,0.0,0.004761,2
1672945883217126259,201185,1672945883243927212,gps,2,1,42.2999585357,-83.6985284459,270.326049805,0.001089,0.0,0.0,0.0,0.001089,0.0,0.0,0.0,0.004761,2
1672945883237017172,201186,1672945883263957413,gps,2,1,42.2999587222,-83.6985285645,270.326782227,0.001089,0.0,0.0,0.0,0.001089,0.0,0.0,0.0,0.004761,2
1672945883256941173,201187,1672945883283901198,gps,2,1,42.2999589156,-83.6985286877,270.327453613,0.001089,0.0,0.0,0.0,0.001089,0.0,0.0,0.0,0.004761,2
1672945883277145872,201188,1672945883303972895,gps,2,1,42.2999591091,-83.6985288103,270.328125,0.001089,0.0,0.0,0.0,0.001089,0.0,0.0,0.0,0.004761,2
1672945883297159383,201189,1672945883324008164,gps,2,1,42.2999593084,-83.6985289352,270.328887939,0.001089,0.0,0.0,0.0,0.001089,0.0,0.0,0.0,0.004761,2
1672945883317081344,201190,1672945883343942148,gps,2,1,42.2999595143,-83.698529064,270.329650879,0.001089,0.0,0.0,0.0,0.001089,0.0,0.0,0.0,0.004761,2
1672945883337175790,201191,1672945883363966938,gps,2,1,42.2999597208,-83.6985291927,270.330352783,0.001089,0.0,0.0,0.0,0.001089,0.0,0.0,0.0,0.004761,2
1672945883356762643,201192,1672945883383923831,gps,2,1,42.2999599317,-83.6985293227,270.33114624,0.001089,0.0,0.0,0.0,0.001089,0.0,0.0,0.0,0.004761,2
1672945883376839910,201193,1672945883403944778,gps,2,1,42.2999601493,-83.6985294558,270.331939697,0.001089,0.0,0.0,0.0,0.001089,0.0,0.0,0.0,0.004761,2
1672945883397133616,201194,1672945883423908069,gps,2,1,42.2999603672,-83.6985295892,270.332733154,0.001089,0.0,0.0,0.0,0.001089,0.0,0.0,0.0,0.004761,2
1672945883417068481,201195,1672945883443964186,gps,2,1,42.2999605892,-83.6985297238,270.333557129,0.001089,0.0,0.0,0.0,0.001089,0.0,0.0,0.0,0.004761,2
1672945883436941817,201196,1672945883463982984,gps,2,1,42.2999608174,-83.6985298607,270.334411621,0.001089,0.0,0.0,0.0,0.001089,0.0,0.0,0.0,0.004761,2
1672945883456846408,201197,1672945883483936928,gps,2,1,42.2999610458,-83.6985299976,270.335296631,0.001089,0.0,0.0,0.0,0.001089,0.0,0.0,0.0,0.004761,2
1672945883477111966,201198,1672945883503927695,gps,2,1,42.2999612784,-83.6985301357,270.336181641,0.001089,0.0,0.0,0.0,0.001089,0.0,0.0,0.0,0.004761,2
1672945883497293911,201199,1672945883523986791,gps,2,1,42.2999615172,-83.6985302758,270.337127686,0.001089,0.0,0.0,0.0,0.001089,0.0,0.0,0.0,0.004761,2
1672945883517149780,201200,1672945883544016838,gps,2,1,42.299961756,-83.6985304158,270.338043213,0.001089,0.0,0.0,0.0,0.001089,0.0,0.0,0.0,0.004761,2
1672945883537202111,201201,1672945883564094585,gps,2,1,42.299961999,-83.6985305569,270.338989258,0.001089,0.0,0.0,0.0,0.001089,0.0,0.0,0.0,0.004761,2
1672945883557087476,201202,1672945883583961149,gps,2,1,42.2999622469,-83.6985306999,270.339904785,0.001089,0.0,0.0,0.0,0.001089,0.0,0.0,0.0,0.004761,2
1672945883576950426,201203,1672945883604024757,gps,2,1,42.2999624954,-83.698530843,270.34085083,0.001089,0.0,0.0,0.0,0.001089,0.0,0.0,0.0,0.004761,2
1672945883597107649,201204,1672945883624017471,gps,2,1,42.2999627479,-83.6985309869,270.34185791,0.001089,0.0,0.0,0.0,0.001089,0.0,0.0,0.0,0.004761,2
1672945883616882104,201205,1672945883643990239,gps,2,1,42.2999630056,-83.6985311316,270.342895508,0.001089,0.0,0.0,0.0,0.001089,0.0,0.0,0.0,0.004761,2
1672945883636880071,201206,1672945883663966846,gps,2,1,42.2999632635,-83.6985312766,270.343963623,0.001089,0.0,0.0,0.0,0.001089,0.0,0.0,0.0,0.004761,2
1672945883657207026,201207,1672945883683947392,gps,2,1,42.2999635254,-83.698531423,270.345062256,0.001089,0.0,0.0,0.0,0.001089,0.0,0.0,0.0,0.004761,2
1672945883677084505,201208,1672945883703951831,gps,2,1,42.2999637922,-83.6985315704,270.346191406,0.001089,0.0,0.0,0.0,0.001089,0.0,0.0,0.0,0.004761,2
1672945883697044982,201209,1672945883723846927,gps,2,1,42.2999640601,-83.6985317172,270.347351074,0.001089,0.0,0.0,0.0,0.001089,0.0,0.0,0.0,0.004761,2
1672945883717024123,201210,1672945883743952851,gps,2,1,42.2999643313,-83.6985318665,270.348510742,0.001089,0.0,0.0,0.0,0.001089,0.0,0.0,0.0,0.004761,2
1672945883737139023,201211,1672945883763951310,gps,2,1,42.2999646082,-83.698532016,270.349700928,0.001089,0.0,0.0,0.0,0.001089,0.0,0.0,0.0,0.004761,2
1672945883757120530,201212,1672945883783889702,gps,2,1,42.2999648867,-83.6985321666,270.350891113,0.0009,0.0,0.0,0.0,0.0009,0.0,0.0,0.0,0.004489,2
1672945883777229070,201213,1672945883803945031,gps,2,1,42.299965167,-83.6985323182,270.352050781,0.0009,0.0,0.0,0.0,0.0009,0.0,0.0,0.0,0.004489,2
1672945883797147224,201214,1672945883823954872,gps,2,1,42.2999654539,-83.6985324707,270.353240967,0.0009,0.0,0.0,0.0,0.0009,0.0,0.0,0.0,0.004489,2
1672945883816867729,201215,1672945883843867158,gps,2,1,42.2999657412,-83.6985326235,270.354431152,0.0009,0.0,0.0,0.0,0.0009,0.0,0.0,0.0,0.004489,2
1672945883837147349,201216,1672945883863896386,gps,2,1,42.2999660302,-83.6985327772,270.35559082,0.0009,0.0,0.0,0.0,0.0009,0.0,0.0,0.0,0.004489,2
1672945883857056875,201217,1672945883883953350,gps,2,1,42.299966326,-83.6985329311,270.356781006,0.0009,0.0,0.0,0.0,0.0009,0.0,0.0,0.0,0.004489,2
1672945883876955932,201218,1672945883903884066,gps,2,1,42.299966621,-83.6985330841,270.358032227,0.0009,0.0,0.0,0.0,0.0009,0.0,0.0,0.0,0.004489,2
1672945883897147669,201219,1672945883923882999,gps,2,1,42.299966919,-83.6985332391,270.359222412,0.0009,0.0,0.0,0.0,0.0009,0.0,0.0,0.0,0.004489,2
1672945883917154279,201220,1672945883943926737,gps,2,1,42.299967223,-83.6985333933,270.360443115,0.0009,0.0,0.0,0.0,0.0009,0.0,0.0,0.0,0.004489,2
1672945883937038515,201221,1672945883963858406,gps,2,1,42.2999675274,-83.6985335474,270.361663818,0.0009,0.0,0.0,0.0,0.0009,0.0,0.0,0.0,0.004489,2
1672945883957232113,201222,1672945883983942692,gps,2,1,42.2999678348,-83.698533704,270.362762451,0.0009,0.0,0.0,0.0,0.0009,0.0,0.0,0.0,0.004489,2
1672945883977148043,201223,1672945884003958915,gps,2,1,42.2999681478,-83.6985338613,270.363830566,0.0009,0.0,0.0,0.0,0.0009,0.0,0.0,0.0,0.004489,2
1672945883996740070,201224,1672945884023916433,gps,2,1,42.2999684612,-83.6985340187,270.364868164,0.0009,0.0,0.0,0.0,0.0009,0.0,0.0,0.0,0.004489,2
1672945884017324207,201225,1672945884044087841,gps,2,1,42.2999687776,-83.6985341776,270.365966797,0.0009,0.0,0.0,0.0,0.0009,0.0,0.0,0.0,0.004489,2
1672945884037074581,201226,1672945884063955160,gps,2,1,42.2999690995,-83.6985343378,270.367034912,0.0009,0.0,0.0,0.0,0.0009,0.0,0.0,0.0,0.004489,2
1672945884057320137,201227,1672945884084061321,gps,2,1,42.2999694217,-83.6985344978,270.368103027,0.0009,0.0,0.0,0.0,0.0009,0.0,0.0,0.0,0.004489,2
1672945884077135823,201228,1672945884103988652,gps,2,1,42.2999697467,-83.6985346598,270.369232178,0.0009,0.0,0.0,0.0,0.0009,0.0,0.0,0.0,0.004489,2
1672945884097076425,201229,1672945884123885965,gps,2,1,42.2999700769,-83.698534822,270.370391846,0.0009,0.0,0.0,0.0,0.0009,0.0,0.0,0.0,0.004489,2
1672945884117122144,201230,1672945884143919327,gps,2,1,42.2999704072,-83.6985349847,270.371612549,0.0009,0.0,0.0,0.0,0.0009,0.0,0.0,0.0,0.004489,2
1672945884137332457,201231,1672945884164059271,gps,2,1,42.2999707407,-83.6985351488,270.372833252,0.0009,0.0,0.0,0.0,0.0009,0.0,0.0,0.0,0.004489,2
1672945884157123541,201232,1672945884183911238,gps,2,1,42.2999710792,-83.6985353128,270.374176025,0.0009,0.0,0.0,0.0,0.0009,0.0,0.0,0.0,0.004489,2
1672945884177206563,201233,1672945884203927576,gps,2,1,42.2999714182,-83.6985354771,270.375488281,0.0009,0.0,0.0,0.0,0.0009,0.0,0.0,0.0,0.004489,2
1672945884197270782,201234,1672945884224082974,gps,2,1,42.29997176,-83.6985356422,270.376861572,0.0009,0.0,0.0,0.0,0.0009,0.0,0.0,0.0,0.004489,2
1672945884217294364,201235,1672945884243914295,gps,2,1,42.2999721083,-83.698535807,270.378234863,0.0009,0.0,0.0,0.0,0.0009,0.0,0.0,0.0,0.004489,2
1672945884237276947,201236,1672945884263904467,gps,2,1,42.2999724568,-83.6985359719,270.379577637,0.0009,0.0,0.0,0.0,0.0009,0.0,0.0,0.0,0.004489,2
1672945884257158262,201237,1672945884283970399,gps,2,1,42.2999728069,-83.6985361373,270.381011963,0.0009,0.0,0.0,0.0,0.0009,0.0,0.0,0.0,0.004489,2
1672945884277089637,201238,1672945884303905395,gps,2,1,42.299973163,-83.6985363025,270.382446289,0.0009,0.0,0.0,0.0,0.0009,0.0,0.0,0.0,0.004489,2
1672945884297230614,201239,1672945884323989630,gps,2,1,42.2999735195,-83.6985364681,270.383880615,0.0009,0.0,0.0,0.0,0.0009,0.0,0.0,0.0,0.004489,2
1672945884317180957,201240,1672945884343870582,gps,2,1,42.2999738773,-83.6985366344,270.385375977,0.0009,0.0,0.0,0.0,0.0009,0.0,0.0,0.0,0.004489,2
1672945884336707264,201241,1672945884363891383,gps,2,1,42.2999742411,-83.6985368008,270.38684082,0.0009,0.0,0.0,0.0,0.0009,0.0,0.0,0.0,0.004489,2
1672945884356860653,201242,1672945884383935680,gps,2,1,42.2999746051,-83.6985369674,270.388336182,0.0009,0.0,0.0,0.0,0.0009,0.0,0.0,0.0,0.004489,2
1672945884377151571,201243,1672945884403949364,gps,2,1,42.2999749708,-83.6985371351,270.389892578,0.0009,0.0,0.0,0.0,0.0009,0.0,0.0,0.0,0.004489,2
1672945884397042700,201244,1672945884423933062,gps,2,1,42.2999753412,-83.6985373007,270.391357422,0.0009,0.0,0.0,0.0,0.0009,0.0,0.0,0.0,0.004489,2
1672945884417012229,201245,1672945884443923467,gps,2,1,42.299975712,-83.6985374666,270.392822266,0.0009,0.0,0.0,0.0,0.0009,0.0,0.0,0.0,0.004489,2
1672945884436998649,201246,1672945884463958908,gps,2,1,42.2999760855,-83.6985376356,270.394348145,0.0009,0.0,0.0,0.0,0.0009,0.0,0.0,0.0,0.004489,2
1672945884457335606,201247,1672945884483965118,gps,2,1,42.299976464,-83.698537803,270.395751953,0.0009,0.0,0.0,0.0,0.0009,0.0,0.0,0.0,0.004489,2
1672945884476799581,201248,1672945884503945268,gps,2,1,42.2999768427,-83.6985379707,270.397125244,0.0009,0.0,0.0,0.0,0.0009,0.0,0.0,0.0,0.004489,2
1672945884497376667,201249,1672945884524056225,gps,2,1,42.299977224,-83.6985381413,270.39855957,0.0009,0.0,0.0,0.0,0.0009,0.0,0.0,0.0,0.004489,2
1672945884517150681,201250,1672945884543909365,gps,2,1,42.2999776107,-83.6985383105,270.400024414,0.0009,0.0,0.0,0.0,0.0009,0.0,0.0,0.0,0.004489,2
1672945884537114534,201251,1672945884563958533,gps,2,1,42.2999779965,-83.6985384799,270.401489258,0.0009,0.0,0.0,0.0,0.0009,0.0,0.0,0.0,0.004489,2
1672945884556984938,201252,1672945884583997067,gps,2,1,42.2999783857,-83.6985386524,270.402893066,0.0009,0.0,0.0,0.0,0.0009,0.0,0.0,0.0,0.004489,2
1672945884577030410,201253,1672945884603891281,gps,2,1,42.2999787791,-83.6985388234,270.404388428,0.0009,0.0,0.0,0.0,0.0009,0.0,0.0,0.0,0.004489,2
1672945884597209403,201254,1672945884623967405,gps,2,1,42.299979174,-83.6985389959,270.405914307,0.0009,0.0,0.0,0.0,0.0009,0.0,0.0,0.0,0.004489,2
1672945884617168079,201255,1672945884643982783,gps,2,1,42.2999795711,-83.6985391702,270.40737915,0.0009,0.0,0.0,0.0,0.0009,0.0,0.0,0.0,0.004489,2
1672945884637257393,201256,1672945884663956705,gps,2,1,42.2999799741,-83.6985393449,270.408966064,0.0009,0.0,0.0,0.0,0.0009,0.0,0.0,0.0,0.004489,2
1672945884657094204,201257,1672945884683865098,gps,2,1,42.2999803775,-83.6985395194,270.410583496,0.0009,0.0,0.0,0.0,0.0009,0.0,0.0,0.0,0.004489,2
1672945884677274116,201258,1672945884703954153,gps,2,1,42.299980784,-83.6985396966,270.412109375,0.0009,0.0,0.0,0.0,0.0009,0.0,0.0,0.0,0.004489,2
1672945884697246367,201259,1672945884723911813,gps,2,1,42.2999811969,-83.6985398728,270.413635254,0.0009,0.0,0.0,0.0,0.0009,0.0,0.0,0.0,0.004489,2
1672945884717077829,201260,1672945884743877567,gps,2,1,42.2999816105,-83.6985400497,270.415130615,0.0009,0.0,0.0,0.0,0.0009,0.0,0.0,0.0,0.004489,2
1672945884737306720,201261,1672945884763951691,gps,2,1,42.2999820274,-83.6985402297,270.416656494,0.0009,0.0,0.0,0.0,0.0009,0.0,0.0,0.0,0.004489,2
1672945884757111687,201262,1672945884783883552,gps,2,1,42.2999824511,-83.6985404089,270.418151855,0.0009,0.0,0.0,0.0,0.0009,0.0,0.0,0.0,0.004489,2
1672945884777062228,201263,1672945884803889357,gps,2,1,42.2999828755,-83.698540588,270.419647217,0.0009,0.0,0.0,0.0,0.0009,0.0,0.0,0.0,0.004489,2
1672945884797229357,201264,1672945884823907886,gps,2,1,42.2999833037,-83.6985407702,270.421081543,0.0009,0.0,0.0,0.0,0.0009,0.0,0.0,0.0,0.004489,2
1672945884817106797,201265,1672945884843847494,gps,2,1,42.2999837397,-83.6985409507,270.422546387,0.0009,0.0,0.0,0.0,0.0009,0.0,0.0,0.0,0.004489,2
1672945884837161507,201266,1672945884863898540,gps,2,1,42.2999841762,-83.6985411316,270.42401123,0.0009,0.0,0.0,0.0,0.0009,0.0,0.0,0.0,0.004489,2
1672945884857176823,201267,1672945884883946096,gps,2,1,42.299984617,-83.698541316,270.425384521,0.0009,0.0,0.0,0.0,0.0009,0.0,0.0,0.0,0.004489,2
1672945884876887458,201268,1672945884903858902,gps,2,1,42.2999850657,-83.6985414988,270.426727295,0.0009,0.0,0.0,0.0,0.0009,0.0,0.0,0.0,0.004489,2
1672945884897160712,201269,1672945884923894857,gps,2,1,42.2999855148,-83.6985416805,270.428070068,0.0009,0.0,0.0,0.0,0.0009,0.0,0.0,0.0,0.004489,2
1672945884917127684,201270,1672945884943958047,gps,2,1,42.299985968,-83.6985418669,270.429412842,0.0009,0.0,0.0,0.0,0.0009,0.0,0.0,0.0,0.004489,2
1672945884937157113,201271,1672945884963870392,gps,2,1,42.299986429,-83.6985420507,270.430847168,0.0009,0.0,0.0,0.0,0.0009,0.0,0.0,0.0,0.004489,2
1672945884957111012,201272,1672945884983861416,gps,2,1,42.2999868905,-83.6985422349,270.432250977,0.0009,0.0,0.0,0.0,0.0009,0.0,0.0,0.0,0.004489,2
1672945884977079490,201273,1672945885003895546,gps,2,1,42.2999873564,-83.6985424235,270.433807373,0.0009,0.0,0.0,0.0,0.0009,0.0,0.0,0.0,0.004489,2
1672945884996995556,201274,1672945885023963794,gps,2,1,42.2999878306,-83.6985426079,270.435546875,0.0009,0.0,0.0,0.0,0.0009,0.0,0.0,0.0,0.004489,2
1672945885017329640,201275,1672945885043947568,gps,2,1,42.2999883055,-83.6985427926,270.437316895,0.0009,0.0,0.0,0.0,0.0009,0.0,0.0,0.0,0.004489,2
1672945885037515757,201276,1672945885063942611,gps,2,1,42.2999887838,-83.6985429841,270.439178467,0.0009,0.0,0.0,0.0,0.0009,0.0,0.0,0.0,0.004489,2
1672945885057181098,201277,1672945885083936403,gps,2,1,42.2999892704,-83.6985431711,270.44128418,0.0009,0.0,0.0,0.0,0.0009,0.0,0.0,0.0,0.004489,2
1672945885077229783,201278,1672945885103931513,gps,2,1,42.2999897571,-83.6985433587,270.443389893,0.0009,0.0,0.0,0.0,0.0009,0.0,0.0,0.0,0.004489,2
1672945885097206296,201279,1672945885123970035,gps,2,1,42.2999902483,-83.6985435533,270.445495605,0.0009,0.0,0.0,0.0,0.0009,0.0,0.0,0.0,0.004489,2
1672945885116976119,201280,1672945885143882439,gps,2,1,42.2999907482,-83.6985437453,270.447753906,0.0009,0.0,0.0,0.0,0.0009,0.0,0.0,0.0,0.004489,2
1672945885137003791,201281,1672945885164021906,gps,2,1,42.2999912486,-83.6985439375,270.449981689,0.0009,0.0,0.0,0.0,0.0009,0.0,0.0,0.0,0.004489,2
1672945885157171279,201282,1672945885183930948,gps,2,1,42.2999917529,-83.6985441363,270.45211792,0.0009,0.0,0.0,0.0,0.0009,0.0,0.0,0.0,0.004489,2
1672945885177388291,201283,1672945885203875762,gps,2,1,42.2999922654,-83.6985443329,270.454376221,0.0009,0.0,0.0,0.0,0.0009,0.0,0.0,0.0,0.004489,2
1672945885197268826,201284,1672945885223832253,gps,2,1,42.299992779,-83.6985445284,270.456634521,0.0009,0.0,0.0,0.0,0.0009,0.0,0.0,0.0,0.004489,2
1672945885217150115,201285,1672945885243880806,gps,2,1,42.299993296,-83.6985447312,270.458648682,0.0009,0.0,0.0,0.0,0.0009,0.0,0.0,0.0,0.004489,2
1672945885237158560,201286,1672945885263862226,gps,2,1,42.2999938217,-83.6985449304,270.460784912,0.0009,0.0,0.0,0.0,0.0009,0.0,0.0,0.0,0.004489,2
1672945885257345844,201287,1672945885283899202,gps,2,1,42.299994348,-83.6985451301,270.462921143,0.0009,0.0,0.0,0.0,0.0009,0.0,0.0,0.0,0.004489,2
1672945885277022802,201288,1672945885303931990,gps,2,1,42.299994878,-83.6985453365,270.464782715,0.0009,0.0,0.0,0.0,0.0009,0.0,0.0,0.0,0.004489,2
1672945885297125801,201289,1672945885323896958,gps,2,1,42.2999954165,-83.6985455395,270.46673584,0.0009,0.0,0.0,0.0,0.0009,0.0,0.0,0.0,0.004489,2
1672945885317104720,201290,1672945885343840006,gps,2,1,42.2999959557,-83.698545743,270.468719482,0.0009,0.0,0.0,0.0,0.0009,0.0,0.0,0.0,0.004489,2
1672945885337152280,201291,1672945885363911959,gps,2,1,42.2999964985,-83.6985459534,270.470581055,0.0009,0.0,0.0,0.0,0.0009,0.0,0.0,0.0,0.004489,2
1672945885357187248,201292,1672945885383866176,gps,2,1,42.2999970498,-83.6985461605,270.472625732,0.0009,0.0,0.0,0.0,0.0009,0.0,0.0,0.0,0.004489,2
1672945885377276107,201293,1672945885403910212,gps,2,1,42.2999976017,-83.6985463682,270.474700928,0.0009,0.0,0.0,0.0,0.0009,0.0,0.0,0.0,0.004489,2
1672945885397122464,201294,1672945885423927041,gps,2,1,42.2999981574,-83.6985465825,270.476745605,0.0009,0.0,0.0,0.0,0.0009,0.0,0.0,0.0,0.004489,2
1672945885417002606,201295,1672945885443846772,gps,2,1,42.2999987213,-83.6985467932,270.478973389,0.0009,0.0,0.0,0.0,0.0009,0.0,0.0,0.0,0.004489,2
1672945885437142515,201296,1672945885463824924,gps,2,1,42.2999992858,-83.6985470037,270.481170654,0.0009,0.0,0.0,0.0,0.0009,0.0,0.0,0.0,0.004489,2
1672945885457111026,201297,1672945885483832686,gps,2,1,42.299999854,-83.6985472218,270.48336792,0.0009,0.0,0.0,0.0,0.0009,0.0,0.0,0.0,0.004489,2
1672945885477139058,201298,1672945885503744494,gps,2,1,42.3000004302,-83.6985474358,270.485748291,0.0009,0.0,0.0,0.0,0.0009,0.0,0.0,0.0,0.004489,2
1672945885497316002,201299,1672945885523993942,gps,2,1,42.300001007,-83.6985476508,270.488067627,0.0009,0.0,0.0,0.0,0.0009,0.0,0.0,0.0,0.004489,2
1672945885517190026,201300,1672945885543868062,gps,2,1,42.3000015877,-83.6985478713,270.490356445,0.0009,0.0,0.0,0.0,0.0009,0.0,0.0,0.0,0.004489,2
1672945885537176380,201301,1672945885563968875,gps,2,1,42.3000021768,-83.6985480875,270.492828369,0.0009,0.0,0.0,0.0,0.0009,0.0,0.0,0.0,0.004489,2
1672945885557161669,201302,1672945885583905299,gps,2,1,42.300002766,-83.6985483026,270.495452881,0.0009,0.0,0.0,0.0,0.0009,0.0,0.0,0.0,0.004489,2
1672945885577007085,201303,1672945885603839130,gps,2,1,42.3000033591,-83.6985485258,270.497711182,0.0009,0.0,0.0,0.0,0.0009,0.0,0.0,0.0,0.004489,2
1672945885597105916,201304,1672945885623869387,gps,2,1,42.3000039608,-83.6985487443,270.500152588,0.0009,0.0,0.0,0.0,0.0009,0.0,0.0,0.0,0.004489,2
1672945885616995147,201305,1672945885643808207,gps,2,1,42.3000045627,-83.698548963,270.502624512,0.0009,0.0,0.0,0.0,0.0009,0.0,0.0,0.0,0.004489,2
1672945885637458416,201306,1672945885663965545,gps,2,1,42.3000051684,-83.6985491889,270.504760742,0.0009,0.0,0.0,0.0,0.0009,0.0,0.0,0.0,0.004489,2
1672945885657053535,201307,1672945885683824077,gps,2,1,42.3000057824,-83.6985494105,270.507171631,0.0009,0.0,0.0,0.0,0.0009,0.0,0.0,0.0,0.004489,2
1672945885677010742,201308,1672945885703840334,gps,2,1,42.3000063968,-83.6985496326,270.509552002,0.0009,0.0,0.0,0.0,0.0009,0.0,0.0,0.0,0.004489,2
1672945885697285989,201309,1672945885723921824,gps,2,1,42.300007015,-83.6985498616,270.511688232,0.0009,0.0,0.0,0.0,0.0009,0.0,0.0,0.0,0.004489,2
1672945885717162314,201310,1672945885743822568,gps,2,1,42.3000076407,-83.6985500852,270.514007568,0.0009,0.0,0.0,0.0,0.0009,0.0,0.0,0.0,0.004489,2
1672945885736684404,201311,1672945885763809630,gps,2,1,42.3000082671,-83.6985503097,270.516357422,0.0009,0.0,0.0,0.0,0.0009,0.0,0.0,0.0,0.004489,2
1672945885757275602,201312,1672945885783911330,gps,2,1,42.3000088971,-83.6985505421,270.51852417,0.001089,0.0,0.0,0.0,0.001089,0.0,0.0,0.0,0.004624,2
1672945885777158068,201313,1672945885803841558,gps,2,1,42.3000095346,-83.6985507698,270.520904541,0.001089,0.0,0.0,0.0,0.001089,0.0,0.0,0.0,0.004624,2
1672945885797166052,201314,1672945885823867036,gps,2,1,42.3000101721,-83.698550999,270.523345947,0.001089,0.0,0.0,0.0,0.001089,0.0,0.0,0.0,0.004624,2
1672945885817305277,201315,1672945885843831587,gps,2,1,42.3000108135,-83.6985512344,270.525634766,0.001089,0.0,0.0,0.0,0.001089,0.0,0.0,0.0,0.004624,2
1672945885837018593,201316,1672945885863852489,gps,2,1,42.300011462,-83.6985514661,270.52822876,0.001089,0.0,0.0,0.0,0.001089,0.0,0.0,0.0,0.004624,2
1672945885856937870,201317,1672945885883874597,gps,2,1,42.3000121109,-83.698551698,270.530853271,0.001089,0.0,0.0,0.0,0.001089,0.0,0.0,0.0,0.004624,2
1672945885877109364,201318,1672945885903850101,gps,2,1,42.3000127641,-83.6985519354,270.53326416,0.001089,0.0,0.0,0.0,0.001089,0.0,0.0,0.0,0.004624,2
1672945885897086345,201319,1672945885923793036,gps,2,1,42.3000134254,-83.6985521657,270.535980225,0.001089,0.0,0.0,0.0,0.001089,0.0,0.0,0.0,0.004624,2
1672945885917237021,201320,1672945885943840190,gps,2,1,42.3000140873,-83.698552396,270.538665771,0.001089,0.0,0.0,0.0,0.001089,0.0,0.0,0.0,0.004624,2
1672945885937113913,201321,1672945885963893402,gps,2,1,42.3000147521,-83.6985526342,270.541046143,0.001089,0.0,0.0,0.0,0.001089,0.0,0.0,0.0,0.004624,2
1672945885957163321,201322,1672945885983844386,gps,2,1,42.3000154247,-83.698552866,270.543640137,0.001089,0.0,0.0,0.0,0.001089,0.0,0.0,0.0,0.004624,2
1672945885976858149,201323,1672945886003844847,gps,2,1,42.3000160977,-83.6985530967,270.546264648,0.001089,0.0,0.0,0.0,0.001089,0.0,0.0,0.0,0.004624,2
1672945885997354689,201324,1672945886023931829,gps,2,1,42.3000167737,-83.6985533364,270.548522949,0.001089,0.0,0.0,0.0,0.001089,0.0,0.0,0.0,0.004624,2
1672945886017456095,201325,1672945886043967038,gps,2,1,42.3000174565,-83.6985535692,270.551055908,0.001089,0.0,0.0,0.0,0.001089,0.0,0.0,0.0,0.004624,2
1672945886037232753,201326,1672945886063921587,gps,2,1,42.3000181426,-83.6985537869,270.553741455,0.001089,0.0,0.0,0.0,0.001089,0.0,0.0,0.0,0.004624,2
1672945886057298107,201327,1672945886083970231,gps,2,1,42.3000188289,-83.6985540284,270.556060791,0.001089,0.0,0.0,0.0,0.001089,0.0,0.0,0.0,0.004624,2
1672945886076842228,201328,1672945886103825526,gps,2,1,42.3000195247,-83.6985542481,270.558807373,0.001089,0.0,0.0,0.0,0.001089,0.0,0.0,0.0,0.004624,2
1672945886097208602,201329,1672945886123884561,gps,2,1,42.3000202218,-83.6985544694,270.56149292,0.001089,0.0,0.0,0.0,0.001089,0.0,0.0,0.0,0.004624,2
1672945886117178182,201330,1672945886143947010,gps,2,1,42.3000209183,-83.6985547126,270.563873291,0.001089,0.0,0.0,0.0,0.001089,0.0,0.0,0.0,0.004624,2
1672945886137111356,201331,1672945886163924156,gps,2,1,42.3000216248,-83.6985549367,270.566619873,0.001089,0.0,0.0,0.0,0.001089,0.0,0.0,0.0,0.004624,2
1672945886156953425,201332,1672945886183871714,gps,2,1,42.3000223318,-83.6985551612,270.56930542,0.001089,0.0,0.0,0.0,0.001089,0.0,0.0,0.0,0.004624,2
1672945886176805491,201333,1672945886203867297,gps,2,1,42.3000230382,-83.6985554069,270.571746826,0.001089,0.0,0.0,0.0,0.001089,0.0,0.0,0.0,0.004624,2
1672945886197186149,201334,1672945886223933226,gps,2,1,42.3000237536,-83.6985556342,270.574554443,0.001089,0.0,0.0,0.0,0.001089,0.0,0.0,0.0,0.004624,2
1672945886216859681,201335,1672945886243820680,gps,2,1,42.3000244695,-83.6985558621,270.577331543,0.001089,0.0,0.0,0.0,0.001089,0.0,0.0,0.0,0.004624,2
1672945886237089035,201336,1672945886263868835,gps,2,1,42.3000251852,-83.6985561096,270.579956055,0.001089,0.0,0.0,0.0,0.001089,0.0,0.0,0.0,0.004624,2
1672945886257056770,201337,1672945886283872599,gps,2,1,42.3000259098,-83.6985563393,270.582946777,0.001089,0.0,0.0,0.0,0.001089,0.0,0.0,0.0,0.004624,2
1672945886277052723,201338,1672945886303821858,gps,2,1,42.3000266352,-83.6985565687,270.585998535,0.001089,0.0,0.0,0.0,0.001089,0.0,0.0,0.0,0.004624,2
1672945886297170754,201339,1672945886323957856,gps,2,1,42.3000273601,-83.6985568173,270.58883667,0.001089,0.0,0.0,0.0,0.001089,0.0,0.0,0.0,0.004624,2
1672945886317292253,201340,1672945886343842067,gps,2,1,42.3000280938,-83.6985570479,270.592041016,0.001089,0.0,0.0,0.0,0.001089,0.0,0.0,0.0,0.004624,2
1672945886337033859,201341,1672945886363813450,gps,2,1,42.3000288279,-83.6985572787,270.595245361,0.001089,0.0,0.0,0.0,0.001089,0.0,0.0,0.0,0.004624,2
1672945886357126477,201342,1672945886383882925,gps,2,1,42.3000295616,-83.698557528,270.598236084,0.001089,0.0,0.0,0.0,0.001089,0.0,0.0,0.0,0.004624,2
1672945886377258159,201343,1672945886403851198,gps,2,1,42.300030304,-83.6985577605,270.60144043,0.001089,0.0,0.0,0.0,0.001089,0.0,0.0,0.0,0.004624,2
1672945886397101966,201344,1672945886423810645,gps,2,1,42.3000310454,-83.6985579939,270.604614258,0.001089,0.0,0.0,0.0,0.001089,0.0,0.0,0.0,0.004624,2
1672945886417121152,201345,1672945886443907458,gps,2,1,42.3000317878,-83.6985582443,270.607543945,0.001089,0.0,0.0,0.0,0.001089,0.0,0.0,0.0,0.004624,2
1672945886437263186,201346,1672945886463888754,gps,2,1,42.3000325376,-83.6985584791,270.61050415,0.001089,0.0,0.0,0.0,0.001089,0.0,0.0,0.0,0.004624,2
1672945886457127440,201347,1672945886483873314,gps,2,1,42.300033289,-83.6985587138,270.613555908,0.001089,0.0,0.0,0.0,0.001089,0.0,0.0,0.0,0.004624,2
1672945886477304201,201348,1672945886503835899,gps,2,1,42.3000340399,-83.698558965,270.61630249,0.001089,0.0,0.0,0.0,0.001089,0.0,0.0,0.0,0.004624,2
1672945886496839877,201349,1672945886523943121,gps,2,1,42.3000347992,-83.6985592004,270.61920166,0.001089,0.0,0.0,0.0,0.001089,0.0,0.0,0.0,0.004624,2
1672945886517148868,201350,1672945886543931891,gps,2,1,42.3000355592,-83.6985594332,270.622314453,0.001089,0.0,0.0,0.0,0.001089,0.0,0.0,0.0,0.004624,2
1672945886537059014,201351,1672945886563865929,gps,2,1,42.3000363183,-83.6985596845,270.624969482,0.001089,0.0,0.0,0.0,0.001089,0.0,0.0,0.0,0.004624,2
1672945886556972076,201352,1672945886583917757,gps,2,1,42.300037086,-83.6985599178,270.627990723,0.001089,0.0,0.0,0.0,0.001089,0.0,0.0,0.0,0.004624,2
1672945886576918487,201353,1672945886603842997,gps,2,1,42.3000378543,-83.6985601512,270.630950928,0.001089,0.0,0.0,0.0,0.001089,0.0,0.0,0.0,0.004624,2
1672945886596727124,201354,1672945886623883826,gps,2,1,42.3000386215,-83.6985604023,270.633483887,0.001089,0.0,0.0,0.0,0.001089,0.0,0.0,0.0,0.004624,2
1672945886617064412,201355,1672945886643838360,gps,2,1,42.3000393976,-83.6985606356,270.636260986,0.001089,0.0,0.0,0.0,0.001089,0.0,0.0,0.0,0.004624,2
1672945886637259174,201356,1672945886663896026,gps,2,1,42.300040174,-83.6985608692,270.639099121,0.001089,0.0,0.0,0.0,0.001089,0.0,0.0,0.0,0.004624,2
1672945886657401086,201357,1672945886683864679,gps,2,1,42.300040949,-83.6985611189,270.641571045,0.001089,0.0,0.0,0.0,0.001089,0.0,0.0,0.0,0.004624,2
1672945886677245045,201358,1672945886703814786,gps,2,1,42.3000417328,-83.6985613509,270.644439697,0.001089,0.0,0.0,0.0,0.001089,0.0,0.0,0.0,0.004624,2
1672945886697069137,201359,1672945886723824555,gps,2,1,42.3000425164,-83.6985615826,270.64730835,0.001089,0.0,0.0,0.0,0.001089,0.0,0.0,0.0,0.004624,2
1672945886716896410,201360,1672945886743879490,gps,2,1,42.3000432994,-83.6985618299,270.649963379,0.001089,0.0,0.0,0.0,0.001089,0.0,0.0,0.0,0.004624,2
1672945886737383214,201361,1672945886763875211,gps,2,1,42.3000440906,-83.6985620595,270.653015137,0.001089,0.0,0.0,0.0,0.001089,0.0,0.0,0.0,0.004624,2
1672945886757087221,201362,1672945886783802816,gps,2,1,42.3000448817,-83.6985622899,270.656036377,0.001089,0.0,0.0,0.0,0.001089,0.0,0.0,0.0,0.004624,2
1672945886777250452,201363,1672945886803854141,gps,2,1,42.3000456725,-83.698562535,270.658874512,0.001089,0.0,0.0,0.0,0.001089,0.0,0.0,0.0,0.004624,2
1672945886797296341,201364,1672945886823957750,gps,2,1,42.3000464702,-83.698562765,270.661987305,0.001089,0.0,0.0,0.0,0.001089,0.0,0.0,0.0,0.004624,2
1672945886817117393,201365,1672945886843795548,gps,2,1,42.3000472684,-83.698562995,270.665100098,0.001089,0.0,0.0,0.0,0.001089,0.0,0.0,0.0,0.004624,2
1672945886837418278,201366,1672945886863927521,gps,2,1,42.3000480663,-83.6985632397,270.667938232,0.001089,0.0,0.0,0.0,0.001089,0.0,0.0,0.0,0.004624,2
1672945886857206479,201367,1672945886883800567,gps,2,1,42.3000488709,-83.6985634704,270.671051025,0.001089,0.0,0.0,0.0,0.001089,0.0,0.0,0.0,0.004624,2
1672945886877344525,201368,1672945886903860489,gps,2,1,42.3000496757,-83.6985637014,270.674102783,0.001089,0.0,0.0,0.0,0.001089,0.0,0.0,0.0,0.004624,2
1672945886897174392,201369,1672945886923837471,gps,2,1,42.3000504804,-83.6985639464,270.676940918,0.001089,0.0,0.0,0.0,0.001089,0.0,0.0,0.0,0.004624,2
1672945886917395815,201370,1672945886943764649,gps,2,1,42.3000512917,-83.6985641783,270.679962158,0.001089,0.0,0.0,0.0,0.001089,0.0,0.0,0.0,0.004624,2
1672945886937331473,201371,1672945886963801922,gps,2,1,42.3000521034,-83.6985644101,270.682952881,0.001089,0.0,0.0,0.0,0.001089,0.0,0.0,0.0,0.004624,2
1672945886957207135,201372,1672945886983871401,gps,2,1,42.3000529149,-83.6985646544,270.685760498,0.001089,0.0,0.0,0.0,0.001089,0.0,0.0,0.0,0.004624,2
1672945886977118711,201373,1672945887003808726,gps,2,1,42.3000537327,-83.6985648855,270.688781738,0.001089,0.0,0.0,0.0,0.001089,0.0,0.0,0.0,0.004624,2
1672945886997155817,201374,1672945887023810022,gps,2,1,42.3000545516,-83.698565115,270.691772461,0.001089,0.0,0.0,0.0,0.001089,0.0,0.0,0.0,0.004624,2
1672945887017635845,201375,1672945887043947204,gps,2,1,42.3000553699,-83.6985653572,270.694610596,0.001089,0.0,0.0,0.0,0.001089,0.0,0.0,0.0,0.004624,2
1672945887037008610,201376,1672945887063808509,gps,2,1,42.3000561955,-83.698565582,270.697753906,0.001089,0.0,0.0,0.0,0.001089,0.0,0.0,0.0,0.004624,2
1672945887057334405,201377,1672945887083940602,gps,2,1,42.3000570211,-83.6985658075,270.700897217,0.001089,0.0,0.0,0.0,0.001089,0.0,0.0,0.0,0.004624,2
1672945887077276319,201378,1672945887103843794,gps,2,1,42.3000578463,-83.6985660468,270.703674316,0.001089,0.0,0.0,0.0,0.001089,0.0,0.0,0.0,0.004624,2
1672945887097211363,201379,1672945887123802104,gps,2,1,42.300058679,-83.69856627,270.706756592,0.001089,0.0,0.0,0.0,0.001089,0.0,0.0,0.0,0.004624,2
1672945887117594445,201380,1672945887144013129,gps,2,1,42.300059512,-83.6985664936,270.70980835,0.001089,0.0,0.0,0.0,0.001089,0.0,0.0,0.0,0.004624,2
1672945887137546305,201381,1672945887163977186,gps,2,1,42.3000603438,-83.6985667293,270.712768555,0.001089,0.0,0.0,0.0,0.001089,0.0,0.0,0.0,0.004624,2
1672945887157034401,201382,1672945887183755766,gps,2,1,42.3000611831,-83.6985669499,270.716094971,0.001089,0.0,0.0,0.0,0.001089,0.0,0.0,0.0,0.004624,2
1672945887177299890,201383,1672945887203959887,gps,2,1,42.3000620223,-83.698567171,270.719421387,0.001089,0.0,0.0,0.0,0.001089,0.0,0.0,0.0,0.004624,2
1672945887197179709,201384,1672945887223919551,gps,2,1,42.3000628608,-83.6985674042,270.722595215,0.001089,0.0,0.0,0.0,0.001089,0.0,0.0,0.0,0.004624,2
1672945887217009118,201385,1672945887243749044,gps,2,1,42.3000637051,-83.6985676237,270.726135254,0.001089,0.0,0.0,0.0,0.001089,0.0,0.0,0.0,0.004624,2
1672945887237157016,201386,1672945887263766938,gps,2,1,42.3000645493,-83.6985678432,270.729614258,0.001089,0.0,0.0,0.0,0.001089,0.0,0.0,0.0,0.004624,2
1672945887256964345,201387,1672945887283815443,gps,2,1,42.3000653938,-83.698568075,270.732971191,0.001089,0.0,0.0,0.0,0.001089,0.0,0.0,0.0,0.004624,2
1672945887277107236,201388,1672945887303809463,gps,2,1,42.3000662436,-83.6985682935,270.736663818,0.001089,0.0,0.0,0.0,0.001089,0.0,0.0,0.0,0.004624,2
1672945887297212246,201389,1672945887323825243,gps,2,1,42.3000670941,-83.6985685135,270.740356445,0.001089,0.0,0.0,0.0,0.001089,0.0,0.0,0.0,0.004624,2
1672945887317349594,201390,1672945887343875569,gps,2,1,42.3000679447,-83.6985687436,270.743774414,0.001089,0.0,0.0,0.0,0.001089,0.0,0.0,0.0,0.004624,2
1672945887336580818,201391,1672945887363733312,gps,2,1,42.3000688015,-83.6985689615,270.747283936,0.001089,0.0,0.0,0.0,0.001089,0.0,0.0,0.0,0.004624,2
1672945887357072486,201392,1672945887383777658,gps,2,1,42.3000696587,-83.6985691795,270.750762939,0.001089,0.0,0.0,0.0,0.001089,0.0,0.0,0.0,0.004624,2
1672945887377047582,201393,1672945887403808391,gps,2,1,42.3000705166,-83.6985694059,270.753814697,0.001089,0.0,0.0,0.0,0.001089,0.0,0.0,0.0,0.004624,2
1672945887397030342,201394,1672945887423780389,gps,2,1,42.3000713814,-83.6985696208,270.757019043,0.001089,0.0,0.0,0.0,0.001089,0.0,0.0,0.0,0.004624,2
1672945887416994851,201395,1672945887443792601,gps,2,1,42.3000722469,-83.6985698359,270.760192871,0.001089,0.0,0.0,0.0,0.001089,0.0,0.0,0.0,0.004624,2
1672945887437182246,201396,1672945887463843757,gps,2,1,42.3000731118,-83.6985700579,270.762969971,0.001089,0.0,0.0,0.0,0.001089,0.0,0.0,0.0,0.004624,2
1672945887457063629,201397,1672945887483779387,gps,2,1,42.3000739831,-83.6985702688,270.765869141,0.001089,0.0,0.0,0.0,0.001089,0.0,0.0,0.0,0.004624,2
1672945887477221877,201398,1672945887503848954,gps,2,1,42.3000748551,-83.6985704799,270.768768311,0.001089,0.0,0.0,0.0,0.001089,0.0,0.0,0.0,0.004624,2
1672945887497100374,201399,1672945887523881933,gps,2,1,42.3000757261,-83.6985706973,270.771392822,0.001089,0.0,0.0,0.0,0.001089,0.0,0.0,0.0,0.004624,2
1672945887517116663,201400,1672945887543768513,gps,2,1,42.3000766033,-83.6985709015,270.774078369,0.001089,0.0,0.0,0.0,0.001089,0.0,0.0,0.0,0.004624,2
1672945887537079182,201401,1672945887563924682,gps,2,1,42.30007748,-83.6985711056,270.776855469,0.001089,0.0,0.0,0.0,0.001089,0.0,0.0,0.0,0.004624,2
1672945887556895847,201402,1672945887583845099,gps,2,1,42.3000783569,-83.698571318,270.779510498,0.001089,0.0,0.0,0.0,0.001089,0.0,0.0,0.0,0.004624,2
1672945887577089461,201403,1672945887603754499,gps,2,1,42.3000792391,-83.698571518,270.782501221,0.001089,0.0,0.0,0.0,0.001089,0.0,0.0,0.0,0.004624,2
1672945887597067626,201404,1672945887623777610,gps,2,1,42.3000801208,-83.6985717173,270.785461426,0.001089,0.0,0.0,0.0,0.001089,0.0,0.0,0.0,0.004624,2
1672945887617067493,201405,1672945887643799726,gps,2,1,42.3000810028,-83.6985719254,270.788391113,0.001089,0.0,0.0,0.0,0.001089,0.0,0.0,0.0,0.004624,2
1672945887637100284,201406,1672945887663856358,gps,2,1,42.3000818892,-83.6985721221,270.791625977,0.001089,0.0,0.0,0.0,0.001089,0.0,0.0,0.0,0.004624,2
1672945887657050014,201407,1672945887683761653,gps,2,1,42.3000827757,-83.6985723192,270.794830322,0.001089,0.0,0.0,0.0,0.001089,0.0,0.0,0.0,0.004624,2
1672945887677032603,201408,1672945887703808527,gps,2,1,42.3000836619,-83.6985725255,270.79800415,0.001089,0.0,0.0,0.0,0.001089,0.0,0.0,0.0,0.004624,2
1672945887697015961,201409,1672945887723797088,gps,2,1,42.3000845528,-83.6985727242,270.801483154,0.001089,0.0,0.0,0.0,0.001089,0.0,0.0,0.0,0.004624,2
1672945887716892305,201410,1672945887743744344,gps,2,1,42.3000854439,-83.6985729231,270.804901123,0.001089,0.0,0.0,0.0,0.001089,0.0,0.0,0.0,0.004624,2
1672945887736845991,201411,1672945887763797509,gps,2,1,42.3000863339,-83.6985731298,270.808105469,0.001089,0.0,0.0,0.0,0.001089,0.0,0.0,0.0,0.004624,2
1672945887756782513,201412,1672945887783760988,gps,2,1,42.3000872282,-83.6985733297,270.811462402,0.001089,0.0,0.0,0.0,0.001089,0.0,0.0,0.0,0.004761,2
1672945887777153769,201413,1672945887803792540,gps,2,1,42.3000881225,-83.6985735297,270.814788818,0.001089,0.0,0.0,0.0,0.001089,0.0,0.0,0.0,0.004761,2
1672945887797131911,201414,1672945887823887983,gps,2,1,42.3000890161,-83.6985737364,270.817871094,0.001089,0.0,0.0,0.0,0.001089,0.0,0.0,0.0,0.004761,2
1672945887817123295,201415,1672945887843809356,gps,2,1,42.3000899127,-83.6985739355,270.821075439,0.001089,0.0,0.0,0.0,0.001089,0.0,0.0,0.0,0.004761,2
1672945887837026573,201416,1672945887863736432,gps,2,1,42.3000908098,-83.6985741348,270.824310303,0.001089,0.0,0.0,0.0,0.001089,0.0,0.0,0.0,0.004761,2
1672945887857215272,201417,1672945887883800629,gps,2,1,42.3000917066,-83.6985743387,270.827362061,0.001089,0.0,0.0,0.0,0.001089,0.0,0.0,0.0,0.004761,2
1672945887877315101,201418,1672945887903774826,gps,2,1,42.3000926069,-83.6985745341,270.830535889,0.001089,0.0,0.0,0.0,0.001089,0.0,0.0,0.0,0.004761,2
1672945887897074404,201419,1672945887923759512,gps,2,1,42.3000935073,-83.6985747289,270.833740234,0.001089,0.0,0.0,0.0,0.001089,0.0,0.0,0.0,0.004761,2
1672945887917218501,201420,1672945887943837354,gps,2,1,42.3000944079,-83.6985749274,270.836608887,0.001089,0.0,0.0,0.0,0.001089,0.0,0.0,0.0,0.004761,2
1672945887936717631,201421,1672945887963728417,gps,2,1,42.3000953123,-83.6985751155,270.839385986,0.001089,0.0,0.0,0.0,0.001089,0.0,0.0,0.0,0.004761,2
1672945887957046034,201422,1672945887983814047,gps,2,1,42.3000962161,-83.6985753032,270.842285156,0.001089,0.0,0.0,0.0,0.001089,0.0,0.0,0.0,0.004761,2
1672945887976979630,201423,1672945888003836469,gps,2,1,42.3000971201,-83.6985754924,270.844848633,0.001089,0.0,0.0,0.0,0.001089,0.0,0.0,0.0,0.004761,2
1672945887997057967,201424,1672945888023878865,gps,2,1,42.3000980279,-83.6985756717,270.847473145,0.001089,0.0,0.0,0.0,0.001089,0.0,0.0,0.0,0.004761,2
1672945888017105096,201425,1672945888043866597,gps,2,1,42.300098936,-83.6985758509,270.850128174,0.001089,0.0,0.0,0.0,0.001089,0.0,0.0,0.0,0.004761,2
1672945888037410188,201426,1672945888063891144,gps,2,1,42.3000998425,-83.6985760313,270.85269165,0.001089,0.0,0.0,0.0,0.001089,0.0,0.0,0.0,0.004761,2
1672945888057138812,201427,1672945888083880293,gps,2,1,42.300100753,-83.6985762051,270.855438232,0.001089,0.0,0.0,0.0,0.001089,0.0,0.0,0.0,0.004761,2
1672945888077212279,201428,1672945888103771770,gps,2,1,42.3001016634,-83.6985763786,270.858215332,0.001089,0.0,0.0,0.0,0.001089,0.0,0.0,0.0,0.004761,2
1672945888097117093,201429,1672945888123860019,gps,2,1,42.3001025731,-83.6985765533,270.860900879,0.001089,0.0,0.0,0.0,0.001089,0.0,0.0,0.0,0.004761,2
1672945888117037065,201430,1672945888143776157,gps,2,1,42.3001034851,-83.6985767226,270.863830566,0.001089,0.0,0.0,0.0,0.001089,0.0,0.0,0.0,0.004761,2
1672945888137341352,201431,1672945888163888675,gps,2,1,42.3001043971,-83.6985768925,270.866699219,0.001089,0.0,0.0,0.0,0.001089,0.0,0.0,0.0,0.004761,2
1672945888157155976,201432,1672945888183821616,gps,2,1,42.3001053102,-83.698577066,270.869476318,0.001089,0.0,0.0,0.0,0.001089,0.0,0.0,0.0,0.004761,2
1672945888177104224,201433,1672945888203760911,gps,2,1,42.3001062257,-83.6985772363,270.872344971,0.001089,0.0,0.0,0.0,0.001089,0.0,0.0,0.0,0.004761,2
1672945888196778653,201434,1672945888223809231,gps,2,1,42.3001071434,-83.6985774075,270.875335693,0.001089,0.0,0.0,0.0,0.001089,0.0,0.0,0.0,0.004761,2
1672945888217116098,201435,1672945888243805866,gps,2,1,42.3001080593,-83.6985775826,270.878173828,0.001089,0.0,0.0,0.0,0.001089,0.0,0.0,0.0,0.004761,2
1672945888236926537,201436,1672945888263716383,gps,2,1,42.3001089794,-83.6985777569,270.881286621,0.001089,0.0,0.0,0.0,0.001089,0.0,0.0,0.0,0.004761,2
1672945888256973372,201437,1672945888283784313,gps,2,1,42.3001098992,-83.6985779314,270.884338379,0.001089,0.0,0.0,0.0,0.001089,0.0,0.0,0.0,0.004761,2
1672945888277080669,201438,1672945888303825494,gps,2,1,42.3001108181,-83.6985781101,270.887207031,0.001089,0.0,0.0,0.0,0.001089,0.0,0.0,0.0,0.004761,2
1672945888297228100,201439,1672945888323850327,gps,2,1,42.3001117405,-83.6985782867,270.890045166,0.001089,0.0,0.0,0.0,0.001089,0.0,0.0,0.0,0.004761,2
1672945888317136183,201440,1672945888343864688,gps,2,1,42.3001126635,-83.6985784632,270.892852783,0.001089,0.0,0.0,0.0,0.001089,0.0,0.0,0.0,0.004761,2
1672945888337273501,201441,1672945888363813377,gps,2,1,42.3001135858,-83.6985786415,270.895446777,0.001089,0.0,0.0,0.0,0.001089,0.0,0.0,0.0,0.004761,2
1672945888356936733,201442,1672945888383767333,gps,2,1,42.3001145123,-83.6985788153,270.898040771,0.001089,0.0,0.0,0.0,0.001089,0.0,0.0,0.0,0.004761,2
1672945888377039803,201443,1672945888403774825,gps,2,1,42.3001154387,-83.698578989,270.900604248,0.001089,0.0,0.0,0.0,0.001089,0.0,0.0,0.0,0.004761,2
1672945888396870348,201444,1672945888423837257,gps,2,1,42.3001163653,-83.698579163,270.903045654,0.001089,0.0,0.0,0.0,0.001089,0.0,0.0,0.0,0.004761,2
1672945888416957609,201445,1672945888443769682,gps,2,1,42.3001172949,-83.698579331,270.905578613,0.001089,0.0,0.0,0.0,0.001089,0.0,0.0,0.0,0.004761,2
1672945888437025603,201446,1672945888463749588,gps,2,1,42.3001182248,-83.6985794988,270.908111572,0.001089,0.0,0.0,0.0,0.001089,0.0,0.0,0.0,0.004761,2
1672945888457350336,201447,1672945888483980704,gps,2,1,42.3001191558,-83.6985796663,270.910491943,0.001089,0.0,0.0,0.0,0.001089,0.0,0.0,0.0,0.004761,2
1672945888477066423,201448,1672945888503748683,gps,2,1,42.3001200899,-83.6985798277,270.912902832,0.001089,0.0,0.0,0.0,0.001089,0.0,0.0,0.0,0.004761,2
1672945888497087757,201449,1672945888523817166,gps,2,1,42.3001210267,-83.6985799894,270.915222168,0.001089,0.0,0.0,0.0,0.001089,0.0,0.0,0.0,0.004761,2
1672945888517140621,201450,1672945888543888239,gps,2,1,42.300121962,-83.6985801493,270.917541504,0.001089,0.0,0.0,0.0,0.001089,0.0,0.0,0.0,0.004761,2
1672945888537176232,201451,1672945888563835383,gps,2,1,42.3001229017,-83.698580304,270.92010498,0.001089,0.0,0.0,0.0,0.001089,0.0,0.0,0.0,0.004761,2
1672945888557062820,201452,1672945888583810187,gps,2,1,42.3001238416,-83.6985804587,270.922668457,0.001089,0.0,0.0,0.0,0.001089,0.0,0.0,0.0,0.004761,2
1672945888577195015,201453,1672945888603878127,gps,2,1,42.3001247807,-83.698580613,270.925384521,0.001089,0.0,0.0,0.0,0.001089,0.0,0.0,0.0,0.004761,2
1672945888596810219,201454,1672945888623773396,gps,2,1,42.3001257237,-83.6985807607,270.928192139,0.001089,0.0,0.0,0.0,0.001089,0.0,0.0,0.0,0.004761,2
1672945888617247897,201455,1672945888643731989,gps,2,1,42.3001266665,-83.6985809085,270.930999756,0.001089,0.0,0.0,0.0,0.001089,0.0,0.0,0.0,0.004761,2
1672945888637274436,201456,1672945888663873597,gps,2,1,42.3001276092,-83.6985810584,270.933807373,0.001089,0.0,0.0,0.0,0.001089,0.0,0.0,0.0,0.004761,2
1672945888656981187,201457,1672945888683698317,gps,2,1,42.3001285554,-83.6985812034,270.936553955,0.001089,0.0,0.0,0.0,0.001089,0.0,0.0,0.0,0.004761,2
1672945888676990314,201458,1672945888703783249,gps,2,1,42.3001295018,-83.6985813481,270.939300537,0.001089,0.0,0.0,0.0,0.001089,0.0,0.0,0.0,0.004761,2
1672945888697014195,201459,1672945888723742014,gps,2,1,42.3001304482,-83.6985814959,270.941894531,0.001089,0.0,0.0,0.0,0.001089,0.0,0.0,0.0,0.004761,2
1672945888717073899,201460,1672945888743741434,gps,2,1,42.3001313985,-83.6985816398,270.944396973,0.001089,0.0,0.0,0.0,0.001089,0.0,0.0,0.0,0.004761,2
1672945888737240555,201461,1672945888763738044,gps,2,1,42.3001323486,-83.6985817832,270.946929932,0.001089,0.0,0.0,0.0,0.001089,0.0,0.0,0.0,0.004761,2
1672945888757109868,201462,1672945888783767443,gps,2,1,42.3001332979,-83.6985819292,270.94934082,0.001089,0.0,0.0,0.0,0.001089,0.0,0.0,0.0,0.004761,2
1672945888777139804,201463,1672945888803695311,gps,2,1,42.3001342507,-83.6985820716,270.951873779,0.001089,0.0,0.0,0.0,0.001089,0.0,0.0,0.0,0.004761,2
1672945888796973743,201464,1672945888823690679,gps,2,1,42.3001352038,-83.6985822149,270.954406738,0.001089,0.0,0.0,0.0,0.001089,0.0,0.0,0.0,0.004761,2
1672945888817203723,201465,1672945888843864776,gps,2,1,42.3001361563,-83.6985823596,270.95690918,0.001089,0.0,0.0,0.0,0.001089,0.0,0.0,0.0,0.004761,2
1672945888836978835,201466,1672945888863700933,gps,2,1,42.3001371126,-83.698582502,270.959503174,0.001089,0.0,0.0,0.0,0.001089,0.0,0.0,0.0,0.004761,2
1672945888856991251,201467,1672945888883738724,gps,2,1,42.3001380687,-83.6985826444,270.96206665,0.001089,0.0,0.0,0.0,0.001089,0.0,0.0,0.0,0.004761,2
1672945888876998467,201468,1672945888903710970,gps,2,1,42.300139025,-83.6985827877,270.964477539,0.001089,0.0,0.0,0.0,0.001089,0.0,0.0,0.0,0.004761,2
1672945888896952070,201469,1672945888923680756,gps,2,1,42.3001399843,-83.6985829285,270.96685791,0.001089,0.0,0.0,0.0,0.001089,0.0,0.0,0.0,0.004761,2
1672945888916629151,201470,1672945888943639618,gps,2,1,42.300140944,-83.6985830694,270.969207764,0.001089,0.0,0.0,0.0,0.001089,0.0,0.0,0.0,0.004761,2
1672945888936986216,201471,1672945888963649686,gps,2,1,42.3001419038,-83.6985832112,270.971496582,0.001089,0.0,0.0,0.0,0.001089,0.0,0.0,0.0,0.004761,2
1672945888957069359,201472,1672945888983688369,gps,2,1,42.3001428667,-83.6985833509,270.973724365,0.001089,0.0,0.0,0.0,0.001089,0.0,0.0,0.0,0.004761,2
1672945888976963550,201473,1672945889003733770,gps,2,1,42.3001438297,-83.6985834908,270.975952148,0.001089,0.0,0.0,0.0,0.001089,0.0,0.0,0.0,0.004761,2
1672945888997049997,201474,1672945889023739850,gps,2,1,42.3001447935,-83.6985836315,270.978057861,0.001089,0.0,0.0,0.0,0.001089,0.0,0.0,0.0,0.004761,2
1672945889017314146,201475,1672945889043884940,gps,2,1,42.3001457612,-83.6985837692,270.979949951,0.001089,0.0,0.0,0.0,0.001089,0.0,0.0,0.0,0.004761,2
1672945889037082182,201476,1672945889063689770,gps,2,1,42.3001467285,-83.698583907,270.981872559,0.001089,0.0,0.0,0.0,0.001089,0.0,0.0,0.0,0.004761,2
1672945889057166750,201477,1672945889083808773,gps,2,1,42.3001476955,-83.6985840463,270.983886719,0.001089,0.0,0.0,0.0,0.001089,0.0,0.0,0.0,0.004761,2
1672945889077230649,201478,1672945889103804908,gps,2,1,42.3001486659,-83.6985841825,270.985931396,0.001089,0.0,0.0,0.0,0.001089,0.0,0.0,0.0,0.004761,2
1672945889096949688,201479,1672945889123681435,gps,2,1,42.3001496367,-83.6985843169,270.988037109,0.001089,0.0,0.0,0.0,0.001089,0.0,0.0,0.0,0.004761,2
1672945889117140824,201480,1672945889143775670,gps,2,1,42.3001506072,-83.6985844529,270.990142822,0.001089,0.0,0.0,0.0,0.001089,0.0,0.0,0.0,0.004761,2
1672945889136979685,201481,1672945889163637621,gps,2,1,42.3001515818,-83.698584583,270.992279053,0.001089,0.0,0.0,0.0,0.001089,0.0,0.0,0.0,0.004761,2
1672945889157159747,201482,1672945889183809105,gps,2,1,42.3001525572,-83.6985847133,270.994384766,0.001089,0.0,0.0,0.0,0.001089,0.0,0.0,0.0,0.004761,2
1672945889177122633,201483,1672945889203803171,gps,2,1,42.300153531,-83.6985848436,270.996582031,0.001089,0.0,0.0,0.0,0.001089,0.0,0.0,0.0,0.004761,2
1672945889197035437,201484,1672945889223751038,gps,2,1,42.3001545085,-83.69858497,270.998718262,0.001089,0.0,0.0,0.0,0.001089,0.0,0.0,0.0,0.004761,2
1672945889217192272,201485,1672945889243670274,gps,2,1,42.3001554855,-83.6985850956,271.00088501,0.001089,0.0,0.0,0.0,0.001089,0.0,0.0,0.0,0.004761,2
1672945889237148362,201486,1672945889263791858,gps,2,1,42.3001564638,-83.6985852219,271.003112793,0.001089,0.0,0.0,0.0,0.001089,0.0,0.0,0.0,0.004761,2
1672945889256976978,201487,1672945889283750693,gps,2,1,42.3001574455,-83.6985853464,271.005340576,0.001089,0.0,0.0,0.0,0.001089,0.0,0.0,0.0,0.004761,2
1672945889276958517,201488,1672945889303742238,gps,2,1,42.3001584275,-83.6985854681,271.007629395,0.001089,0.0,0.0,0.0,0.001089,0.0,0.0,0.0,0.004761,2
1672945889297346367,201489,1672945889323856063,gps,2,1,42.3001594099,-83.6985855934,271.009979248,0.001089,0.0,0.0,0.0,0.001089,0.0,0.0,0.0,0.004761,2
1672945889317282996,201490,1672945889343828769,gps,2,1,42.3001603961,-83.6985857142,271.012390137,0.001089,0.0,0.0,0.0,0.001089,0.0,0.0,0.0,0.004761,2
1672945889336985829,201491,1672945889363671596,gps,2,1,42.3001613824,-83.6985858353,271.014862061,0.001089,0.0,0.0,0.0,0.001089,0.0,0.0,0.0,0.004761,2
1672945889357094641,201492,1672945889383785663,gps,2,1,42.3001623676,-83.6985859581,271.017242432,0.001089,0.0,0.0,0.0,0.001089,0.0,0.0,0.0,0.004761,2
1672945889377103800,201493,1672945889403788722,gps,2,1,42.3001633569,-83.6985860766,271.019561768,0.001089,0.0,0.0,0.0,0.001089,0.0,0.0,0.0,0.004761,2
1672945889397068108,201494,1672945889423781759,gps,2,1,42.3001643448,-83.6985861963,271.021881104,0.001089,0.0,0.0,0.0,0.001089,0.0,0.0,0.0,0.004761,2
1672945889417279824,201495,1672945889443814631,gps,2,1,42.3001653334,-83.6985863162,271.024078369,0.001089,0.0,0.0,0.0,0.001089,0.0,0.0,0.0,0.004761,2
1672945889437017221,201496,1672945889463714313,gps,2,1,42.3001663244,-83.698586433,271.0262146,0.001089,0.0,0.0,0.0,0.001089,0.0,0.0,0.0,0.004761,2
1672945889457146363,201497,1672945889483759586,gps,2,1,42.3001673156,-83.6985865502,271.028289795,0.001089,0.0,0.0,0.0,0.001089,0.0,0.0,0.0,0.004761,2
1672945889477117962,201498,1672945889503701288,gps,2,1,42.3001683074,-83.6985866668,271.03024292,0.001089,0.0,0.0,0.0,0.001089,0.0,0.0,0.0,0.004761,2
1672945889497093177,201499,1672945889523822067,gps,2,1,42.300169301,-83.6985867801,271.031982422,0.001089,0.0,0.0,0.0,0.001089,0.0,0.0,0.0,0.004761,2
1672945889517091652,201500,1672945889543768864,gps,2,1,42.3001702943,-83.6985868935,271.033599854,0.001089,0.0,0.0,0.0,0.001089,0.0,0.0,0.0,0.004761,2
1672945889537304700,201501,1672945889563900040,gps,2,1,42.3001712892,-83.698587007,271.035400391,0.001089,0.0,0.0,0.0,0.001089,0.0,0.0,0.0,0.004761,2
1672945889557039398,201502,1672945889583773449,gps,2,1,42.3001722857,-83.6985871174,271.036987305,0.001089,0.0,0.0,0.0,0.001089,0.0,0.0,0.0,0.004761,2
1672945889577117920,201503,1672945889603745681,gps,2,1,42.3001732835,-83.6985872275,271.038604736,0.001089,0.0,0.0,0.0,0.001089,0.0,0.0,0.0,0.004761,2
1672945889597166151,201504,1672945889623843677,gps,2,1,42.3001742809,-83.6985873389,271.040527344,0.001089,0.0,0.0,0.0,0.001089,0.0,0.0,0.0,0.004761,2
1672945889616980120,201505,1672945889643727398,gps,2,1,42.3001752812,-83.6985874475,271.042480469,0.001089,0.0,0.0,0.0,0.001089,0.0,0.0,0.0,0.004761,2
1672945889637135880,201506,1672945889663716072,gps,2,1,42.3001762814,-83.6985875567,271.044372559,0.001089,0.0,0.0,0.0,0.001089,0.0,0.0,0.0,0.004761,2
1672945889656796502,201507,1672945889683781489,gps,2,1,42.3001772816,-83.6985876673,271.046478271,0.001089,0.0,0.0,0.0,0.001089,0.0,0.0,0.0,0.004761,2
1672945889676926693,201508,1672945889703713297,gps,2,1,42.3001782845,-83.6985877762,271.048309326,0.001089,0.0,0.0,0.0,0.001089,0.0,0.0,0.0,0.004761,2
1672945889697081632,201509,1672945889723776665,gps,2,1,42.3001792861,-83.6985878853,271.050323486,0.001089,0.0,0.0,0.0,0.001089,0.0,0.0,0.0,0.004761,2
1672945889717204095,201510,1672945889743773873,gps,2,1,42.3001802876,-83.6985879954,271.052276611,0.001089,0.0,0.0,0.0,0.001089,0.0,0.0,0.0,0.004761,2
1672945889737070087,201511,1672945889763721073,gps,2,1,42.3001812914,-83.6985881043,271.054260254,0.001089,0.0,0.0,0.0,0.001089,0.0,0.0,0.0,0.004761,2
1672945889757256739,201512,1672945889783828710,gps,2,1,42.3001822942,-83.6985882131,271.056213379,0.000841,0.0,0.0,0.0,0.0009,0.0,0.0,0.0,0.004489,2
1672945889777211417,201513,1672945889803714551,gps,2,1,42.3001832966,-83.6985883223,271.058044434,0.000841,0.0,0.0,0.0,0.0009,0.0,0.0,0.0,0.004489,2
1672945889797103299,201514,1672945889823846298,gps,2,1,42.3001843011,-83.698588429,271.059783936,0.000841,0.0,0.0,0.0,0.0009,0.0,0.0,0.0,0.004489,2
1672945889816978714,201515,1672945889843780484,gps,2,1,42.3001853057,-83.6985885366,271.061553955,0.000841,0.0,0.0,0.0,0.0009,0.0,0.0,0.0,0.004489,2
1672945889837235184,201516,1672945889863770490,gps,2,1,42.3001863081,-83.6985886417,271.063354492,0.000841,0.0,0.0,0.0,0.0009,0.0,0.0,0.0,0.004489,2
1672945889857051421,201517,1672945889883704392,gps,2,1,42.3001873131,-83.6985887436,271.065124512,0.000841,0.0,0.0,0.0,0.0009,0.0,0.0,0.0,0.004489,2
1672945889877055351,201518,1672945889903702108,gps,2,1,42.300188318,-83.6985888452,271.066955566,0.000841,0.0,0.0,0.0,0.0009,0.0,0.0,0.0,0.004489,2
1672945889897108490,201519,1672945889923755775,gps,2,1,42.3001893209,-83.6985889452,271.068908691,0.000841,0.0,0.0,0.0,0.0009,0.0,0.0,0.0,0.004489,2
1672945889917262622,201520,1672945889943722796,gps,2,1,42.3001903258,-83.6985890419,271.070861816,0.000841,0.0,0.0,0.0,0.0009,0.0,0.0,0.0,0.004489,2
1672945889936999989,201521,1672945889963713497,gps,2,1,42.3001913312,-83.6985891383,271.072814941,0.000841,0.0,0.0,0.0,0.0009,0.0,0.0,0.0,0.004489,2
1672945889956768353,201522,1672945889983762083,gps,2,1,42.3001923344,-83.6985892343,271.074829102,0.000841,0.0,0.0,0.0,0.0009,0.0,0.0,0.0,0.004489,2
1672945889977037631,201523,1672945890003701920,gps,2,1,42.3001933402,-83.6985893278,271.076782227,0.000841,0.0,0.0,0.0,0.0009,0.0,0.0,0.0,0.004489,2
1672945889997056792,201524,1672945890023757121,gps,2,1,42.3001943446,-83.6985894212,271.078765869,0.000841,0.0,0.0,0.0,0.0009,0.0,0.0,0.0,0.004489,2
1672945890017215761,201525,1672945890043899339,gps,2,1,42.3001953484,-83.6985895148,271.080780029,0.000841,0.0,0.0,0.0,0.0009,0.0,0.0,0.0,0.004489,2
1672945890037141488,201526,1672945890063707110,gps,2,1,42.3001963525,-83.6985896069,271.082794189,0.000841,0.0,0.0,0.0,0.0009,0.0,0.0,0.0,0.004489,2
1672945890057129663,201527,1672945890083755129,gps,2,1,42.3001973568,-83.6985896987,271.08480835,0.000841,0.0,0.0,0.0,0.0009,0.0,0.0,0.0,0.004489,2
1672945890077200574,201528,1672945890103702936,gps,2,1,42.3001983596,-83.6985897905,271.086883545,0.000841,0.0,0.0,0.0,0.0009,0.0,0.0,0.0,0.004489,2
1672945890097067923,201529,1672945890123688718,gps,2,1,42.3001993629,-83.6985898816,271.088897705,0.000841,0.0,0.0,0.0,0.0009,0.0,0.0,0.0,0.004489,2
1672945890116979501,201530,1672945890143697319,gps,2,1,42.3002003665,-83.6985899726,271.090942383,0.000841,0.0,0.0,0.0,0.0009,0.0,0.0,0.0,0.004489,2
1672945890137414706,201531,1672945890163814873,gps,2,1,42.3002013684,-83.6985900633,271.092895508,0.000841,0.0,0.0,0.0,0.0009,0.0,0.0,0.0,0.004489,2
1672945890157012186,201532,1672945890183649727,gps,2,1,42.3002023706,-83.6985901524,271.094818115,0.000841,0.0,0.0,0.0,0.0009,0.0,0.0,0.0,0.004489,2
1672945890177112445,201533,1672945890203724386,gps,2,1,42.3002033731,-83.6985902421,271.096740723,0.000841,0.0,0.0,0.0,0.0009,0.0,0.0,0.0,0.004489,2
1672945890197358603,201534,1672945890223757678,gps,2,1,42.3002043737,-83.6985903308,271.098632812,0.000841,0.0,0.0,0.0,0.0009,0.0,0.0,0.0,0.004489,2
1672945890217204580,201535,1672945890243667393,gps,2,1,42.3002053746,-83.6985904177,271.100494385,0.000841,0.0,0.0,0.0,0.0009,0.0,0.0,0.0,0.004489,2
1672945890237073441,201536,1672945890263692307,gps,2,1,42.3002063753,-83.6985905042,271.102416992,0.000841,0.0,0.0,0.0,0.0009,0.0,0.0,0.0,0.004489,2
1672945890256996363,201537,1672945890283763901,gps,2,1,42.3002073749,-83.6985905904,271.104400635,0.000841,0.0,0.0,0.0,0.0009,0.0,0.0,0.0,0.004489,2
