%time,field.header.seq,field.header.stamp,field.header.frame_id,field.status.status,field.status.service,field.latitude,field.longitude,field.altitude,field.position_covariance0,field.position_covariance1,field.position_covariance2,field.position_covariance3,field.position_covariance4,field.position_covariance5,field.position_covariance6,field.position_covariance7,field.position_covariance8,field.position_covariance_type
1672943955421184012,104794,1672943955433400235,gps,2,1,42.3009588614,-83.697751979,272.812042236,0.001225,0.0,0.0,0.0,0.001225,0.0,0.0,0.0,0.005476,2
1672943955441573175,104795,1672943955453326749,gps,2,1,42.3009588616,-83.6977519807,272.811981201,0.001225,0.0,0.0,0.0,0.001225,0.0,0.0,0.0,0.005476,2
1672943955461699227,104796,1672943955473363255,gps,2,1,42.3009588627,-83.6977519808,272.812011719,0.001225,0.0,0.0,0.0,0.001225,0.0,0.0,0.0,0.005476,2
1672943955481436560,104797,1672943955493315551,gps,2,1,42.300958863,-83.6977519824,272.811981201,0.001225,0.0,0.0,0.0,0.001225,0.0,0.0,0.0,0.005476,2
1672943955501417733,104798,1672943955513347823,gps,2,1,42.3009588632,-83.6977519839,272.811950684,0.001225,0.0,0.0,0.0,0.001225,0.0,0.0,0.0,0.005476,2
1672943955521487764,104799,1672943955533411628,gps,2,1,42.3009588644,-83.6977519841,272.811950684,0.001225,0.0,0.0,0.0,0.001225,0.0,0.0,0.0,0.005476,2
1672943955541653883,104800,1672943955553361677,gps,2,1,42.300958864,-83.6977519862,272.811950684,0.001225,0.0,0.0,0.0,0.001225,0.0,0.0,0.0,0.005476,2
1672943955561440431,104801,1672943955573376416,gps,2,1,42.3009588635,-83.6977519893,272.811950684,0.001225,0.0,0.0,0.0,0.001225,0.0,0.0,0.0,0.005476,2
1672943955581184801,104802,1672943955593416119,gps,2,1,42.3009588646,-83.6977519895,272.811950684,0.001225,0.0,0.0,0.0,0.001225,0.0,0.0,0.0,0.005476,2
1672943955601716811,104803,1672943955613426349,gps,2,1,42.300958864,-83.6977519925,272.811950684,0.001225,0.0,0.0,0.0,0.001225,0.0,0.0,0.0,0.005476,2
1672943955621368969,104804,1672943955633402392,gps,2,1,42.3009588638,-83.6977519947,272.811889648,0.001225,0.0,0.0,0.0,0.001225,0.0,0.0,0.0,0.005476,2
1672943955641263077,104805,1672943955653382937,gps,2,1,42.3009588648,-83.6977519949,272.811920166,0.001225,0.0,0.0,0.0,0.001225,0.0,0.0,0.0,0.005476,2
1672943955661178847,104806,1672943955673357725,gps,2,1,42.3009588644,-83.6977519972,272.811889648,0.001225,0.0,0.0,0.0,0.001225,0.0,0.0,0.0,0.005476,2
1672943955681090876,104807,1672943955693377474,gps,2,1,42.3009588641,-83.6977519993,272.811859131,0.001225,0.0,0.0,0.0,0.001225,0.0,0.0,0.0,0.005476,2
1672943955701177030,104808,1672943955713384666,gps,2,1,42.300958865,-83.6977519997,272.811889648,0.001225,0.0,0.0,0.0,0.001225,0.0,0.0,0.0,0.005476,2
1672943955721759186,104809,1672943955733352421,gps,2,1,42.3009588639,-83.6977520023,272.811828613,0.001225,0.0,0.0,0.0,0.001225,0.0,0.0,0.0,0.005476,2
1672943955741109356,104810,1672943955753299998,gps,2,1,42.3009588629,-83.6977520049,272.811798096,0.001225,0.0,0.0,0.0,0.001225,0.0,0.0,0.0,0.005476,2
1672943955761255151,104811,1672943955773347358,gps,2,1,42.3009588638,-83.6977520055,272.811798096,0.001225,0.0,0.0,0.0,0.001225,0.0,0.0,0.0,0.005476,2
1672943955781162685,104812,1672943955793398653,gps,2,1,42.300958863,-83.6977520081,272.811767578,0.001225,0.0,0.0,0.0,0.001225,0.0,0.0,0.0,0.005476,2
1672943955801036771,104813,1672943955813347782,gps,2,1,42.3009588622,-83.6977520106,272.811737061,0.001225,0.0,0.0,0.0,0.001225,0.0,0.0,0.0,0.005476,2
1672943955821484985,104814,1672943955833370477,gps,2,1,42.3009588633,-83.6977520112,272.811737061,0.001225,0.0,0.0,0.0,0.001225,0.0,0.0,0.0,0.005476,2
1672943955841416207,104815,1672943955853337657,gps,2,1,42.3009588623,-83.6977520148,272.811737061,0.001225,0.0,0.0,0.0,0.001225,0.0,0.0,0.0,0.005476,2
1672943955860862581,104816,1672943955873323038,gps,2,1,42.3009588615,-83.6977520182,272.811706543,0.001225,0.0,0.0,0.0,0.001225,0.0,0.0,0.0,0.005476,2
1672943955881315435,104817,1672943955893392061,gps,2,1,42.3009588627,-83.6977520188,272.811737061,0.001225,0.0,0.0,0.0,0.001225,0.0,0.0,0.0,0.005476,2
1672943955901251411,104818,1672943955913305989,gps,2,1,42.300958862,-83.6977520221,272.811706543,0.001225,0.0,0.0,0.0,0.001225,0.0,0.0,0.0,0.005476,2
1672943955921159302,104819,1672943955933302343,gps,2,1,42.3009588622,-83.6977520244,272.811706543,0.001225,0.0,0.0,0.0,0.001225,0.0,0.0,0.0,0.005476,2
1672943955941170405,104820,1672943955953367875,gps,2,1,42.3009588634,-83.697752025,272.811706543,0.001225,0.0,0.0,0.0,0.001225,0.0,0.0,0.0,0.005476,2
1672943955961500540,104821,1672943955973358858,gps,2,1,42.3009588636,-83.6977520273,272.811706543,0.001225,0.0,0.0,0.0,0.001225,0.0,0.0,0.0,0.005476,2
1672943955981277623,104822,1672943955993336502,gps,2,1,42.3009588639,-83.6977520296,272.811706543,0.001225,0.0,0.0,0.0,0.001225,0.0,0.0,0.0,0.005476,2
1672943956001032636,104823,1672943956013384724,gps,2,1,42.3009588649,-83.6977520304,272.811706543,0.001225,0.0,0.0,0.0,0.001225,0.0,0.0,0.0,0.005476,2
1672943956021647414,104824,1672943956033400414,gps,2,1,42.3009588651,-83.697752033,272.811676025,0.001225,0.0,0.0,0.0,0.001225,0.0,0.0,0.0,0.005476,2
1672943956041323738,104825,1672943956053408303,gps,2,1,42.3009588654,-83.6977520355,272.811645508,0.001225,0.0,0.0,0.0,0.001225,0.0,0.0,0.0,0.005476,2
1672943956061243541,104826,1672943956073509387,gps,2,1,42.3009588664,-83.6977520364,272.811645508,0.001225,0.0,0.0,0.0,0.001225,0.0,0.0,0.0,0.005476,2
1672943956081364513,104827,1672943956093417759,gps,2,1,42.3009588669,-83.6977520391,272.811553955,0.001225,0.0,0.0,0.0,0.001225,0.0,0.0,0.0,0.005476,2
1672943956101078464,104828,1672943956113509436,gps,2,1,42.3009588673,-83.6977520419,272.811431885,0.001225,0.0,0.0,0.0,0.001225,0.0,0.0,0.0,0.005476,2
1672943956121382852,104829,1672943956133369406,gps,2,1,42.3009588683,-83.697752043,272.811462402,0.001225,0.0,0.0,0.0,0.001225,0.0,0.0,0.0,0.005476,2
1672943956141482529,104830,1672943956153360661,gps,2,1,42.3009588687,-83.6977520456,272.81137085,0.001225,0.0,0.0,0.0,0.001225,0.0,0.0,0.0,0.005476,2
1672943956161013348,104831,1672943956173297534,gps,2,1,42.300958869,-83.6977520484,272.811248779,0.001225,0.0,0.0,0.0,0.001225,0.0,0.0,0.0,0.005476,2
1672943956181355269,104832,1672943956193393951,gps,2,1,42.3009588697,-83.697752052,272.811218262,0.001225,0.0,0.0,0.0,0.001225,0.0,0.0,0.0,0.005476,2
1672943956201359470,104833,1672943956213319595,gps,2,1,42.3009588698,-83.697752059,272.811096191,0.001225,0.0,0.0,0.0,0.001225,0.0,0.0,0.0,0.005476,2
1672943956221174473,104834,1672943956233315860,gps,2,1,42.300958869,-83.6977520673,272.810943604,0.001225,0.0,0.0,0.0,0.001225,0.0,0.0,0.0,0.005476,2
1672943956241043554,104835,1672943956253395581,gps,2,1,42.3009588694,-83.6977520766,272.810852051,0.001225,0.0,0.0,0.0,0.001225,0.0,0.0,0.0,0.005476,2
1672943956261319997,104836,1672943956273324135,gps,2,1,42.3009588682,-83.6977520913,272.810699463,0.001225,0.0,0.0,0.0,0.001225,0.0,0.0,0.0,0.005476,2
1672943956281389387,104837,1672943956293427541,gps,2,1,42.300958867,-83.6977521063,272.810516357,0.001225,0.0,0.0,0.0,0.001225,0.0,0.0,0.0,0.005476,2
1672943956301409161,104838,1672943956313397811,gps,2,1,42.3009588668,-83.6977521229,272.810424805,0.001225,0.0,0.0,0.0,0.001225,0.0,0.0,0.0,0.005476,2
1672943956321301343,104839,1672943956333345378,gps,2,1,42.3009588645,-83.6977521453,272.810272217,0.001225,0.0,0.0,0.0,0.001225,0.0,0.0,0.0,0.005476,2
1672943956341251028,104840,1672943956353295082,gps,2,1,42.3009588623,-83.6977521681,272.810119629,0.001225,0.0,0.0,0.0,0.001225,0.0,0.0,0.0,0.005476,2
1672943956361192342,104841,1672943956373411942,gps,2,1,42.3009588613,-83.697752193,272.809997559,0.001225,0.0,0.0,0.0,0.001225,0.0,0.0,0.0,0.005476,2
1672943956381524502,104842,1672943956393472109,gps,2,1,42.3009588585,-83.697752224,272.809814453,0.001225,0.0,0.0,0.0,0.001225,0.0,0.0,0.0,0.005476,2
1672943956401326997,104843,1672943956413393911,gps,2,1,42.3009588559,-83.6977522547,272.809631348,0.001225,0.0,0.0,0.0,0.001225,0.0,0.0,0.0,0.005476,2
1672943956421356012,104844,1672943956433358701,gps,2,1,42.3009588542,-83.6977522885,272.80947876,0.001225,0.0,0.0,0.0,0.001225,0.0,0.0,0.0,0.005476,2
1672943956441328380,104845,1672943956453325656,gps,2,1,42.300958851,-83.6977523281,272.809295654,0.001225,0.0,0.0,0.0,0.001225,0.0,0.0,0.0,0.005476,2
1672943956461455547,104846,1672943956473353692,gps,2,1,42.3009588478,-83.697752368,272.809112549,0.001225,0.0,0.0,0.0,0.001225,0.0,0.0,0.0,0.005476,2
1672943956481306407,104847,1672943956493437404,gps,2,1,42.3009588456,-83.6977524114,272.808959961,0.001225,0.0,0.0,0.0,0.001225,0.0,0.0,0.0,0.005476,2
1672943956501131499,104848,1672943956513354605,gps,2,1,42.3009588417,-83.6977524611,272.808776855,0.001225,0.0,0.0,0.0,0.001225,0.0,0.0,0.0,0.005476,2
1672943956521069924,104849,1672943956533343923,gps,2,1,42.3009588379,-83.6977525116,272.808563232,0.001225,0.0,0.0,0.0,0.001225,0.0,0.0,0.0,0.005476,2
1672943956541446627,104850,1672943956553461655,gps,2,1,42.3009588348,-83.6977525662,272.808349609,0.001225,0.0,0.0,0.0,0.001225,0.0,0.0,0.0,0.005476,2
1672943956561258701,104851,1672943956573336525,gps,2,1,42.30095883,-83.6977526285,272.808074951,0.001225,0.0,0.0,0.0,0.001225,0.0,0.0,0.0,0.005476,2
1672943956581422081,104852,1672943956593450457,gps,2,1,42.3009588252,-83.6977526914,272.807739258,0.001225,0.0,0.0,0.0,0.001225,0.0,0.0,0.0,0.005476,2
1672943956601418323,104853,1672943956613456915,gps,2,1,42.300958821,-83.6977527589,272.807495117,0.001225,0.0,0.0,0.0,0.001225,0.0,0.0,0.0,0.005476,2
1672943956621391928,104854,1672943956633313299,gps,2,1,42.3009588148,-83.6977528338,272.807128906,0.001225,0.0,0.0,0.0,0.001225,0.0,0.0,0.0,0.005476,2
1672943956641174611,104855,1672943956653340727,gps,2,1,42.3009588086,-83.697752909,272.806762695,0.001225,0.0,0.0,0.0,0.001225,0.0,0.0,0.0,0.005476,2
1672943956661166191,104856,1672943956673331017,gps,2,1,42.3009588031,-83.6977529906,272.80645752,0.001225,0.0,0.0,0.0,0.001225,0.0,0.0,0.0,0.005476,2
1672943956681435254,104857,1672943956693450581,gps,2,1,42.3009587956,-83.6977530803,272.806030273,0.001225,0.0,0.0,0.0,0.001225,0.0,0.0,0.0,0.005476,2
1672943956701426918,104858,1672943956713395566,gps,2,1,42.3009587882,-83.6977531706,272.805633545,0.001225,0.0,0.0,0.0,0.001225,0.0,0.0,0.0,0.005476,2
1672943956721121908,104859,1672943956733337736,gps,2,1,42.3009587813,-83.697753268,272.805267334,0.001225,0.0,0.0,0.0,0.001225,0.0,0.0,0.0,0.005476,2
1672943956741402726,104860,1672943956753341604,gps,2,1,42.3009587727,-83.697753376,272.804840088,0.001225,0.0,0.0,0.0,0.001225,0.0,0.0,0.0,0.005476,2
1672943956761234861,104861,1672943956773370735,gps,2,1,42.3009587641,-83.6977534846,272.804382324,0.001225,0.0,0.0,0.0,0.001225,0.0,0.0,0.0,0.005476,2
1672943956781420600,104862,1672943956793470643,gps,2,1,42.3009587556,-83.6977536009,272.803955078,0.001225,0.0,0.0,0.0,0.001225,0.0,0.0,0.0,0.005476,2
1672943956801095828,104863,1672943956813336149,gps,2,1,42.3009587454,-83.6977537287,272.803436279,0.001225,0.0,0.0,0.0,0.001225,0.0,0.0,0.0,0.005476,2
1672943956821499788,104864,1672943956833401016,gps,2,1,42.300958735,-83.6977538575,272.802947998,0.001225,0.0,0.0,0.0,0.001225,0.0,0.0,0.0,0.005476,2
1672943956841322720,104865,1672943956853402173,gps,2,1,42.3009587248,-83.6977539946,272.802459717,0.001225,0.0,0.0,0.0,0.001225,0.0,0.0,0.0,0.005476,2
1672943956861296240,104866,1672943956873355333,gps,2,1,42.3009587127,-83.6977541439,272.8019104,0.001225,0.0,0.0,0.0,0.001225,0.0,0.0,0.0,0.005476,2
1672943956881271292,104867,1672943956893371815,gps,2,1,42.3009587007,-83.6977542949,272.801330566,0.001225,0.0,0.0,0.0,0.001225,0.0,0.0,0.0,0.005476,2
1672943956901324526,104868,1672943956913342846,gps,2,1,42.3009586887,-83.6977544544,272.80078125,0.001225,0.0,0.0,0.0,0.001225,0.0,0.0,0.0,0.005476,2
1672943956921307723,104869,1672943956933329872,gps,2,1,42.3009586747,-83.6977546278,272.800170898,0.001225,0.0,0.0,0.0,0.001225,0.0,0.0,0.0,0.005476,2
1672943956941084876,104870,1672943956953285988,gps,2,1,42.3009586607,-83.6977548023,272.799530029,0.001225,0.0,0.0,0.0,0.001225,0.0,0.0,0.0,0.005476,2
1672943956961022468,104871,1672943956973303622,gps,2,1,42.300958647,-83.6977549869,272.798950195,0.001225,0.0,0.0,0.0,0.001225,0.0,0.0,0.0,0.005476,2
1672943956981388108,104872,1672943956993307390,gps,2,1,42.3009586312,-83.6977551862,272.798278809,0.001225,0.0,0.0,0.0,0.001225,0.0,0.0,0.0,0.005476,2
1672943957001301450,104873,1672943957013321422,gps,2,1,42.3009586154,-83.6977553864,272.797637939,0.001225,0.0,0.0,0.0,0.001225,0.0,0.0,0.0,0.005476,2
1672943957021374348,104874,1672943957033457220,gps,2,1,42.3009585999,-83.6977555978,272.79699707,0.001225,0.0,0.0,0.0,0.001225,0.0,0.0,0.0,0.005476,2
1672943957041338714,104875,1672943957053419043,gps,2,1,42.3009585813,-83.6977558244,272.796325684,0.001225,0.0,0.0,0.0,0.001225,0.0,0.0,0.0,0.005476,2
1672943957061203656,104876,1672943957073334498,gps,2,1,42.3009585627,-83.6977560517,272.795654297,0.001225,0.0,0.0,0.0,0.001225,0.0,0.0,0.0,0.005476,2
1672943957081509521,104877,1672943957093476097,gps,2,1,42.3009585453,-83.6977562907,272.794952393,0.001225,0.0,0.0,0.0,0.001225,0.0,0.0,0.0,0.005476,2
1672943957101514315,104878,1672943957113349090,gps,2,1,42.3009585251,-83.6977565453,272.794189453,0.001225,0.0,0.0,0.0,0.001225,0.0,0.0,0.0,0.005476,2
1672943957121356196,104879,1672943957133367126,gps,2,1,42.3009585056,-83.6977568002,272.793395996,0.001225,0.0,0.0,0.0,0.001225,0.0,0.0,0.0,0.005476,2
1672943957141331989,104880,1672943957153449073,gps,2,1,42.3009584868,-83.6977570671,272.792633057,0.001225,0.0,0.0,0.0,0.001225,0.0,0.0,0.0,0.005476,2
1672943957161426065,104881,1672943957173425582,gps,2,1,42.3009584661,-83.6977573487,272.791809082,0.001225,0.0,0.0,0.0,0.001225,0.0,0.0,0.0,0.005476,2
1672943957181451726,104882,1672943957193329445,gps,2,1,42.3009584455,-83.6977576319,272.79095459,0.001225,0.0,0.0,0.0,0.001225,0.0,0.0,0.0,0.005476,2
1672943957201212926,104883,1672943957213442208,gps,2,1,42.3009584254,-83.6977579267,272.790161133,0.001225,0.0,0.0,0.0,0.001225,0.0,0.0,0.0,0.005476,2
1672943957221408832,104884,1672943957233416053,gps,2,1,42.3009584035,-83.6977582366,272.789337158,0.001225,0.0,0.0,0.0,0.001225,0.0,0.0,0.0,0.005476,2
1672943957241160109,104885,1672943957253334433,gps,2,1,42.3009583814,-83.6977585484,272.788482666,0.001225,0.0,0.0,0.0,0.001225,0.0,0.0,0.0,0.005476,2
1672943957261487714,104886,1672943957273380207,gps,2,1,42.3009583603,-83.6977588709,272.787658691,0.001225,0.0,0.0,0.0,0.001225,0.0,0.0,0.0,0.005476,2
1672943957281503392,104887,1672943957293477165,gps,2,1,42.3009583373,-83.6977592088,272.786743164,0.001225,0.0,0.0,0.0,0.001225,0.0,0.0,0.0,0.005476,2
1672943957301504283,104888,1672943957313313710,gps,2,1,42.300958314,-83.6977595472,272.785858154,0.001225,0.0,0.0,0.0,0.001225,0.0,0.0,0.0,0.005476,2
1672943957321203001,104889,1672943957333366808,gps,2,1,42.3009582922,-83.6977598979,272.784973145,0.001225,0.0,0.0,0.0,0.001225,0.0,0.0,0.0,0.005476,2
1672943957341287007,104890,1672943957353423873,gps,2,1,42.3009582683,-83.6977602636,272.7840271,0.001225,0.0,0.0,0.0,0.001225,0.0,0.0,0.0,0.005476,2
1672943957361286784,104891,1672943957373358804,gps,2,1,42.3009582447,-83.6977606304,272.783111572,0.001225,0.0,0.0,0.0,0.001225,0.0,0.0,0.0,0.005476,2
1672943957381079708,104892,1672943957393400651,gps,2,1,42.3009582219,-83.6977610101,272.78213501,0.001225,0.0,0.0,0.0,0.001225,0.0,0.0,0.0,0.005476,2
1672943957401391005,104893,1672943957413406537,gps,2,1,42.3009581971,-83.6977614041,272.781097412,0.001225,0.0,0.0,0.0,0.001225,0.0,0.0,0.0,0.005476,2
1672943957421399603,104894,1672943957433349767,gps,2,1,42.3009581721,-83.6977617997,272.780029297,0.001225,0.0,0.0,0.0,0.001225,0.0,0.0,0.0,0.005476,2
1672943957441547853,104895,1672943957453398138,gps,2,1,42.3009581481,-83.697762208,272.778930664,0.001225,0.0,0.0,0.0,0.001225,0.0,0.0,0.0,0.005476,2
1672943957461531414,104896,1672943957473411995,gps,2,1,42.3009581227,-83.6977626296,272.777740479,0.001225,0.0,0.0,0.0,0.001225,0.0,0.0,0.0,0.005476,2
1672943957481255406,104897,1672943957493339342,gps,2,1,42.3009580972,-83.6977630543,272.776519775,0.001225,0.0,0.0,0.0,0.001225,0.0,0.0,0.0,0.005476,2
1672943957501272773,104898,1672943957513432785,gps,2,1,42.3009580729,-83.6977634905,272.77532959,0.001225,0.0,0.0,0.0,0.001225,0.0,0.0,0.0,0.005476,2
1672943957521528275,104899,1672943957533537402,gps,2,1,42.3009580481,-83.6977639416,272.774017334,0.001225,0.0,0.0,0.0,0.001225,0.0,0.0,0.0,0.005476,2
1672943957541358069,104900,1672943957553445317,gps,2,1,42.300958023,-83.6977643937,272.772613525,0.001225,0.0,0.0,0.0,0.001225,0.0,0.0,0.0,0.005476,2
1672943957561439400,104901,1672943957573516353,gps,2,1,42.3009580003,-83.6977648593,272.771240234,0.001225,0.0,0.0,0.0,0.001225,0.0,0.0,0.0,0.005476,2
1672943957581409736,104902,1672943957593420956,gps,2,1,42.3009579769,-83.6977653387,272.769744873,0.001225,0.0,0.0,0.0,0.001225,0.0,0.0,0.0,0.005476,2
1672943957601419687,104903,1672943957613570743,gps,2,1,42.3009579543,-83.6977658214,272.768066406,0.001225,0.0,0.0,0.0,0.001225,0.0,0.0,0.0,0.005476,2
1672943957621302565,104904,1672943957633410749,gps,2,1,42.3009579328,-83.6977663154,272.76663208,0.001225,0.0,0.0,0.0,0.001225,0.0,0.0,0.0,0.005476,2
1672943957641173545,104905,1672943957653355742,gps,2,1,42.30095791,-83.6977668228,272.765075684,0.001225,0.0,0.0,0.0,0.001225,0.0,0.0,0.0,0.005476,2
1672943957661093686,104906,1672943957673311884,gps,2,1,42.3009578874,-83.697767332,272.763519287,0.001225,0.0,0.0,0.0,0.001225,0.0,0.0,0.0,0.005476,2
1672943957681479280,104907,1672943957693530134,gps,2,1,42.3009578653,-83.6977678518,272.762207031,0.001225,0.0,0.0,0.0,0.001225,0.0,0.0,0.0,0.005476,2
1672943957701450021,104908,1672943957713361279,gps,2,1,42.3009578413,-83.697768384,272.761077881,0.001225,0.0,0.0,0.0,0.001225,0.0,0.0,0.0,0.005476,2
1672943957721481844,104909,1672943957733303889,gps,2,1,42.3009578175,-83.6977689163,272.759918213,0.001225,0.0,0.0,0.0,0.001225,0.0,0.0,0.0,0.005476,2
1672943957741285908,104910,1672943957753359838,gps,2,1,42.3009577944,-83.6977694621,272.758972168,0.001225,0.0,0.0,0.0,0.001225,0.0,0.0,0.0,0.005476,2
1672943957761427743,104911,1672943957773420491,gps,2,1,42.3009577717,-83.6977700193,272.758209229,0.001225,0.0,0.0,0.0,0.001225,0.0,0.0,0.0,0.005476,2
1672943957781183637,104912,1672943957793429615,gps,2,1,42.3009577492,-83.6977705798,272.757415771,0.000961,0.0,0.0,0.0,0.000961,0.0,0.0,0.0,0.005329,2
1672943957801390675,104913,1672943957813397011,gps,2,1,42.3009577283,-83.6977711511,272.75680542,0.000961,0.0,0.0,0.0,0.000961,0.0,0.0,0.0,0.005329,2
1672943957821510879,104914,1672943957833379696,gps,2,1,42.300957708,-83.6977717348,272.756164551,0.000961,0.0,0.0,0.0,0.000961,0.0,0.0,0.0,0.005329,2
1672943957841067314,104915,1672943957853273604,gps,2,1,42.3009576879,-83.6977723219,272.755462646,0.000961,0.0,0.0,0.0,0.000961,0.0,0.0,0.0,0.005329,2
1672943957861585767,104916,1672943957873398028,gps,2,1,42.3009576689,-83.6977729179,272.754882812,0.000961,0.0,0.0,0.0,0.000961,0.0,0.0,0.0,0.005329,2
1672943957881409540,104917,1672943957893323726,gps,2,1,42.3009576503,-83.6977735277,272.75402832,0.000961,0.0,0.0,0.0,0.000961,0.0,0.0,0.0,0.005329,2
1672943957901395147,104918,1672943957913345908,gps,2,1,42.3009576317,-83.6977741371,272.753204346,0.000961,0.0,0.0,0.0,0.000961,0.0,0.0,0.0,0.005329,2
1672943957921234618,104919,1672943957933379635,gps,2,1,42.3009576139,-83.6977747588,272.752197266,0.000961,0.0,0.0,0.0,0.000961,0.0,0.0,0.0,0.005329,2
1672943957941146162,104920,1672943957953361354,gps,2,1,42.3009575962,-83.6977753912,272.750976562,0.000961,0.0,0.0,0.0,0.000961,0.0,0.0,0.0,0.005329,2
1672943957961670600,104921,1672943957973384889,gps,2,1,42.3009575784,-83.6977760267,272.749725342,0.000961,0.0,0.0,0.0,0.000961,0.0,0.0,0.0,0.005329,2
1672943957981551661,104922,1672943957993371514,gps,2,1,42.3009575609,-83.6977766699,272.748535156,0.000961,0.0,0.0,0.0,0.000961,0.0,0.0,0.0,0.005329,2
1672943958001252901,104923,1672943958013349773,gps,2,1,42.3009575439,-83.6977773268,272.747161865,0.000961,0.0,0.0,0.0,0.000961,0.0,0.0,0.0,0.005329,2
1672943958021198089,104924,1672943958033360874,gps,2,1,42.3009575261,-83.6977779835,272.745910645,0.000961,0.0,0.0,0.0,0.000961,0.0,0.0,0.0,0.005329,2
1672943958041349617,104925,1672943958053557898,gps,2,1,42.3009575098,-83.6977786514,272.744537354,0.000961,0.0,0.0,0.0,0.000961,0.0,0.0,0.0,0.005329,2
1672943958061158626,104926,1672943958073376523,gps,2,1,42.3009574933,-83.6977793308,272.743255615,0.000961,0.0,0.0,0.0,0.000961,0.0,0.0,0.0,0.005329,2
1672943958081524030,104927,1672943958093441437,gps,2,1,42.3009574771,-83.6977800124,272.741882324,0.000961,0.0,0.0,0.0,0.000961,0.0,0.0,0.0,0.005329,2
1672943958101520613,104928,1672943958113553660,gps,2,1,42.3009574621,-83.6977807017,272.740722656,0.000961,0.0,0.0,0.0,0.000961,0.0,0.0,0.0,0.005329,2
1672943958121358523,104929,1672943958133363955,gps,2,1,42.3009574496,-83.6977813938,272.739868164,0.000961,0.0,0.0,0.0,0.000961,0.0,0.0,0.0,0.005329,2
1672943958141366493,104930,1672943958153383460,gps,2,1,42.3009574395,-83.6977820883,272.738922119,0.000961,0.0,0.0,0.0,0.000961,0.0,0.0,0.0,0.005329,2
1672943958161320428,104931,1672943958173359959,gps,2,1,42.3009574275,-83.6977827997,272.738189697,0.000961,0.0,0.0,0.0,0.000961,0.0,0.0,0.0,0.005329,2
1672943958181207076,104932,1672943958193289461,gps,2,1,42.3009574193,-83.6977835185,272.737487793,0.000961,0.0,0.0,0.0,0.000961,0.0,0.0,0.0,0.005329,2
1672943958201266240,104933,1672943958213369420,gps,2,1,42.3009574119,-83.697784237,272.736694336,0.000961,0.0,0.0,0.0,0.000961,0.0,0.0,0.0,0.005329,2
1672943958221489705,104934,1672943958233397773,gps,2,1,42.3009574041,-83.6977849721,272.735656738,0.000961,0.0,0.0,0.0,0.000961,0.0,0.0,0.0,0.005329,2
1672943958241047711,104935,1672943958253332545,gps,2,1,42.3009574032,-83.697785715,272.734466553,0.000961,0.0,0.0,0.0,0.000961,0.0,0.0,0.0,0.005329,2
1672943958261272109,104936,1672943958273328448,gps,2,1,42.3009574013,-83.6977864607,272.733093262,0.000961,0.0,0.0,0.0,0.000961,0.0,0.0,0.0,0.005329,2
1672943958281488551,104937,1672943958293470996,gps,2,1,42.3009573973,-83.697787218,272.731689453,0.000961,0.0,0.0,0.0,0.000961,0.0,0.0,0.0,0.005329,2
1672943958301370328,104938,1672943958313404894,gps,2,1,42.3009573987,-83.697787984,272.729858398,0.000961,0.0,0.0,0.0,0.000961,0.0,0.0,0.0,0.005329,2
1672943958321431595,104939,1672943958333345458,gps,2,1,42.3009573977,-83.6977887527,272.728118896,0.000961,0.0,0.0,0.0,0.000961,0.0,0.0,0.0,0.005329,2
1672943958341277340,104940,1672943958353337472,gps,2,1,42.3009573963,-83.6977895333,272.726074219,0.000961,0.0,0.0,0.0,0.000961,0.0,0.0,0.0,0.005329,2
1672943958361370952,104941,1672943958373325280,gps,2,1,42.3009573969,-83.6977903258,272.723815918,0.000961,0.0,0.0,0.0,0.000961,0.0,0.0,0.0,0.005329,2
1672943958381407948,104942,1672943958393356679,gps,2,1,42.3009573978,-83.6977911181,272.721435547,0.000961,0.0,0.0,0.0,0.000961,0.0,0.0,0.0,0.005329,2
1672943958401398543,104943,1672943958413413115,gps,2,1,42.3009573983,-83.6977919233,272.718963623,0.000961,0.0,0.0,0.0,0.000961,0.0,0.0,0.0,0.005329,2
1672943958421459515,104944,1672943958433457900,gps,2,1,42.3009574032,-83.697792739,272.716461182,0.000961,0.0,0.0,0.0,0.000961,0.0,0.0,0.0,0.005329,2
1672943958441308124,104945,1672943958453331032,gps,2,1,42.300957408,-83.6977935561,272.71395874,0.000961,0.0,0.0,0.0,0.000961,0.0,0.0,0.0,0.005329,2
1672943958461351987,104946,1672943958473392105,gps,2,1,42.3009574116,-83.6977943863,272.711425781,0.000961,0.0,0.0,0.0,0.000961,0.0,0.0,0.0,0.005329,2
1672943958481184855,104947,1672943958493322830,gps,2,1,42.3009574199,-83.6977952267,272.708953857,0.000961,0.0,0.0,0.0,0.000961,0.0,0.0,0.0,0.005329,2
1672943958501444064,104948,1672943958513392538,gps,2,1,42.3009574277,-83.6977960689,272.706451416,0.000961,0.0,0.0,0.0,0.000961,0.0,0.0,0.0,0.005329,2
1672943958521123658,104949,1672943958533465537,gps,2,1,42.3009574348,-83.6977969233,272.703948975,0.000961,0.0,0.0,0.0,0.000961,0.0,0.0,0.0,0.005329,2
1672943958541459864,104950,1672943958553322694,gps,2,1,42.3009574488,-83.6977977872,272.701538086,0.000961,0.0,0.0,0.0,0.000961,0.0,0.0,0.0,0.005329,2
1672943958561318411,104951,1672943958573426022,gps,2,1,42.3009574616,-83.6977986535,272.69909668,0.000961,0.0,0.0,0.0,0.000961,0.0,0.0,0.0,0.005329,2
1672943958581338641,104952,1672943958593437566,gps,2,1,42.3009574705,-83.6977995317,272.696899414,0.000961,0.0,0.0,0.0,0.000961,0.0,0.0,0.0,0.005329,2
1672943958601330813,104953,1672943958613352077,gps,2,1,42.3009574871,-83.6978004211,272.694519043,0.000961,0.0,0.0,0.0,0.000961,0.0,0.0,0.0,0.005329,2
1672943958621208417,104954,1672943958633429165,gps,2,1,42.3009575001,-83.6978013106,272.692352295,0.000961,0.0,0.0,0.0,0.000961,0.0,0.0,0.0,0.005329,2
1672943958641408919,104955,1672943958653409047,gps,2,1,42.3009575108,-83.6978022124,272.6902771,0.000961,0.0,0.0,0.0,0.000961,0.0,0.0,0.0,0.005329,2
1672943958661037628,104956,1672943958673296656,gps,2,1,42.3009575282,-83.6978031257,272.687957764,0.000961,0.0,0.0,0.0,0.000961,0.0,0.0,0.0,0.005329,2
1672943958681382932,104957,1672943958693341056,gps,2,1,42.3009575451,-83.6978040424,272.685668945,0.000961,0.0,0.0,0.0,0.000961,0.0,0.0,0.0,0.005329,2
1672943958701461823,104958,1672943958713303433,gps,2,1,42.3009575609,-83.6978049684,272.683288574,0.000961,0.0,0.0,0.0,0.000961,0.0,0.0,0.0,0.005329,2
1672943958721400844,104959,1672943958733309357,gps,2,1,42.3009575841,-83.6978059034,272.680938721,0.000961,0.0,0.0,0.0,0.000961,0.0,0.0,0.0,0.005329,2
1672943958741331997,104960,1672943958753408054,gps,2,1,42.3009576082,-83.6978068431,272.678375244,0.000961,0.0,0.0,0.0,0.000961,0.0,0.0,0.0,0.005329,2
1672943958761291093,104961,1672943958773427963,gps,2,1,42.3009576319,-83.6978077892,272.675994873,0.000961,0.0,0.0,0.0,0.000961,0.0,0.0,0.0,0.005329,2
1672943958781563737,104962,1672943958793418478,gps,2,1,42.3009576619,-83.6978087468,272.673797607,0.000961,0.0,0.0,0.0,0.000961,0.0,0.0,0.0,0.005329,2
1672943958801483565,104963,1672943958813389992,gps,2,1,42.3009576916,-83.6978097002,272.671539307,0.000961,0.0,0.0,0.0,0.000961,0.0,0.0,0.0,0.005329,2
1672943958821078537,104964,1672943958833387840,gps,2,1,42.3009577201,-83.6978106668,272.669464111,0.000961,0.0,0.0,0.0,0.000961,0.0,0.0,0.0,0.005329,2
1672943958841278819,104965,1672943958853344666,gps,2,1,42.3009577556,-83.6978116424,272.667633057,0.000961,0.0,0.0,0.0,0.000961,0.0,0.0,0.0,0.005329,2
1672943958861357035,104966,1672943958873344306,gps,2,1,42.3009577909,-83.6978126179,272.66583252,0.000961,0.0,0.0,0.0,0.000961,0.0,0.0,0.0,0.005329,2
1672943958881327722,104967,1672943958893404674,gps,2,1,42.3009578238,-83.6978136043,272.664276123,0.000961,0.0,0.0,0.0,0.000961,0.0,0.0,0.0,0.005329,2
1672943958901319521,104968,1672943958913340718,gps,2,1,42.3009578623,-83.6978146003,272.66293335,0.000961,0.0,0.0,0.0,0.000961,0.0,0.0,0.0,0.005329,2
1672943958921338687,104969,1672943958933313807,gps,2,1,42.3009579036,-83.6978155968,272.661437988,0.000961,0.0,0.0,0.0,0.000961,0.0,0.0,0.0,0.005329,2
1672943958941260282,104970,1672943958953299644,gps,2,1,42.3009579398,-83.6978166029,272.660217285,0.000961,0.0,0.0,0.0,0.000961,0.0,0.0,0.0,0.005329,2
1672943958961447281,104971,1672943958973403466,gps,2,1,42.3009579832,-83.6978176194,272.658996582,0.000961,0.0,0.0,0.0,0.000961,0.0,0.0,0.0,0.005329,2
1672943958981357903,104972,1672943958993302294,gps,2,1,42.3009580257,-83.6978186369,272.657836914,0.000961,0.0,0.0,0.0,0.000961,0.0,0.0,0.0,0.005329,2
1672943959001431796,104973,1672943959013331806,gps,2,1,42.3009580637,-83.6978196635,272.656646729,0.000961,0.0,0.0,0.0,0.000961,0.0,0.0,0.0,0.005329,2
1672943959021396303,104974,1672943959033307982,gps,2,1,42.3009581094,-83.6978206995,272.655303955,0.000961,0.0,0.0,0.0,0.000961,0.0,0.0,0.0,0.005329,2
1672943959041254017,104975,1672943959053482657,gps,2,1,42.3009581568,-83.6978217371,272.653717041,0.000961,0.0,0.0,0.0,0.000961,0.0,0.0,0.0,0.005329,2
1672943959061450590,104976,1672943959073461808,gps,2,1,42.3009581992,-83.697822783,272.652252197,0.000961,0.0,0.0,0.0,0.000961,0.0,0.0,0.0,0.005329,2
1672943959081819893,104977,1672943959093387815,gps,2,1,42.3009582501,-83.6978238396,272.650634766,0.000961,0.0,0.0,0.0,0.000961,0.0,0.0,0.0,0.005329,2
1672943959101065536,104978,1672943959113445601,gps,2,1,42.3009582994,-83.6978248968,272.649169922,0.000961,0.0,0.0,0.0,0.000961,0.0,0.0,0.0,0.005329,2
1672943959121433196,104979,1672943959133397453,gps,2,1,42.3009583449,-83.6978259619,272.647613525,0.000961,0.0,0.0,0.0,0.000961,0.0,0.0,0.0,0.005329,2
1672943959141354590,104980,1672943959153379683,gps,2,1,42.300958401,-83.697827038,272.645965576,0.000961,0.0,0.0,0.0,0.000961,0.0,0.0,0.0,0.005329,2
1672943959161337116,104981,1672943959173322819,gps,2,1,42.3009584579,-83.6978281147,272.644348145,0.000961,0.0,0.0,0.0,0.000961,0.0,0.0,0.0,0.005329,2
1672943959181488681,104982,1672943959193443845,gps,2,1,42.3009585106,-83.6978291968,272.642883301,0.000961,0.0,0.0,0.0,0.000961,0.0,0.0,0.0,0.005329,2
1672943959201131932,104983,1672943959213380019,gps,2,1,42.3009585714,-83.6978302895,272.641540527,0.000961,0.0,0.0,0.0,0.000961,0.0,0.0,0.0,0.005329,2
1672943959221074622,104984,1672943959233378061,gps,2,1,42.3009586334,-83.6978313806,272.640014648,0.000961,0.0,0.0,0.0,0.000961,0.0,0.0,0.0,0.005329,2
1672943959241488843,104985,1672943959253377292,gps,2,1,42.3009586895,-83.6978324791,272.63873291,0.000961,0.0,0.0,0.0,0.000961,0.0,0.0,0.0,0.005329,2
1672943959261658901,104986,1672943959273433262,gps,2,1,42.300958754,-83.6978335867,272.637512207,0.000961,0.0,0.0,0.0,0.000961,0.0,0.0,0.0,0.005329,2
1672943959281593663,104987,1672943959293435751,gps,2,1,42.3009588177,-83.6978346951,272.636383057,0.000961,0.0,0.0,0.0,0.000961,0.0,0.0,0.0,0.005329,2
1672943959301560594,104988,1672943959313434912,gps,2,1,42.3009588766,-83.6978358101,272.635131836,0.000961,0.0,0.0,0.0,0.000961,0.0,0.0,0.0,0.005329,2
1672943959321530180,104989,1672943959333336956,gps,2,1,42.3009589428,-83.6978369348,272.633728027,0.000961,0.0,0.0,0.0,0.000961,0.0,0.0,0.0,0.005329,2
1672943959341231394,104990,1672943959353363179,gps,2,1,42.300959008,-83.6978380603,272.632263184,0.000961,0.0,0.0,0.0,0.000961,0.0,0.0,0.0,0.005329,2
1672943959361451440,104991,1672943959373438843,gps,2,1,42.3009590686,-83.6978391926,272.630615234,0.000961,0.0,0.0,0.0,0.000961,0.0,0.0,0.0,0.005329,2
1672943959381020579,104992,1672943959393306960,gps,2,1,42.3009591392,-83.6978403343,272.628753662,0.000961,0.0,0.0,0.0,0.000961,0.0,0.0,0.0,0.005329,2
1672943959401259782,104993,1672943959413387432,gps,2,1,42.3009592083,-83.697841476,272.62701416,0.000961,0.0,0.0,0.0,0.000961,0.0,0.0,0.0,0.005329,2
1672943959421396790,104994,1672943959433364270,gps,2,1,42.3009592749,-83.6978426242,272.625671387,0.000961,0.0,0.0,0.0,0.000961,0.0,0.0,0.0,0.005329,2
1672943959441482851,104995,1672943959453304096,gps,2,1,42.3009593532,-83.6978437824,272.624664307,0.000961,0.0,0.0,0.0,0.000961,0.0,0.0,0.0,0.005329,2
1672943959461331262,104996,1672943959473342365,gps,2,1,42.3009594312,-83.6978449397,272.623687744,0.000961,0.0,0.0,0.0,0.000961,0.0,0.0,0.0,0.005329,2
1672943959481298514,104997,1672943959493410203,gps,2,1,42.3009595033,-83.6978461044,272.623138428,0.000961,0.0,0.0,0.0,0.000961,0.0,0.0,0.0,0.005329,2
1672943959501128219,104998,1672943959513339686,gps,2,1,42.3009595844,-83.6978472785,272.622924805,0.000961,0.0,0.0,0.0,0.000961,0.0,0.0,0.0,0.005329,2
1672943959521611491,104999,1672943959533397629,gps,2,1,42.3009596694,-83.6978484516,272.622650146,0.000961,0.0,0.0,0.0,0.000961,0.0,0.0,0.0,0.005329,2
1672943959541454937,105000,1672943959553460093,gps,2,1,42.3009597434,-83.6978496338,272.622741699,0.000961,0.0,0.0,0.0,0.000961,0.0,0.0,0.0,0.005329,2
1672943959561471814,105001,1672943959573446006,gps,2,1,42.3009598283,-83.6978508229,272.62286377,0.000961,0.0,0.0,0.0,0.000961,0.0,0.0,0.0,0.005329,2
1672943959581531067,105002,1672943959593393514,gps,2,1,42.3009599131,-83.6978520134,272.622894287,0.000961,0.0,0.0,0.0,0.000961,0.0,0.0,0.0,0.005329,2
1672943959601335223,105003,1672943959613388919,gps,2,1,42.3009599872,-83.6978532112,272.62298584,0.000961,0.0,0.0,0.0,0.000961,0.0,0.0,0.0,0.005329,2
1672943959621243332,105004,1672943959633381528,gps,2,1,42.3009600721,-83.6978544148,272.622711182,0.000961,0.0,0.0,0.0,0.000961,0.0,0.0,0.0,0.005329,2
1672943959641424023,105005,1672943959653397660,gps,2,1,42.3009601567,-83.6978556203,272.622497559,0.000961,0.0,0.0,0.0,0.000961,0.0,0.0,0.0,0.005329,2
1672943959661508914,105006,1672943959673415941,gps,2,1,42.3009602326,-83.6978568324,272.622253418,0.000961,0.0,0.0,0.0,0.000961,0.0,0.0,0.0,0.005329,2
1672943959681452537,105007,1672943959693406093,gps,2,1,42.3009603198,-83.6978580506,272.621673584,0.000961,0.0,0.0,0.0,0.000961,0.0,0.0,0.0,0.005329,2
1672943959701476277,105008,1672943959713426762,gps,2,1,42.3009604079,-83.6978592686,272.621154785,0.000961,0.0,0.0,0.0,0.000961,0.0,0.0,0.0,0.005329,2
1672943959721515565,105009,1672943959733383006,gps,2,1,42.300960488,-83.697860495,272.620544434,0.000961,0.0,0.0,0.0,0.000961,0.0,0.0,0.0,0.005329,2
1672943959741353975,105010,1672943959753380061,gps,2,1,42.3009605848,-83.6978617237,272.619720459,0.000961,0.0,0.0,0.0,0.000961,0.0,0.0,0.0,0.005329,2
1672943959761281008,105011,1672943959773381178,gps,2,1,42.3009606813,-83.6978629534,272.61895752,0.000961,0.0,0.0,0.0,0.000961,0.0,0.0,0.0,0.005329,2
1672943959781618089,105012,1672943959793516711,gps,2,1,42.3009607677,-83.6978641927,272.618347168,0.001225,0.0,0.0,0.0,0.001225,0.0,0.0,0.0,0.005476,2
1672943959801550531,105013,1672943959813383271,gps,2,1,42.3009608685,-83.6978654347,272.617980957,0.001225,0.0,0.0,0.0,0.001225,0.0,0.0,0.0,0.005476,2
1672943959821524525,105014,1672943959833387590,gps,2,1,42.3009609672,-83.6978666797,272.617401123,0.001225,0.0,0.0,0.0,0.001225,0.0,0.0,0.0,0.005476,2
1672943959841463728,105015,1672943959853423344,gps,2,1,42.3009610573,-83.6978679327,272.617156982,0.001225,0.0,0.0,0.0,0.001225,0.0,0.0,0.0,0.005476,2
1672943959861380823,105016,1672943959873336915,gps,2,1,42.3009611578,-83.6978691914,272.616729736,0.001225,0.0,0.0,0.0,0.001225,0.0,0.0,0.0,0.005476,2
1672943959881420776,105017,1672943959893367039,gps,2,1,42.3009612581,-83.6978704499,272.616333008,0.001225,0.0,0.0,0.0,0.001225,0.0,0.0,0.0,0.005476,2
1672943959901295221,105018,1672943959913397060,gps,2,1,42.3009613499,-83.6978717167,272.615997314,0.001225,0.0,0.0,0.0,0.001225,0.0,0.0,0.0,0.005476,2
1672943959921159662,105019,1672943959933335467,gps,2,1,42.3009614535,-83.6978729876,272.615386963,0.001225,0.0,0.0,0.0,0.001225,0.0,0.0,0.0,0.005476,2
1672943959941107109,105020,1672943959953333640,gps,2,1,42.3009615566,-83.6978742584,272.614807129,0.001225,0.0,0.0,0.0,0.001225,0.0,0.0,0.0,0.005476,2
1672943959961383770,105021,1672943959973431861,gps,2,1,42.3009616498,-83.6978755369,272.614318848,0.001225,0.0,0.0,0.0,0.001225,0.0,0.0,0.0,0.005476,2
1672943959981346718,105022,1672943959993308868,gps,2,1,42.3009617546,-83.6978768186,272.613525391,0.001225,0.0,0.0,0.0,0.001225,0.0,0.0,0.0,0.005476,2
1672943960001371912,105023,1672943960013380338,gps,2,1,42.3009618608,-83.697878098,272.612731934,0.001225,0.0,0.0,0.0,0.001225,0.0,0.0,0.0,0.005476,2
1672943960021502369,105024,1672943960033468346,gps,2,1,42.3009619564,-83.6978793861,272.611999512,0.001225,0.0,0.0,0.0,0.001225,0.0,0.0,0.0,0.005476,2
1672943960041318216,105025,1672943960053376032,gps,2,1,42.300962064,-83.6978806739,272.610900879,0.001225,0.0,0.0,0.0,0.001225,0.0,0.0,0.0,0.005476,2
1672943960061175668,105026,1672943960073379535,gps,2,1,42.3009621752,-83.6978819608,272.609558105,0.001225,0.0,0.0,0.0,0.001225,0.0,0.0,0.0,0.005476,2
1672943960081574070,105027,1672943960093477219,gps,2,1,42.3009622722,-83.697883258,272.608306885,0.001225,0.0,0.0,0.0,0.001225,0.0,0.0,0.0,0.005476,2
1672943960101473213,105028,1672943960113420826,gps,2,1,42.3009623831,-83.6978845539,272.606506348,0.001225,0.0,0.0,0.0,0.001225,0.0,0.0,0.0,0.005476,2
1672943960121413654,105029,1672943960133315152,gps,2,1,42.3009624927,-83.6978858493,272.604705811,0.001225,0.0,0.0,0.0,0.001225,0.0,0.0,0.0,0.005476,2
1672943960141367639,105030,1672943960153412229,gps,2,1,42.3009625894,-83.6978871552,272.603027344,0.001225,0.0,0.0,0.0,0.001225,0.0,0.0,0.0,0.005476,2
1672943960161304175,105031,1672943960173362131,gps,2,1,42.3009626989,-83.6978884588,272.600830078,0.001225,0.0,0.0,0.0,0.001225,0.0,0.0,0.0,0.005476,2
1672943960181382327,105032,1672943960193329155,gps,2,1,42.3009628073,-83.697889763,272.598693848,0.001225,0.0,0.0,0.0,0.001225,0.0,0.0,0.0,0.005476,2
1672943960201150538,105033,1672943960213358186,gps,2,1,42.3009629049,-83.6978910749,272.596679688,0.001225,0.0,0.0,0.0,0.001225,0.0,0.0,0.0,0.005476,2
1672943960221056656,105034,1672943960233327035,gps,2,1,42.3009630169,-83.6978923837,272.594543457,0.001225,0.0,0.0,0.0,0.001225,0.0,0.0,0.0,0.005476,2
1672943960241474442,105035,1672943960253407005,gps,2,1,42.3009631285,-83.6978936931,272.592437744,0.001225,0.0,0.0,0.0,0.001225,0.0,0.0,0.0,0.005476,2
1672943960260990964,105036,1672943960273385444,gps,2,1,42.3009632288,-83.6978950105,272.590545654,0.001225,0.0,0.0,0.0,0.001225,0.0,0.0,0.0,0.005476,2
1672943960281367362,105037,1672943960293402079,gps,2,1,42.300963342,-83.6978963246,272.588623047,0.001225,0.0,0.0,0.0,0.001225,0.0,0.0,0.0,0.005476,2
1672943960301349890,105038,1672943960313322804,gps,2,1,42.3009634548,-83.6978976391,272.586730957,0.001225,0.0,0.0,0.0,0.001225,0.0,0.0,0.0,0.005476,2
1672943960321306442,105039,1672943960333532784,gps,2,1,42.3009635576,-83.6978989611,272.585083008,0.001225,0.0,0.0,0.0,0.001225,0.0,0.0,0.0,0.005476,2
1672943960341203042,105040,1672943960353311561,gps,2,1,42.3009636723,-83.69790028,272.583374023,0.001225,0.0,0.0,0.0,0.001225,0.0,0.0,0.0,0.005476,2
1672943960361082091,105041,1672943960373328746,gps,2,1,42.3009637866,-83.6979015992,272.581665039,0.001225,0.0,0.0,0.0,0.001225,0.0,0.0,0.0,0.005476,2
1672943960381298153,105042,1672943960393398615,gps,2,1,42.3009638908,-83.6979029255,272.580169678,0.001225,0.0,0.0,0.0,0.001225,0.0,0.0,0.0,0.005476,2
1672943960401431085,105043,1672943960413406876,gps,2,1,42.3009640058,-83.6979042487,272.578460693,0.001225,0.0,0.0,0.0,0.001225,0.0,0.0,0.0,0.005476,2
1672943960421207580,105044,1672943960433277355,gps,2,1,42.3009641217,-83.6979055714,272.576843262,0.001225,0.0,0.0,0.0,0.001225,0.0,0.0,0.0,0.005476,2
1672943960441401337,105045,1672943960453393650,gps,2,1,42.3009642266,-83.6979069007,272.575408936,0.001225,0.0,0.0,0.0,0.001225,0.0,0.0,0.0,0.005476,2
1672943960461295832,105046,1672943960473383863,gps,2,1,42.3009643425,-83.6979082263,272.574005127,0.001225,0.0,0.0,0.0,0.001225,0.0,0.0,0.0,0.005476,2
1672943960481146594,105047,1672943960493296978,gps,2,1,42.3009644617,-83.6979095521,272.572692871,0.001225,0.0,0.0,0.0,0.001225,0.0,0.0,0.0,0.005476,2
1672943960501431700,105048,1672943960513403237,gps,2,1,42.3009645656,-83.6979108842,272.571563721,0.001225,0.0,0.0,0.0,0.001225,0.0,0.0,0.0,0.005476,2
1672943960521387262,105049,1672943960533481189,gps,2,1,42.3009646825,-83.6979122141,272.570465088,0.001225,0.0,0.0,0.0,0.001225,0.0,0.0,0.0,0.005476,2
1672943960541513440,105050,1672943960553399525,gps,2,1,42.3009648034,-83.6979135418,272.569335938,0.001225,0.0,0.0,0.0,0.001225,0.0,0.0,0.0,0.005476,2
1672943960561345102,105051,1672943960573480581,gps,2,1,42.3009649052,-83.6979148793,272.568206787,0.001225,0.0,0.0,0.0,0.001225,0.0,0.0,0.0,0.005476,2
1672943960581403632,105052,1672943960593453182,gps,2,1,42.3009650232,-83.697916213,272.566802979,0.001225,0.0,0.0,0.0,0.001225,0.0,0.0,0.0,0.005476,2
1672943960601335744,105053,1672943960613324338,gps,2,1,42.3009651382,-83.6979175469,272.56539917,0.001225,0.0,0.0,0.0,0.001225,0.0,0.0,0.0,0.005476,2
1672943960621172767,105054,1672943960633535273,gps,2,1,42.3009652382,-83.6979188887,272.563751221,0.001225,0.0,0.0,0.0,0.001225,0.0,0.0,0.0,0.005476,2
1672943960641248602,105055,1672943960653386003,gps,2,1,42.3009653514,-83.6979202272,272.561737061,0.001225,0.0,0.0,0.0,0.001225,0.0,0.0,0.0,0.005476,2
1672943960661453879,105056,1672943960673352404,gps,2,1,42.3009654642,-83.6979215665,272.5597229,0.001225,0.0,0.0,0.0,0.001225,0.0,0.0,0.0,0.005476,2
1672943960681366022,105057,1672943960693422493,gps,2,1,42.3009655635,-83.6979229113,272.557556152,0.001225,0.0,0.0,0.0,0.001225,0.0,0.0,0.0,0.005476,2
1672943960701466925,105058,1672943960713406553,gps,2,1,42.300965676,-83.6979242535,272.555206299,0.001225,0.0,0.0,0.0,0.001225,0.0,0.0,0.0,0.005476,2
1672943960721242434,105059,1672943960733414756,gps,2,1,42.3009657895,-83.6979255971,272.552825928,0.001225,0.0,0.0,0.0,0.001225,0.0,0.0,0.0,0.005476,2
1672943960741289316,105060,1672943960753359015,gps,2,1,42.3009658895,-83.6979269451,272.550537109,0.001225,0.0,0.0,0.0,0.001225,0.0,0.0,0.0,0.005476,2
1672943960761260741,105061,1672943960773441616,gps,2,1,42.3009660036,-83.6979282922,272.548248291,0.001225,0.0,0.0,0.0,0.001225,0.0,0.0,0.0,0.005476,2
1672943960781349100,105062,1672943960793429778,gps,2,1,42.3009661137,-83.6979296386,272.545837402,0.001225,0.0,0.0,0.0,0.001225,0.0,0.0,0.0,0.005476,2
1672943960801016694,105063,1672943960813394545,gps,2,1,42.3009662135,-83.6979309899,272.543670654,0.001225,0.0,0.0,0.0,0.001225,0.0,0.0,0.0,0.005476,2
1672943960821613845,105064,1672943960833430574,gps,2,1,42.3009663225,-83.6979323396,272.541442871,0.001225,0.0,0.0,0.0,0.001225,0.0,0.0,0.0,0.005476,2
1672943960841556686,105065,1672943960853328314,gps,2,1,42.3009664313,-83.6979336897,272.539215088,0.001225,0.0,0.0,0.0,0.001225,0.0,0.0,0.0,0.005476,2
1672943960861431480,105066,1672943960873414632,gps,2,1,42.3009665298,-83.6979350437,272.537261963,0.001225,0.0,0.0,0.0,0.001225,0.0,0.0,0.0,0.005476,2
1672943960881369929,105067,1672943960893337183,gps,2,1,42.3009666364,-83.6979363957,272.535217285,0.001225,0.0,0.0,0.0,0.001225,0.0,0.0,0.0,0.005476,2
1672943960901317672,105068,1672943960913362273,gps,2,1,42.3009667428,-83.6979377481,272.533172607,0.001225,0.0,0.0,0.0,0.001225,0.0,0.0,0.0,0.005476,2
1672943960921144003,105069,1672943960933391767,gps,2,1,42.3009668399,-83.6979391036,272.531402588,0.001225,0.0,0.0,0.0,0.001225,0.0,0.0,0.0,0.005476,2
1672943960940954785,105070,1672943960953323763,gps,2,1,42.300966948,-83.6979404548,272.529876709,0.001225,0.0,0.0,0.0,0.001225,0.0,0.0,0.0,0.005476,2
1672943960961357042,105071,1672943960973351240,gps,2,1,42.3009670559,-83.6979418062,272.528320312,0.001225,0.0,0.0,0.0,0.001225,0.0,0.0,0.0,0.005476,2
1672943960981398938,105072,1672943960993387636,gps,2,1,42.3009671524,-83.6979431626,272.526977539,0.001225,0.0,0.0,0.0,0.001225,0.0,0.0,0.0,0.005476,2
1672943961001245883,105073,1672943961013302293,gps,2,1,42.3009672585,-83.6979445149,272.525756836,0.001225,0.0,0.0,0.0,0.001225,0.0,0.0,0.0,0.005476,2
1672943961021371326,105074,1672943961033387795,gps,2,1,42.3009673667,-83.6979458666,272.52444458,0.001225,0.0,0.0,0.0,0.001225,0.0,0.0,0.0,0.005476,2
1672943961041123061,105075,1672943961053444822,gps,2,1,42.3009674604,-83.6979472243,272.523193359,0.001225,0.0,0.0,0.0,0.001225,0.0,0.0,0.0,0.005476,2
1672943961061423641,105076,1672943961073460576,gps,2,1,42.3009675672,-83.6979485772,272.521514893,0.001225,0.0,0.0,0.0,0.001225,0.0,0.0,0.0,0.005476,2
1672943961080999534,105077,1672943961093391001,gps,2,1,42.3009676741,-83.6979499308,272.519775391,0.001225,0.0,0.0,0.0,0.001225,0.0,0.0,0.0,0.005476,2
1672943961101539897,105078,1672943961113452552,gps,2,1,42.3009677647,-83.6979512892,272.518005371,0.001225,0.0,0.0,0.0,0.001225,0.0,0.0,0.0,0.005476,2
1672943961121258402,105079,1672943961133388226,gps,2,1,42.3009678667,-83.697952644,272.515563965,0.001225,0.0,0.0,0.0,0.001225,0.0,0.0,0.0,0.005476,2
1672943961141312757,105080,1672943961153339441,gps,2,1,42.3009679688,-83.6979539986,272.513092041,0.001225,0.0,0.0,0.0,0.001225,0.0,0.0,0.0,0.005476,2
1672943961161375000,105081,1672943961173369934,gps,2,1,42.3009680574,-83.6979553568,272.510498047,0.001225,0.0,0.0,0.0,0.001225,0.0,0.0,0.0,0.005476,2
1672943961181285123,105082,1672943961193333144,gps,2,1,42.3009681577,-83.6979567123,272.507415771,0.001225,0.0,0.0,0.0,0.001225,0.0,0.0,0.0,0.005476,2
1672943961201114363,105083,1672943961213407253,gps,2,1,42.3009682576,-83.6979580674,272.504333496,0.001225,0.0,0.0,0.0,0.001225,0.0,0.0,0.0,0.005476,2
1672943961221448946,105084,1672943961233451435,gps,2,1,42.3009683454,-83.6979594258,272.501281738,0.001225,0.0,0.0,0.0,0.001225,0.0,0.0,0.0,0.005476,2
1672943961241324932,105085,1672943961253357324,gps,2,1,42.3009684428,-83.6979607839,272.497955322,0.001225,0.0,0.0,0.0,0.001225,0.0,0.0,0.0,0.005476,2
1672943961261247007,105086,1672943961273280962,gps,2,1,42.3009685398,-83.6979621417,272.494628906,0.001225,0.0,0.0,0.0,0.001225,0.0,0.0,0.0,0.005476,2
1672943961281482018,105087,1672943961293476440,gps,2,1,42.3009686262,-83.6979635009,272.491394043,0.001225,0.0,0.0,0.0,0.001225,0.0,0.0,0.0,0.005476,2
1672943961301298966,105088,1672943961313424685,gps,2,1,42.3009687213,-83.6979648594,272.488006592,0.001225,0.0,0.0,0.0,0.001225,0.0,0.0,0.0,0.005476,2
1672943961321292583,105089,1672943961333334120,gps,2,1,42.3009688175,-83.6979662147,272.484588623,0.001225,0.0,0.0,0.0,0.001225,0.0,0.0,0.0,0.005476,2
1672943961341088588,105090,1672943961353375418,gps,2,1,42.3009689026,-83.6979675743,272.481323242,0.001225,0.0,0.0,0.0,0.001225,0.0,0.0,0.0,0.005476,2
1672943961361563099,105091,1672943961373412517,gps,2,1,42.3009689969,-83.6979689297,272.478088379,0.001225,0.0,0.0,0.0,0.001225,0.0,0.0,0.0,0.005476,2
1672943961381275623,105092,1672943961393354704,gps,2,1,42.3009690921,-83.6979702852,272.474945068,0.001225,0.0,0.0,0.0,0.001225,0.0,0.0,0.0,0.005476,2
1672943961401434014,105093,1672943961413422633,gps,2,1,42.3009691754,-83.6979716451,272.471954346,0.001225,0.0,0.0,0.0,0.001225,0.0,0.0,0.0,0.005476,2
1672943961421220233,105094,1672943961433300186,gps,2,1,42.3009692685,-83.6979730015,272.469116211,0.001225,0.0,0.0,0.0,0.001225,0.0,0.0,0.0,0.005476,2
1672943961441311621,105095,1672943961453338681,gps,2,1,42.3009693611,-83.6979743596,272.466217041,0.001225,0.0,0.0,0.0,0.001225,0.0,0.0,0.0,0.005476,2
1672943961461225261,105096,1672943961473409751,gps,2,1,42.3009694422,-83.6979757199,272.463531494,0.001225,0.0,0.0,0.0,0.001225,0.0,0.0,0.0,0.005476,2
1672943961481245379,105097,1672943961493329400,gps,2,1,42.3009695317,-83.6979770759,272.46105957,0.001225,0.0,0.0,0.0,0.001225,0.0,0.0,0.0,0.005476,2
1672943961501401743,105098,1672943961513377781,gps,2,1,42.3009696225,-83.6979784332,272.458618164,0.001225,0.0,0.0,0.0,0.001225,0.0,0.0,0.0,0.005476,2
1672943961521633654,105099,1672943961533466942,gps,2,1,42.3009697007,-83.6979797927,272.456359863,0.001225,0.0,0.0,0.0,0.001225,0.0,0.0,0.0,0.005476,2
1672943961541357896,105100,1672943961553412460,gps,2,1,42.3009697832,-83.6979811506,272.454071045,0.001225,0.0,0.0,0.0,0.001225,0.0,0.0,0.0,0.005476,2
1672943961561307956,105101,1672943961573422304,gps,2,1,42.3009698671,-83.6979825101,272.451751709,0.001225,0.0,0.0,0.0,0.001225,0.0,0.0,0.0,0.005476,2
1672943961581363002,105102,1672943961593406268,gps,2,1,42.3009699411,-83.6979838718,272.449523926,0.001225,0.0,0.0,0.0,0.001225,0.0,0.0,0.0,0.005476,2
1672943961601209327,105103,1672943961613433711,gps,2,1,42.3009700207,-83.6979852327,272.447021484,0.001225,0.0,0.0,0.0,0.001225,0.0,0.0,0.0,0.005476,2
1672943961621173774,105104,1672943961633405705,gps,2,1,42.3009701002,-83.6979865943,272.444549561,0.001225,0.0,0.0,0.0,0.001225,0.0,0.0,0.0,0.005476,2
1672943961641008710,105105,1672943961653410940,gps,2,1,42.3009701707,-83.697987959,272.442016602,0.001225,0.0,0.0,0.0,0.001225,0.0,0.0,0.0,0.005476,2
1672943961661366686,105106,1672943961673338993,gps,2,1,42.300970248,-83.6979893227,272.439056396,0.001225,0.0,0.0,0.0,0.001225,0.0,0.0,0.0,0.005476,2
1672943961681452555,105107,1672943961693399151,gps,2,1,42.3009703245,-83.6979906869,272.436035156,0.001225,0.0,0.0,0.0,0.001225,0.0,0.0,0.0,0.005476,2
1672943961701386571,105108,1672943961713427520,gps,2,1,42.3009703937,-83.697992054,272.433105469,0.001225,0.0,0.0,0.0,0.001225,0.0,0.0,0.0,0.005476,2
1672943961721257863,105109,1672943961733356224,gps,2,1,42.3009704696,-83.6979934186,272.429840088,0.001225,0.0,0.0,0.0,0.001225,0.0,0.0,0.0,0.005476,2
1672943961741327097,105110,1672943961753354655,gps,2,1,42.3009705452,-83.6979947829,272.426574707,0.001225,0.0,0.0,0.0,0.001225,0.0,0.0,0.0,0.005476,2
1672943961761190062,105111,1672943961773452876,gps,2,1,42.3009706147,-83.6979961522,272.423370361,0.001225,0.0,0.0,0.0,0.001225,0.0,0.0,0.0,0.005476,2
1672943961781403026,105112,1672943961793437674,gps,2,1,42.3009706901,-83.6979975184,272.420013428,0.001225,0.0,0.0,0.0,0.001225,0.0,0.0,0.0,0.005625,2
1672943961801408969,105113,1672943961813431225,gps,2,1,42.3009707652,-83.6979988849,272.416687012,0.001225,0.0,0.0,0.0,0.001225,0.0,0.0,0.0,0.005625,2
1672943961821389392,105114,1672943961833392457,gps,2,1,42.3009708345,-83.6980002556,272.413543701,0.001225,0.0,0.0,0.0,0.001225,0.0,0.0,0.0,0.005625,2
1672943961841336932,105115,1672943961853351915,gps,2,1,42.3009709103,-83.6980016239,272.410369873,0.001225,0.0,0.0,0.0,0.001225,0.0,0.0,0.0,0.005625,2
1672943961861284531,105116,1672943961873366270,gps,2,1,42.3009709856,-83.6980029916,272.407196045,0.001225,0.0,0.0,0.0,0.001225,0.0,0.0,0.0,0.005625,2
1672943961881464977,105117,1672943961893447580,gps,2,1,42.3009710543,-83.6980043642,272.404266357,0.001225,0.0,0.0,0.0,0.001225,0.0,0.0,0.0,0.005625,2
1672943961901133372,105118,1672943961913350865,gps,2,1,42.3009711286,-83.6980057338,272.401550293,0.001225,0.0,0.0,0.0,0.001225,0.0,0.0,0.0,0.005625,2
1672943961921279928,105119,1672943961933352105,gps,2,1,42.3009712019,-83.6980071032,272.398895264,0.001225,0.0,0.0,0.0,0.001225,0.0,0.0,0.0,0.005625,2
1672943961941540692,105120,1672943961953432649,gps,2,1,42.3009712692,-83.6980084763,272.396087646,0.001225,0.0,0.0,0.0,0.001225,0.0,0.0,0.0,0.005625,2
1672943961961443474,105121,1672943961973406678,gps,2,1,42.3009713401,-83.6980098463,272.3934021,0.001225,0.0,0.0,0.0,0.001225,0.0,0.0,0.0,0.005625,2
1672943961981227443,105122,1672943961993361001,gps,2,1,42.3009714108,-83.6980112162,272.390930176,0.001225,0.0,0.0,0.0,0.001225,0.0,0.0,0.0,0.005625,2
1672943962001470393,105123,1672943962013427140,gps,2,1,42.3009714742,-83.6980125873,272.388397217,0.001225,0.0,0.0,0.0,0.001225,0.0,0.0,0.0,0.005625,2
1672943962021477722,105124,1672943962033359884,gps,2,1,42.3009715393,-83.6980139577,272.386322021,0.001225,0.0,0.0,0.0,0.001225,0.0,0.0,0.0,0.005625,2
1672943962041843675,105125,1672943962054294823,gps,2,1,42.3009716034,-83.6980153277,272.384246826,0.001225,0.0,0.0,0.0,0.001225,0.0,0.0,0.0,0.005625,2
1672943962061521629,105126,1672943962073534909,gps,2,1,42.3009716605,-83.6980166999,272.382141113,0.001225,0.0,0.0,0.0,0.001225,0.0,0.0,0.0,0.005625,2
1672943962081358600,105127,1672943962093392515,gps,2,1,42.3009717196,-83.6980180686,272.37991333,0.001225,0.0,0.0,0.0,0.001225,0.0,0.0,0.0,0.005625,2
1672943962101120802,105128,1672943962113426349,gps,2,1,42.3009717779,-83.6980194397,272.377685547,0.001225,0.0,0.0,0.0,0.001225,0.0,0.0,0.0,0.005625,2
1672943962121401872,105129,1672943962133561521,gps,2,1,42.3009718295,-83.698020812,272.375183105,0.001225,0.0,0.0,0.0,0.001225,0.0,0.0,0.0,0.005625,2
1672943962141305641,105130,1672943962153351970,gps,2,1,42.3009718834,-83.6980221828,272.372467041,0.001225,0.0,0.0,0.0,0.001225,0.0,0.0,0.0,0.005625,2
1672943962161267243,105131,1672943962173449315,gps,2,1,42.3009719373,-83.6980235542,272.369689941,0.001225,0.0,0.0,0.0,0.001225,0.0,0.0,0.0,0.005625,2
1672943962181254149,105132,1672943962193476892,gps,2,1,42.300971985,-83.698024926,272.366577148,0.001225,0.0,0.0,0.0,0.001225,0.0,0.0,0.0,0.005625,2
1672943962201126877,105133,1672943962213317881,gps,2,1,42.3009720366,-83.6980262963,272.363128662,0.001225,0.0,0.0,0.0,0.001225,0.0,0.0,0.0,0.005625,2
1672943962221452128,105134,1672943962233421767,gps,2,1,42.3009720887,-83.6980276641,272.359649658,0.001225,0.0,0.0,0.0,0.001225,0.0,0.0,0.0,0.005625,2
1672943962241324038,105135,1672943962253464120,gps,2,1,42.3009721358,-83.6980290361,272.355834961,0.001225,0.0,0.0,0.0,0.001225,0.0,0.0,0.0,0.005625,2
1672943962261296266,105136,1672943962273309080,gps,2,1,42.3009721887,-83.6980304051,272.351745605,0.001225,0.0,0.0,0.0,0.001225,0.0,0.0,0.0,0.005625,2
1672943962281468376,105137,1672943962293526466,gps,2,1,42.3009722415,-83.6980317738,272.347686768,0.001225,0.0,0.0,0.0,0.001225,0.0,0.0,0.0,0.005625,2
1672943962301362085,105138,1672943962313406294,gps,2,1,42.3009722904,-83.6980331465,272.343414307,0.001225,0.0,0.0,0.0,0.001225,0.0,0.0,0.0,0.005625,2
1672943962321269160,105139,1672943962333435298,gps,2,1,42.3009723436,-83.6980345179,272.339050293,0.001225,0.0,0.0,0.0,0.001225,0.0,0.0,0.0,0.005625,2
1672943962341318464,105140,1672943962353427426,gps,2,1,42.3009723961,-83.6980358895,272.334716797,0.001225,0.0,0.0,0.0,0.001225,0.0,0.0,0.0,0.005625,2
1672943962361606451,105141,1672943962373517297,gps,2,1,42.3009724475,-83.6980372635,272.33026123,0.001225,0.0,0.0,0.0,0.001225,0.0,0.0,0.0,0.005625,2
1672943962380982949,105142,1672943962393368396,gps,2,1,42.3009725024,-83.6980386365,272.325714111,0.001225,0.0,0.0,0.0,0.001225,0.0,0.0,0.0,0.005625,2
1672943962401311266,105143,1672943962413355164,gps,2,1,42.3009725573,-83.6980400104,272.32119751,0.001225,0.0,0.0,0.0,0.001225,0.0,0.0,0.0,0.005625,2
1672943962421269386,105144,1672943962433382790,gps,2,1,42.3009726114,-83.6980413856,272.316711426,0.001225,0.0,0.0,0.0,0.001225,0.0,0.0,0.0,0.005625,2
1672943962441341612,105145,1672943962453353744,gps,2,1,42.30097267,-83.6980427584,272.312408447,0.001225,0.0,0.0,0.0,0.001225,0.0,0.0,0.0,0.005625,2
1672943962461358593,105146,1672943962473479048,gps,2,1,42.3009727286,-83.6980441314,272.308166504,0.001225,0.0,0.0,0.0,0.001225,0.0,0.0,0.0,0.005625,2
1672943962481074857,105147,1672943962493427420,gps,2,1,42.3009727832,-83.6980455088,272.304077148,0.001225,0.0,0.0,0.0,0.001225,0.0,0.0,0.0,0.005625,2
1672943962501494998,105148,1672943962513353897,gps,2,1,42.3009728401,-83.6980468836,272.300292969,0.001225,0.0,0.0,0.0,0.001225,0.0,0.0,0.0,0.005625,2
1672943962521160941,105149,1672943962533373178,gps,2,1,42.3009728968,-83.6980482595,272.296478271,0.001225,0.0,0.0,0.0,0.001225,0.0,0.0,0.0,0.005625,2
1672943962541488310,105150,1672943962553593283,gps,2,1,42.3009729483,-83.698049639,272.292755127,0.001225,0.0,0.0,0.0,0.001225,0.0,0.0,0.0,0.005625,2
1672943962561390998,105151,1672943962573425675,gps,2,1,42.3009730004,-83.6980510164,272.289245605,0.001225,0.0,0.0,0.0,0.001225,0.0,0.0,0.0,0.005625,2
1672943962581529064,105152,1672943962593398850,gps,2,1,42.3009730532,-83.6980523929,272.285736084,0.001225,0.0,0.0,0.0,0.001225,0.0,0.0,0.0,0.005625,2
1672943962601408168,105153,1672943962613444719,gps,2,1,42.3009731,-83.6980537737,272.28237915,0.001225,0.0,0.0,0.0,0.001225,0.0,0.0,0.0,0.005625,2
1672943962621419579,105154,1672943962633410500,gps,2,1,42.3009731474,-83.6980551522,272.279205322,0.001225,0.0,0.0,0.0,0.001225,0.0,0.0,0.0,0.005625,2
1672943962641164440,105155,1672943962653458511,gps,2,1,42.3009731946,-83.6980565306,272.276062012,0.001225,0.0,0.0,0.0,0.001225,0.0,0.0,0.0,0.005625,2
1672943962661339014,105156,1672943962673362541,gps,2,1,42.3009732379,-83.6980579122,272.272979736,0.001225,0.0,0.0,0.0,0.001225,0.0,0.0,0.0,0.005625,2
1672943962681312071,105157,1672943962693418084,gps,2,1,42.300973283,-83.6980592911,272.270019531,0.001225,0.0,0.0,0.0,0.001225,0.0,0.0,0.0,0.005625,2
1672943962700925381,105158,1672943962713334684,gps,2,1,42.3009733272,-83.6980606692,272.267089844,0.001225,0.0,0.0,0.0,0.001225,0.0,0.0,0.0,0.005625,2
1672943962721312327,105159,1672943962733358376,gps,2,1,42.3009733692,-83.6980620504,272.264251709,0.001225,0.0,0.0,0.0,0.001225,0.0,0.0,0.0,0.005625,2
1672943962741261131,105160,1672943962753326491,gps,2,1,42.3009734128,-83.6980634271,272.261535645,0.001225,0.0,0.0,0.0,0.001225,0.0,0.0,0.0,0.005625,2
1672943962761171201,105161,1672943962773394272,gps,2,1,42.3009734565,-83.6980648047,272.258850098,0.001225,0.0,0.0,0.0,0.001225,0.0,0.0,0.0,0.005625,2
1672943962781436582,105162,1672943962793521603,gps,2,1,42.3009734987,-83.6980661846,272.256317139,0.001225,0.0,0.0,0.0,0.001225,0.0,0.0,0.0,0.005625,2
1672943962801446119,105163,1672943962813371818,gps,2,1,42.3009735433,-83.6980675602,272.253875732,0.001225,0.0,0.0,0.0,0.001225,0.0,0.0,0.0,0.005625,2
1672943962821414823,105164,1672943962833336720,gps,2,1,42.3009735901,-83.6980689377,272.251403809,0.001225,0.0,0.0,0.0,0.001225,0.0,0.0,0.0,0.005625,2
1672943962841401450,105165,1672943962853444966,gps,2,1,42.3009736341,-83.6980703166,272.249053955,0.001225,0.0,0.0,0.0,0.001225,0.0,0.0,0.0,0.005625,2
1672943962861501128,105166,1672943962873329955,gps,2,1,42.3009736829,-83.6980716927,272.246673584,0.001225,0.0,0.0,0.0,0.001225,0.0,0.0,0.0,0.005625,2
1672943962881478481,105167,1672943962893412569,gps,2,1,42.3009737318,-83.6980730691,272.24432373,0.001225,0.0,0.0,0.0,0.001225,0.0,0.0,0.0,0.005625,2
1672943962901112372,105168,1672943962913361314,gps,2,1,42.3009737781,-83.6980744467,272.24206543,0.001225,0.0,0.0,0.0,0.001225,0.0,0.0,0.0,0.005625,2
1672943962921632275,105169,1672943962933379399,gps,2,1,42.3009738267,-83.6980758223,272.239837646,0.001225,0.0,0.0,0.0,0.001225,0.0,0.0,0.0,0.005625,2
1672943962941362526,105170,1672943962953363226,gps,2,1,42.3009738753,-83.6980771979,272.237640381,0.001225,0.0,0.0,0.0,0.001225,0.0,0.0,0.0,0.005625,2
1672943962961375752,105171,1672943962973466193,gps,2,1,42.3009739213,-83.698078575,272.23526001,0.001225,0.0,0.0,0.0,0.001225,0.0,0.0,0.0,0.005625,2
1672943962981388316,105172,1672943962993452097,gps,2,1,42.3009739676,-83.6980799506,272.232788086,0.001225,0.0,0.0,0.0,0.001225,0.0,0.0,0.0,0.005625,2
1672943963001299133,105173,1672943963013346351,gps,2,1,42.3009740127,-83.6980813242,272.230377197,0.001225,0.0,0.0,0.0,0.001225,0.0,0.0,0.0,0.005625,2
1672943963021059292,105174,1672943963033449028,gps,2,1,42.3009740553,-83.6980827013,272.227752686,0.001225,0.0,0.0,0.0,0.001225,0.0,0.0,0.0,0.005625,2
1672943963041052961,105175,1672943963053532483,gps,2,1,42.3009740958,-83.6980840745,272.225372314,0.001225,0.0,0.0,0.0,0.001225,0.0,0.0,0.0,0.005625,2
1672943963060841400,105176,1672943963073363644,gps,2,1,42.3009741359,-83.6980854477,272.222991943,0.001225,0.0,0.0,0.0,0.001225,0.0,0.0,0.0,0.005625,2
1672943963081500737,105177,1672943963093542799,gps,2,1,42.3009741738,-83.6980868247,272.220306396,0.001225,0.0,0.0,0.0,0.001225,0.0,0.0,0.0,0.005625,2
1672943963101473046,105178,1672943963113533527,gps,2,1,42.3009742094,-83.6980881971,272.217956543,0.001225,0.0,0.0,0.0,0.001225,0.0,0.0,0.0,0.005625,2
1672943963121283604,105179,1672943963133416975,gps,2,1,42.300974245,-83.6980895703,272.215576172,0.001225,0.0,0.0,0.0,0.001225,0.0,0.0,0.0,0.005625,2
1672943963141259736,105180,1672943963153353073,gps,2,1,42.30097428,-83.6980909467,272.213043213,0.001225,0.0,0.0,0.0,0.001225,0.0,0.0,0.0,0.005625,2
1672943963161211398,105181,1672943963173415349,gps,2,1,42.3009743141,-83.6980923191,272.21081543,0.001225,0.0,0.0,0.0,0.001225,0.0,0.0,0.0,0.005625,2
1672943963181210281,105182,1672943963193406140,gps,2,1,42.3009743475,-83.6980936923,272.208557129,0.001225,0.0,0.0,0.0,0.001225,0.0,0.0,0.0,0.005625,2
1672943963201298703,105183,1672943963213396415,gps,2,1,42.3009743826,-83.6980950684,272.20614624,0.001225,0.0,0.0,0.0,0.001225,0.0,0.0,0.0,0.005625,2
1672943963221440009,105184,1672943963233454400,gps,2,1,42.3009744172,-83.6980964419,272.204101562,0.001225,0.0,0.0,0.0,0.001225,0.0,0.0,0.0,0.005625,2
1672943963240925627,105185,1672943963253348906,gps,2,1,42.300974452,-83.6980978148,272.202026367,0.001225,0.0,0.0,0.0,0.001225,0.0,0.0,0.0,0.005625,2
1672943963261346135,105186,1672943963273423119,gps,2,1,42.300974489,-83.6980991905,272.199951172,0.001225,0.0,0.0,0.0,0.001225,0.0,0.0,0.0,0.005625,2
1672943963281360750,105187,1672943963293552366,gps,2,1,42.3009745256,-83.6981005633,272.198120117,0.001225,0.0,0.0,0.0,0.001225,0.0,0.0,0.0,0.005625,2
1672943963301193027,105188,1672943963313323112,gps,2,1,42.3009745629,-83.6981019362,272.196289062,0.001225,0.0,0.0,0.0,0.001225,0.0,0.0,0.0,0.005625,2
