%time,field.header.seq,field.header.stamp,field.header.frame_id,field.status.status,field.status.service,field.latitude,field.longitude,field.altitude,field.position_covariance0,field.position_covariance1,field.position_covariance2,field.position_covariance3,field.position_covariance4,field.position_covariance5,field.position_covariance6,field.position_covariance7,field.position_covariance8,field.position_covariance_type
1672944426477495902,128347,1672944426495567453,gps,2,1,42.3009691715,-83.6977764865,272.771392822,0.0009,0.0,0.0,0.0,0.0009,0.0,0.0,0.0,0.0049,2
1672944426497886585,128348,1672944426515569952,gps,2,1,42.3009691707,-83.6977764879,272.77130127,0.0009,0.0,0.0,0.0,0.0009,0.0,0.0,0.0,0.0049,2
1672944426517942645,128349,1672944426535575515,gps,2,1,42.3009691729,-83.6977764869,272.771331787,0.0009,0.0,0.0,0.0,0.0009,0.0,0.0,0.0,0.0049,2
1672944426537758076,128350,1672944426555664433,gps,2,1,42.300969171,-83.6977764894,272.771148682,0.0009,0.0,0.0,0.0,0.0009,0.0,0.0,0.0,0.0049,2
1672944426557685354,128351,1672944426575629910,gps,2,1,42.3009691693,-83.6977764918,272.770965576,0.0009,0.0,0.0,0.0,0.0009,0.0,0.0,0.0,0.0049,2
1672944426577957675,128352,1672944426595662372,gps,2,1,42.3009691714,-83.6977764911,272.771026611,0.0009,0.0,0.0,0.0,0.0009,0.0,0.0,0.0,0.0049,2
1672944426597473500,128353,1672944426615653288,gps,2,1,42.3009691701,-83.6977764921,272.770904541,0.0009,0.0,0.0,0.0,0.0009,0.0,0.0,0.0,0.0049,2
1672944426618155111,128354,1672944426635599744,gps,2,1,42.3009691689,-83.6977764931,272.770812988,0.0009,0.0,0.0,0.0,0.0009,0.0,0.0,0.0,0.0049,2
1672944426637973756,128355,1672944426655670434,gps,2,1,42.3009691708,-83.6977764922,272.770874023,0.0009,0.0,0.0,0.0,0.0009,0.0,0.0,0.0,0.0049,2
1672944426657906020,128356,1672944426675531083,gps,2,1,42.3009691696,-83.6977764928,272.770782471,0.0009,0.0,0.0,0.0,0.0009,0.0,0.0,0.0,0.0049,2
1672944426677904225,128357,1672944426695620755,gps,2,1,42.3009691686,-83.6977764934,272.770690918,0.0009,0.0,0.0,0.0,0.0009,0.0,0.0,0.0,0.0049,2
1672944426698173488,128358,1672944426715669927,gps,2,1,42.3009691705,-83.6977764922,272.770721436,0.0009,0.0,0.0,0.0,0.0009,0.0,0.0,0.0,0.0049,2
1672944426717944049,128359,1672944426735594842,gps,2,1,42.3009691698,-83.6977764931,272.770629883,0.0009,0.0,0.0,0.0,0.0009,0.0,0.0,0.0,0.0049,2
1672944426737706630,128360,1672944426755565296,gps,2,1,42.3009691691,-83.6977764939,272.770507812,0.0009,0.0,0.0,0.0,0.0009,0.0,0.0,0.0,0.0049,2
1672944426758095347,128361,1672944426775567665,gps,2,1,42.3009691711,-83.6977764925,272.770568848,0.0009,0.0,0.0,0.0,0.0009,0.0,0.0,0.0,0.0049,2
1672944426777479049,128362,1672944426795582167,gps,2,1,42.3009691705,-83.6977764931,272.770477295,0.0009,0.0,0.0,0.0,0.0009,0.0,0.0,0.0,0.0049,2
1672944426797790662,128363,1672944426815562529,gps,2,1,42.3009691702,-83.6977764935,272.77041626,0.0009,0.0,0.0,0.0,0.0009,0.0,0.0,0.0,0.0049,2
1672944426817842958,128364,1672944426835595659,gps,2,1,42.3009691724,-83.6977764923,272.77041626,0.0009,0.0,0.0,0.0,0.0009,0.0,0.0,0.0,0.0049,2
1672944426837689430,128365,1672944426855490585,gps,2,1,42.3009691709,-83.6977764941,272.770324707,0.0009,0.0,0.0,0.0,0.0009,0.0,0.0,0.0,0.0049,2
1672944426857656567,128366,1672944426875518168,gps,2,1,42.3009691695,-83.6977764958,272.770233154,0.0009,0.0,0.0,0.0,0.0009,0.0,0.0,0.0,0.0049,2
1672944426877432217,128367,1672944426895590233,gps,2,1,42.3009691717,-83.6977764954,272.770263672,0.0009,0.0,0.0,0.0,0.0009,0.0,0.0,0.0,0.0049,2
1672944426897838777,128368,1672944426915520785,gps,2,1,42.3009691703,-83.6977764988,272.770141602,0.0009,0.0,0.0,0.0,0.0009,0.0,0.0,0.0,0.0049,2
1672944426917767078,128369,1672944426935627820,gps,2,1,42.3009691696,-83.6977765013,272.770172119,0.0009,0.0,0.0,0.0,0.0009,0.0,0.0,0.0,0.0049,2
1672944426937725325,128370,1672944426955550995,gps,2,1,42.3009691716,-83.6977765038,272.770172119,0.0009,0.0,0.0,0.0,0.0009,0.0,0.0,0.0,0.0049,2
1672944426957940483,128371,1672944426975616644,gps,2,1,42.3009691711,-83.6977765104,272.770172119,0.0009,0.0,0.0,0.0,0.0009,0.0,0.0,0.0,0.0049,2
1672944426977700031,128372,1672944426995554165,gps,2,1,42.3009691696,-83.6977765162,272.770141602,0.0009,0.0,0.0,0.0,0.0009,0.0,0.0,0.0,0.0049,2
1672944426997734989,128373,1672944427015567215,gps,2,1,42.3009691714,-83.6977765232,272.770111084,0.0009,0.0,0.0,0.0,0.0009,0.0,0.0,0.0,0.0049,2
1672944427018310387,128374,1672944427035734985,gps,2,1,42.3009691701,-83.697776534,272.770111084,0.0009,0.0,0.0,0.0,0.0009,0.0,0.0,0.0,0.0049,2
1672944427037894264,128375,1672944427055648442,gps,2,1,42.3009691679,-83.6977765456,272.770172119,0.0009,0.0,0.0,0.0,0.0009,0.0,0.0,0.0,0.0049,2
1672944427057812712,128376,1672944427075630935,gps,2,1,42.3009691696,-83.6977765579,272.770141602,0.0009,0.0,0.0,0.0,0.0009,0.0,0.0,0.0,0.0049,2
1672944427077923902,128377,1672944427095670227,gps,2,1,42.3009691675,-83.6977765749,272.770233154,0.0009,0.0,0.0,0.0,0.0009,0.0,0.0,0.0,0.0049,2
1672944427098004422,128378,1672944427115663942,gps,2,1,42.3009691655,-83.6977765921,272.770294189,0.0009,0.0,0.0,0.0,0.0009,0.0,0.0,0.0,0.0049,2
1672944427117503802,128379,1672944427135594128,gps,2,1,42.3009691671,-83.6977766106,272.770263672,0.0009,0.0,0.0,0.0,0.0009,0.0,0.0,0.0,0.0049,2
1672944427137719228,128380,1672944427155796809,gps,2,1,42.3009691655,-83.6977766344,272.770294189,0.0009,0.0,0.0,0.0,0.0009,0.0,0.0,0.0,0.0049,2
1672944427157892928,128381,1672944427175645887,gps,2,1,42.300969164,-83.6977766583,272.770355225,0.0009,0.0,0.0,0.0,0.0009,0.0,0.0,0.0,0.0049,2
1672944427177787905,128382,1672944427195627211,gps,2,1,42.3009691655,-83.6977766836,272.770324707,0.0009,0.0,0.0,0.0,0.0009,0.0,0.0,0.0,0.0049,2
1672944427197428384,128383,1672944427215602185,gps,2,1,42.3009691641,-83.6977767142,272.770355225,0.0009,0.0,0.0,0.0,0.0009,0.0,0.0,0.0,0.0049,2
1672944427217775670,128384,1672944427235546317,gps,2,1,42.3009691617,-83.6977767449,272.77041626,0.0009,0.0,0.0,0.0,0.0009,0.0,0.0,0.0,0.0049,2
1672944427237814816,128385,1672944427255623349,gps,2,1,42.3009691631,-83.6977767778,272.770385742,0.0009,0.0,0.0,0.0,0.0009,0.0,0.0,0.0,0.0049,2
1672944427257471353,128386,1672944427275532145,gps,2,1,42.3009691608,-83.6977768166,272.770446777,0.0009,0.0,0.0,0.0,0.0009,0.0,0.0,0.0,0.0049,2
1672944427277453685,128387,1672944427295555675,gps,2,1,42.3009691585,-83.6977768558,272.770477295,0.0009,0.0,0.0,0.0,0.0009,0.0,0.0,0.0,0.0049,2
1672944427298108922,128388,1672944427315635518,gps,2,1,42.3009691598,-83.6977768981,272.77041626,0.0009,0.0,0.0,0.0,0.0009,0.0,0.0,0.0,0.0049,2
1672944427317433907,128389,1672944427335608809,gps,2,1,42.3009691579,-83.6977769481,272.770355225,0.0009,0.0,0.0,0.0,0.0009,0.0,0.0,0.0,0.0049,2
1672944427337446913,128390,1672944427355554569,gps,2,1,42.3009691561,-83.6977769985,272.770263672,0.0009,0.0,0.0,0.0,0.0009,0.0,0.0,0.0,0.0049,2
1672944427357980941,128391,1672944427375637769,gps,2,1,42.300969157,-83.697777052,272.770172119,0.0009,0.0,0.0,0.0,0.0009,0.0,0.0,0.0,0.0049,2
1672944427377746918,128392,1672944427395555406,gps,2,1,42.3009691549,-83.6977771139,272.770050049,0.0009,0.0,0.0,0.0,0.0009,0.0,0.0,0.0,0.0049,2
1672944427398051461,128393,1672944427415592092,gps,2,1,42.3009691529,-83.697777176,272.769927979,0.0009,0.0,0.0,0.0,0.0009,0.0,0.0,0.0,0.0049,2
1672944427417522972,128394,1672944427435630149,gps,2,1,42.3009691534,-83.6977772424,272.769775391,0.0009,0.0,0.0,0.0,0.0009,0.0,0.0,0.0,0.0049,2
1672944427437464827,128395,1672944427455574151,gps,2,1,42.3009691517,-83.6977773167,272.769683838,0.0009,0.0,0.0,0.0,0.0009,0.0,0.0,0.0,0.0049,2
1672944427457372469,128396,1672944427475566585,gps,2,1,42.3009691501,-83.6977773916,272.769561768,0.0009,0.0,0.0,0.0,0.0009,0.0,0.0,0.0,0.0049,2
1672944427477940385,128397,1672944427495624153,gps,2,1,42.3009691506,-83.6977774731,272.769348145,0.0009,0.0,0.0,0.0,0.0009,0.0,0.0,0.0,0.0049,2
1672944427497376464,128398,1672944427515561443,gps,2,1,42.3009691491,-83.6977775633,272.769165039,0.0009,0.0,0.0,0.0,0.0009,0.0,0.0,0.0,0.0049,2
1672944427517831556,128399,1672944427535613097,gps,2,1,42.3009691463,-83.6977776562,272.768951416,0.0009,0.0,0.0,0.0,0.0009,0.0,0.0,0.0,0.0049,2
1672944427537912845,128400,1672944427555696886,gps,2,1,42.3009691469,-83.6977777544,272.768676758,0.0009,0.0,0.0,0.0,0.0009,0.0,0.0,0.0,0.0049,2
1672944427558061134,128401,1672944427575706748,gps,2,1,42.3009691443,-83.6977778642,272.768432617,0.0009,0.0,0.0,0.0,0.0009,0.0,0.0,0.0,0.0049,2
1672944427577502853,128402,1672944427595681851,gps,2,1,42.3009691411,-83.6977779754,272.768218994,0.0009,0.0,0.0,0.0,0.0009,0.0,0.0,0.0,0.0049,2
1672944427597927473,128403,1672944427615568537,gps,2,1,42.3009691416,-83.6977780924,272.767913818,0.0009,0.0,0.0,0.0,0.0009,0.0,0.0,0.0,0.0049,2
1672944427617786337,128404,1672944427635688268,gps,2,1,42.3009691379,-83.6977782214,272.767791748,0.0009,0.0,0.0,0.0,0.0009,0.0,0.0,0.0,0.0049,2
1672944427638181881,128405,1672944427655692603,gps,2,1,42.3009691345,-83.6977783515,272.767669678,0.0009,0.0,0.0,0.0,0.0009,0.0,0.0,0.0,0.0049,2
1672944427657958696,128406,1672944427675660750,gps,2,1,42.3009691336,-83.6977784891,272.767425537,0.0009,0.0,0.0,0.0,0.0009,0.0,0.0,0.0,0.0049,2
1672944427678012098,128407,1672944427695636758,gps,2,1,42.3009691287,-83.69777864,272.767333984,0.0009,0.0,0.0,0.0,0.0009,0.0,0.0,0.0,0.0049,2
1672944427697536635,128408,1672944427715590434,gps,2,1,42.3009691238,-83.6977787922,272.767242432,0.0009,0.0,0.0,0.0,0.0009,0.0,0.0,0.0,0.0049,2
1672944427717950863,128409,1672944427735636054,gps,2,1,42.3009691216,-83.6977789521,272.766998291,0.0009,0.0,0.0,0.0,0.0009,0.0,0.0,0.0,0.0049,2
1672944427737780214,128410,1672944427755584371,gps,2,1,42.3009691157,-83.6977791264,272.766876221,0.0009,0.0,0.0,0.0,0.0009,0.0,0.0,0.0,0.0049,2
1672944427757725230,128411,1672944427775559419,gps,2,1,42.3009691099,-83.6977793012,272.76675415,0.0009,0.0,0.0,0.0,0.0009,0.0,0.0,0.0,0.0049,2
1672944427777798642,128412,1672944427795620504,gps,2,1,42.3009691079,-83.6977794834,272.76663208,0.001156,0.0,0.0,0.0,0.001156,0.0,0.0,0.0,0.005041,2
1672944427797571519,128413,1672944427815566068,gps,2,1,42.3009691028,-83.6977796799,272.766693115,0.001156,0.0,0.0,0.0,0.001156,0.0,0.0,0.0,0.005041,2
1672944427817759153,128414,1672944427835594668,gps,2,1,42.3009690988,-83.6977798774,272.766723633,0.001156,0.0,0.0,0.0,0.001156,0.0,0.0,0.0,0.005041,2
1672944427837663744,128415,1672944427855632409,gps,2,1,42.3009690976,-83.6977800834,272.766723633,0.001156,0.0,0.0,0.0,0.001156,0.0,0.0,0.0,0.005041,2
1672944427857573398,128416,1672944427875564245,gps,2,1,42.3009690942,-83.6977803048,272.76675415,0.001156,0.0,0.0,0.0,0.001156,0.0,0.0,0.0,0.005041,2
1672944427878117710,128417,1672944427895604601,gps,2,1,42.3009690908,-83.6977805274,272.766815186,0.001156,0.0,0.0,0.0,0.001156,0.0,0.0,0.0,0.005041,2
1672944427897557440,128418,1672944427915577269,gps,2,1,42.3009690894,-83.6977807592,272.766845703,0.001156,0.0,0.0,0.0,0.001156,0.0,0.0,0.0,0.005041,2
1672944427917896228,128419,1672944427935615852,gps,2,1,42.3009690852,-83.6977810086,272.766998291,0.001156,0.0,0.0,0.0,0.001156,0.0,0.0,0.0,0.005041,2
1672944427937755344,128420,1672944427955541725,gps,2,1,42.300969081,-83.6977812588,272.767089844,0.001156,0.0,0.0,0.0,0.001156,0.0,0.0,0.0,0.005041,2
1672944427957713917,128421,1672944427975624173,gps,2,1,42.3009690787,-83.6977815205,272.767089844,0.001156,0.0,0.0,0.0,0.001156,0.0,0.0,0.0,0.005041,2
1672944427977894070,128422,1672944427995597778,gps,2,1,42.3009690745,-83.6977818005,272.767028809,0.001156,0.0,0.0,0.0,0.001156,0.0,0.0,0.0,0.005041,2
1672944427997831781,128423,1672944428015576690,gps,2,1,42.3009690692,-83.6977820819,272.766906738,0.001156,0.0,0.0,0.0,0.001156,0.0,0.0,0.0,0.005041,2
1672944428018007488,128424,1672944428035682738,gps,2,1,42.3009690672,-83.6977823753,272.766662598,0.001156,0.0,0.0,0.0,0.001156,0.0,0.0,0.0,0.005041,2
1672944428037464525,128425,1672944428055627454,gps,2,1,42.3009690625,-83.6977826875,272.766143799,0.001156,0.0,0.0,0.0,0.001156,0.0,0.0,0.0,0.005041,2
1672944428057423499,128426,1672944428075602694,gps,2,1,42.3009690569,-83.6977830029,272.765594482,0.001156,0.0,0.0,0.0,0.001156,0.0,0.0,0.0,0.005041,2
1672944428077527527,128427,1672944428095613579,gps,2,1,42.3009690553,-83.6977833282,272.764923096,0.001156,0.0,0.0,0.0,0.001156,0.0,0.0,0.0,0.005041,2
1672944428097564592,128428,1672944428115628607,gps,2,1,42.3009690496,-83.6977836747,272.764007568,0.001156,0.0,0.0,0.0,0.001156,0.0,0.0,0.0,0.005041,2
1672944428117813001,128429,1672944428135566086,gps,2,1,42.300969044,-83.697784022,272.763092041,0.001156,0.0,0.0,0.0,0.001156,0.0,0.0,0.0,0.005041,2
1672944428137798498,128430,1672944428155755508,gps,2,1,42.3009690418,-83.697784381,272.762115479,0.001156,0.0,0.0,0.0,0.001156,0.0,0.0,0.0,0.005041,2
1672944428157740614,128431,1672944428175597108,gps,2,1,42.3009690358,-83.6977847605,272.760986328,0.001156,0.0,0.0,0.0,0.001156,0.0,0.0,0.0,0.005041,2
1672944428177790456,128432,1672944428195588478,gps,2,1,42.3009690298,-83.697785142,272.759796143,0.001156,0.0,0.0,0.0,0.001156,0.0,0.0,0.0,0.005041,2
1672944428197487814,128433,1672944428215632431,gps,2,1,42.3009690269,-83.6977855351,272.758636475,0.001156,0.0,0.0,0.0,0.001156,0.0,0.0,0.0,0.005041,2
1672944428217745218,128434,1672944428235567804,gps,2,1,42.3009690191,-83.69778595,272.757385254,0.001156,0.0,0.0,0.0,0.001156,0.0,0.0,0.0,0.005041,2
1672944428237799965,128435,1672944428255568832,gps,2,1,42.3009690111,-83.6977863672,272.756072998,0.001156,0.0,0.0,0.0,0.001156,0.0,0.0,0.0,0.005041,2
1672944428257821667,128436,1672944428275595638,gps,2,1,42.3009690069,-83.6977867956,272.754821777,0.001156,0.0,0.0,0.0,0.001156,0.0,0.0,0.0,0.005041,2
1672944428277525950,128437,1672944428295566112,gps,2,1,42.3009689982,-83.6977872459,272.753570557,0.001156,0.0,0.0,0.0,0.001156,0.0,0.0,0.0,0.005041,2
1672944428297643621,128438,1672944428315552310,gps,2,1,42.3009689894,-83.6977876977,272.752227783,0.001156,0.0,0.0,0.0,0.001156,0.0,0.0,0.0,0.005041,2
1672944428318261672,128439,1672944428335751469,gps,2,1,42.3009689843,-83.6977881612,272.75100708,0.001156,0.0,0.0,0.0,0.001156,0.0,0.0,0.0,0.005041,2
1672944428337435890,128440,1672944428355572658,gps,2,1,42.3009689751,-83.6977886473,272.749725342,0.001156,0.0,0.0,0.0,0.001156,0.0,0.0,0.0,0.005041,2
1672944428357680516,128441,1672944428375568324,gps,2,1,42.3009689657,-83.6977891342,272.748413086,0.001156,0.0,0.0,0.0,0.001156,0.0,0.0,0.0,0.005041,2
1672944428377779534,128442,1672944428395624880,gps,2,1,42.3009689603,-83.6977896335,272.747283936,0.001156,0.0,0.0,0.0,0.001156,0.0,0.0,0.0,0.005041,2
1672944428397731105,128443,1672944428415663062,gps,2,1,42.3009689513,-83.6977901543,272.74597168,0.001156,0.0,0.0,0.0,0.001156,0.0,0.0,0.0,0.005041,2
1672944428417593552,128444,1672944428435556740,gps,2,1,42.3009689438,-83.6977906753,272.744689941,0.001156,0.0,0.0,0.0,0.001156,0.0,0.0,0.0,0.005041,2
1672944428437452323,128445,1672944428455631301,gps,2,1,42.3009689391,-83.6977912091,272.743377686,0.001156,0.0,0.0,0.0,0.001156,0.0,0.0,0.0,0.005041,2
1672944428457852613,128446,1672944428475633709,gps,2,1,42.3009689324,-83.6977917627,272.742034912,0.001156,0.0,0.0,0.0,0.001156,0.0,0.0,0.0,0.005041,2
1672944428477712210,128447,1672944428495566319,gps,2,1,42.3009689254,-83.6977923213,272.740753174,0.001156,0.0,0.0,0.0,0.001156,0.0,0.0,0.0,0.005041,2
1672944428497697015,128448,1672944428515585052,gps,2,1,42.300968922,-83.6977928888,272.739379883,0.001156,0.0,0.0,0.0,0.001156,0.0,0.0,0.0,0.005041,2
1672944428517507818,128449,1672944428535639664,gps,2,1,42.3009689165,-83.6977934786,272.738006592,0.001156,0.0,0.0,0.0,0.001156,0.0,0.0,0.0,0.005041,2
1672944428537650846,128450,1672944428555707630,gps,2,1,42.300968911,-83.6977940703,272.736450195,0.001156,0.0,0.0,0.0,0.001156,0.0,0.0,0.0,0.005041,2
1672944428557918156,128451,1672944428575658352,gps,2,1,42.3009689092,-83.6977946717,272.735107422,0.001156,0.0,0.0,0.0,0.001156,0.0,0.0,0.0,0.005041,2
1672944428577479689,128452,1672944428595572843,gps,2,1,42.3009689041,-83.6977952964,272.73336792,0.001156,0.0,0.0,0.0,0.001156,0.0,0.0,0.0,0.005041,2
1672944428597784016,128453,1672944428615614112,gps,2,1,42.3009688991,-83.697795921,272.731689453,0.001156,0.0,0.0,0.0,0.001156,0.0,0.0,0.0,0.005041,2
1672944428617764630,128454,1672944428635651327,gps,2,1,42.3009688983,-83.6977965556,272.730133057,0.001156,0.0,0.0,0.0,0.001156,0.0,0.0,0.0,0.005041,2
1672944428637829816,128455,1672944428655719420,gps,2,1,42.3009688923,-83.6977972105,272.728393555,0.001156,0.0,0.0,0.0,0.001156,0.0,0.0,0.0,0.005041,2
1672944428657560351,128456,1672944428675552445,gps,2,1,42.3009688871,-83.6977978677,272.726623535,0.001156,0.0,0.0,0.0,0.001156,0.0,0.0,0.0,0.005041,2
1672944428677637710,128457,1672944428695620948,gps,2,1,42.3009688864,-83.6977985334,272.725067139,0.001156,0.0,0.0,0.0,0.001156,0.0,0.0,0.0,0.005041,2
1672944428698056662,128458,1672944428715667425,gps,2,1,42.300968881,-83.6977992196,272.723175049,0.001156,0.0,0.0,0.0,0.001156,0.0,0.0,0.0,0.005041,2
1672944428717794646,128459,1672944428735568089,gps,2,1,42.3009688744,-83.6977999089,272.721588135,0.001156,0.0,0.0,0.0,0.001156,0.0,0.0,0.0,0.005041,2
1672944428737483651,128460,1672944428755582143,gps,2,1,42.3009688732,-83.6978006048,272.719848633,0.001156,0.0,0.0,0.0,0.001156,0.0,0.0,0.0,0.005041,2
1672944428758160755,128461,1672944428775647434,gps,2,1,42.3009688664,-83.6978013232,272.718048096,0.001156,0.0,0.0,0.0,0.001156,0.0,0.0,0.0,0.005041,2
1672944428777886084,128462,1672944428795563856,gps,2,1,42.3009688594,-83.6978020368,272.716156006,0.001156,0.0,0.0,0.0,0.001156,0.0,0.0,0.0,0.005041,2
1672944428797653605,128463,1672944428815632422,gps,2,1,42.3009688596,-83.6978027647,272.714111328,0.001156,0.0,0.0,0.0,0.001156,0.0,0.0,0.0,0.005041,2
1672944428817680172,128464,1672944428835710867,gps,2,1,42.3009688531,-83.6978035104,272.71182251,0.001156,0.0,0.0,0.0,0.001156,0.0,0.0,0.0,0.005041,2
1672944428837611216,128465,1672944428855538600,gps,2,1,42.3009688489,-83.6978042555,272.709747314,0.001156,0.0,0.0,0.0,0.001156,0.0,0.0,0.0,0.005041,2
1672944428857472368,128466,1672944428875655760,gps,2,1,42.3009688486,-83.6978050124,272.707672119,0.001156,0.0,0.0,0.0,0.001156,0.0,0.0,0.0,0.005041,2
1672944428877812561,128467,1672944428895581347,gps,2,1,42.3009688423,-83.6978057824,272.705627441,0.001156,0.0,0.0,0.0,0.001156,0.0,0.0,0.0,0.005041,2
1672944428897814749,128468,1672944428915553746,gps,2,1,42.300968837,-83.697806561,272.703613281,0.001156,0.0,0.0,0.0,0.001156,0.0,0.0,0.0,0.005041,2
1672944428917945958,128469,1672944428935589724,gps,2,1,42.3009688361,-83.6978073419,272.701629639,0.001156,0.0,0.0,0.0,0.001156,0.0,0.0,0.0,0.005041,2
1672944428937877622,128470,1672944428955573021,gps,2,1,42.3009688301,-83.6978081438,272.699829102,0.001156,0.0,0.0,0.0,0.001156,0.0,0.0,0.0,0.005041,2
1672944428958083122,128471,1672944428975581974,gps,2,1,42.3009688236,-83.6978089458,272.698059082,0.001156,0.0,0.0,0.0,0.001156,0.0,0.0,0.0,0.005041,2
1672944428977577993,128472,1672944428995631357,gps,2,1,42.3009688225,-83.6978097506,272.696350098,0.001156,0.0,0.0,0.0,0.001156,0.0,0.0,0.0,0.005041,2
1672944428997669150,128473,1672944429015539521,gps,2,1,42.3009688179,-83.6978105757,272.694793701,0.001156,0.0,0.0,0.0,0.001156,0.0,0.0,0.0,0.005041,2
1672944429017560501,128474,1672944429035592770,gps,2,1,42.3009688122,-83.697811395,272.693328857,0.001156,0.0,0.0,0.0,0.001156,0.0,0.0,0.0,0.005041,2
1672944429037955772,128475,1672944429055772784,gps,2,1,42.3009688124,-83.6978122237,272.691955566,0.001156,0.0,0.0,0.0,0.001156,0.0,0.0,0.0,0.005041,2
1672944429058019913,128476,1672944429075619905,gps,2,1,42.3009688078,-83.6978130676,272.690948486,0.001156,0.0,0.0,0.0,0.001156,0.0,0.0,0.0,0.005041,2
1672944429077775234,128477,1672944429095660269,gps,2,1,42.3009688022,-83.6978139115,272.689971924,0.001156,0.0,0.0,0.0,0.001156,0.0,0.0,0.0,0.005041,2
1672944429097579500,128478,1672944429115759164,gps,2,1,42.3009688037,-83.697814763,272.688842773,0.001156,0.0,0.0,0.0,0.001156,0.0,0.0,0.0,0.005041,2
1672944429117861491,128479,1672944429135577763,gps,2,1,42.3009688003,-83.6978156289,272.688079834,0.001156,0.0,0.0,0.0,0.001156,0.0,0.0,0.0,0.005041,2
1672944429137675190,128480,1672944429155695979,gps,2,1,42.3009687943,-83.6978164952,272.687347412,0.001156,0.0,0.0,0.0,0.001156,0.0,0.0,0.0,0.005041,2
1672944429157978433,128481,1672944429175637531,gps,2,1,42.3009687962,-83.6978173698,272.686401367,0.001156,0.0,0.0,0.0,0.001156,0.0,0.0,0.0,0.005041,2
1672944429177729001,128482,1672944429195551537,gps,2,1,42.3009687937,-83.69781826,272.68548584,0.001156,0.0,0.0,0.0,0.001156,0.0,0.0,0.0,0.005041,2
1672944429197784554,128483,1672944429215618848,gps,2,1,42.300968788,-83.6978191507,272.684631348,0.001156,0.0,0.0,0.0,0.001156,0.0,0.0,0.0,0.005041,2
1672944429217478910,128484,1672944429235625690,gps,2,1,42.3009687905,-83.6978200493,272.683502197,0.001156,0.0,0.0,0.0,0.001156,0.0,0.0,0.0,0.005041,2
1672944429237659764,128485,1672944429255574697,gps,2,1,42.3009687886,-83.6978209619,272.682373047,0.001156,0.0,0.0,0.0,0.001156,0.0,0.0,0.0,0.005041,2
1672944429257540894,128486,1672944429275568671,gps,2,1,42.3009687867,-83.6978218723,272.681396484,0.001156,0.0,0.0,0.0,0.001156,0.0,0.0,0.0,0.005041,2
1672944429277910209,128487,1672944429295628592,gps,2,1,42.3009687887,-83.6978227936,272.680145264,0.001156,0.0,0.0,0.0,0.001156,0.0,0.0,0.0,0.005041,2
1672944429297643108,128488,1672944429315572067,gps,2,1,42.3009687859,-83.6978237267,272.678863525,0.001156,0.0,0.0,0.0,0.001156,0.0,0.0,0.0,0.005041,2
1672944429318267400,128489,1672944429335705839,gps,2,1,42.300968783,-83.6978246592,272.67767334,0.001156,0.0,0.0,0.0,0.001156,0.0,0.0,0.0,0.005041,2
1672944429337842131,128490,1672944429355597786,gps,2,1,42.3009687852,-83.6978256007,272.676116943,0.001156,0.0,0.0,0.0,0.001156,0.0,0.0,0.0,0.005041,2
1672944429357807958,128491,1672944429375528059,gps,2,1,42.3009687814,-83.6978265512,272.674804688,0.001156,0.0,0.0,0.0,0.001156,0.0,0.0,0.0,0.005041,2
1672944429377891360,128492,1672944429395566371,gps,2,1,42.3009687793,-83.6978275031,272.673492432,0.001156,0.0,0.0,0.0,0.001156,0.0,0.0,0.0,0.005041,2
1672944429397606319,128493,1672944429415601547,gps,2,1,42.3009687819,-83.6978284622,272.671936035,0.001156,0.0,0.0,0.0,0.001156,0.0,0.0,0.0,0.005041,2
1672944429417704996,128494,1672944429435537927,gps,2,1,42.3009687803,-83.6978294351,272.67074585,0.001156,0.0,0.0,0.0,0.001156,0.0,0.0,0.0,0.005041,2
1672944429437443062,128495,1672944429455552976,gps,2,1,42.3009687778,-83.6978304077,272.669616699,0.001156,0.0,0.0,0.0,0.001156,0.0,0.0,0.0,0.005041,2
1672944429457778485,128496,1672944429475615245,gps,2,1,42.3009687803,-83.6978313836,272.668487549,0.001156,0.0,0.0,0.0,0.001156,0.0,0.0,0.0,0.005041,2
1672944429477801297,128497,1672944429495616515,gps,2,1,42.3009687796,-83.6978323725,272.667724609,0.001156,0.0,0.0,0.0,0.001156,0.0,0.0,0.0,0.005041,2
1672944429497802360,128498,1672944429515571613,gps,2,1,42.3009687792,-83.6978333624,272.666870117,0.001156,0.0,0.0,0.0,0.001156,0.0,0.0,0.0,0.005041,2
1672944429517711987,128499,1672944429535701262,gps,2,1,42.3009687837,-83.697834356,272.665924072,0.001156,0.0,0.0,0.0,0.001156,0.0,0.0,0.0,0.005041,2
1672944429538014305,128500,1672944429555632833,gps,2,1,42.3009687855,-83.6978353591,272.665130615,0.001156,0.0,0.0,0.0,0.001156,0.0,0.0,0.0,0.005041,2
1672944429557452918,128501,1672944429575606970,gps,2,1,42.3009687857,-83.6978363632,272.664642334,0.001156,0.0,0.0,0.0,0.001156,0.0,0.0,0.0,0.005041,2
1672944429577726046,128502,1672944429595684934,gps,2,1,42.3009687903,-83.6978373745,272.663452148,0.001156,0.0,0.0,0.0,0.001156,0.0,0.0,0.0,0.005041,2
1672944429597835409,128503,1672944429615555484,gps,2,1,42.3009687913,-83.6978383981,272.66217041,0.001156,0.0,0.0,0.0,0.001156,0.0,0.0,0.0,0.005041,2
1672944429617964651,128504,1672944429635621483,gps,2,1,42.3009687909,-83.6978394213,272.66104126,0.001156,0.0,0.0,0.0,0.001156,0.0,0.0,0.0,0.005041,2
1672944429637803126,128505,1672944429655737922,gps,2,1,42.3009687971,-83.697840451,272.659301758,0.001156,0.0,0.0,0.0,0.001156,0.0,0.0,0.0,0.005041,2
1672944429657909133,128506,1672944429675626054,gps,2,1,42.3009687977,-83.6978414899,272.658355713,0.001156,0.0,0.0,0.0,0.001156,0.0,0.0,0.0,0.005041,2
1672944429677655236,128507,1672944429695604485,gps,2,1,42.3009687976,-83.6978425298,272.65725708,0.001156,0.0,0.0,0.0,0.001156,0.0,0.0,0.0,0.005041,2
1672944429697565442,128508,1672944429715559041,gps,2,1,42.3009688037,-83.6978435766,272.656341553,0.001156,0.0,0.0,0.0,0.001156,0.0,0.0,0.0,0.005041,2
1672944429717670061,128509,1672944429735642987,gps,2,1,42.3009688058,-83.697844632,272.656280518,0.001156,0.0,0.0,0.0,0.001156,0.0,0.0,0.0,0.005041,2
1672944429737889850,128510,1672944429755568754,gps,2,1,42.3009688077,-83.6978456897,272.656188965,0.001156,0.0,0.0,0.0,0.001156,0.0,0.0,0.0,0.005041,2
1672944429757717803,128511,1672944429775633313,gps,2,1,42.3009688128,-83.697846753,272.656005859,0.001156,0.0,0.0,0.0,0.001156,0.0,0.0,0.0,0.005041,2
1672944429777630174,128512,1672944429795574421,gps,2,1,42.3009688138,-83.6978478268,272.656555176,0.001156,0.0,0.0,0.0,0.001156,0.0,0.0,0.0,0.005041,2
1672944429797529627,128513,1672944429815617500,gps,2,1,42.3009688152,-83.6978489005,272.657104492,0.001156,0.0,0.0,0.0,0.001156,0.0,0.0,0.0,0.005041,2
1672944429818067218,128514,1672944429835793997,gps,2,1,42.3009688203,-83.6978499808,272.657287598,0.001156,0.0,0.0,0.0,0.001156,0.0,0.0,0.0,0.005041,2
1672944429837702246,128515,1672944429855541569,gps,2,1,42.3009688204,-83.6978510706,272.657928467,0.001156,0.0,0.0,0.0,0.001156,0.0,0.0,0.0,0.005041,2
1672944429857553520,128516,1672944429875624441,gps,2,1,42.3009688211,-83.6978521608,272.658508301,0.001156,0.0,0.0,0.0,0.001156,0.0,0.0,0.0,0.005041,2
1672944429877461073,128517,1672944429895632685,gps,2,1,42.3009688263,-83.6978532566,272.658477783,0.001156,0.0,0.0,0.0,0.001156,0.0,0.0,0.0,0.005041,2
1672944429897653683,128518,1672944429915534059,gps,2,1,42.3009688277,-83.6978543635,272.658447266,0.001156,0.0,0.0,0.0,0.001156,0.0,0.0,0.0,0.005041,2
1672944429917845336,128519,1672944429935534958,gps,2,1,42.3009688282,-83.6978554667,272.658416748,0.001156,0.0,0.0,0.0,0.001156,0.0,0.0,0.0,0.005041,2
1672944429937885408,128520,1672944429955636170,gps,2,1,42.3009688332,-83.6978565772,272.657989502,0.001156,0.0,0.0,0.0,0.001156,0.0,0.0,0.0,0.005041,2
1672944429957667866,128521,1672944429975624985,gps,2,1,42.3009688345,-83.6978576961,272.657653809,0.001156,0.0,0.0,0.0,0.001156,0.0,0.0,0.0,0.005041,2
1672944429977706032,128522,1672944429995566819,gps,2,1,42.300968834,-83.6978588177,272.657287598,0.001156,0.0,0.0,0.0,0.001156,0.0,0.0,0.0,0.005041,2
1672944429997622578,128523,1672944430015542339,gps,2,1,42.3009688393,-83.6978599418,272.656402588,0.001156,0.0,0.0,0.0,0.001156,0.0,0.0,0.0,0.005041,2
1672944430017880701,128524,1672944430035648947,gps,2,1,42.3009688401,-83.6978610771,272.655609131,0.001156,0.0,0.0,0.0,0.001156,0.0,0.0,0.0,0.005041,2
1672944430037802925,128525,1672944430055635965,gps,2,1,42.3009688389,-83.6978622154,272.654418945,0.001156,0.0,0.0,0.0,0.001156,0.0,0.0,0.0,0.005041,2
1672944430057840085,128526,1672944430075653657,gps,2,1,42.3009688455,-83.6978633528,272.653503418,0.001156,0.0,0.0,0.0,0.001156,0.0,0.0,0.0,0.005041,2
1672944430077527430,128527,1672944430095664964,gps,2,1,42.300968846,-83.6978645037,272.652770996,0.001156,0.0,0.0,0.0,0.001156,0.0,0.0,0.0,0.005041,2
1672944430097652258,128528,1672944430115640948,gps,2,1,42.3009688482,-83.697865652,272.652099609,0.001156,0.0,0.0,0.0,0.001156,0.0,0.0,0.0,0.005041,2
1672944430117684982,128529,1672944430135499976,gps,2,1,42.3009688555,-83.6978668031,272.651794434,0.001156,0.0,0.0,0.0,0.001156,0.0,0.0,0.0,0.005041,2
1672944430137612155,128530,1672944430155738520,gps,2,1,42.3009688581,-83.6978679644,272.651672363,0.001156,0.0,0.0,0.0,0.001156,0.0,0.0,0.0,0.005041,2
1672944430157793102,128531,1672944430175558088,gps,2,1,42.3009688607,-83.6978691263,272.651580811,0.001156,0.0,0.0,0.0,0.001156,0.0,0.0,0.0,0.005041,2
1672944430177547756,128532,1672944430195562741,gps,2,1,42.3009688681,-83.6978702909,272.651550293,0.001156,0.0,0.0,0.0,0.001156,0.0,0.0,0.0,0.005041,2
1672944430197704692,128533,1672944430215521527,gps,2,1,42.3009688715,-83.6978714647,272.651489258,0.001156,0.0,0.0,0.0,0.001156,0.0,0.0,0.0,0.005041,2
1672944430217823350,128534,1672944430235507143,gps,2,1,42.3009688751,-83.6978726399,272.651428223,0.001156,0.0,0.0,0.0,0.001156,0.0,0.0,0.0,0.005041,2
1672944430237444509,128535,1672944430255618067,gps,2,1,42.3009688824,-83.6978738164,272.65133667,0.001156,0.0,0.0,0.0,0.001156,0.0,0.0,0.0,0.005041,2
1672944430257672863,128536,1672944430275537406,gps,2,1,42.3009688866,-83.697875002,272.651123047,0.001156,0.0,0.0,0.0,0.001156,0.0,0.0,0.0,0.005041,2
1672944430277287168,128537,1672944430295581528,gps,2,1,42.3009688909,-83.6978761882,272.650878906,0.001156,0.0,0.0,0.0,0.001156,0.0,0.0,0.0,0.005041,2
1672944430297298549,128538,1672944430315586666,gps,2,1,42.3009688989,-83.6978773767,272.65057373,0.001156,0.0,0.0,0.0,0.001156,0.0,0.0,0.0,0.005041,2
1672944430317502863,128539,1672944430335617289,gps,2,1,42.3009689011,-83.697878576,272.649902344,0.001156,0.0,0.0,0.0,0.001156,0.0,0.0,0.0,0.005041,2
1672944430337751514,128540,1672944430355530517,gps,2,1,42.3009689032,-83.6978797757,272.649200439,0.001156,0.0,0.0,0.0,0.001156,0.0,0.0,0.0,0.005041,2
1672944430357910463,128541,1672944430375619210,gps,2,1,42.3009689113,-83.6978809762,272.648498535,0.001156,0.0,0.0,0.0,0.001156,0.0,0.0,0.0,0.005041,2
1672944430377768976,128542,1672944430395568671,gps,2,1,42.3009689132,-83.6978821879,272.64730835,0.001156,0.0,0.0,0.0,0.001156,0.0,0.0,0.0,0.005041,2
1672944430397637449,128543,1672944430415534367,gps,2,1,42.3009689138,-83.6978834008,272.646026611,0.001156,0.0,0.0,0.0,0.001156,0.0,0.0,0.0,0.005041,2
1672944430417732587,128544,1672944430435619413,gps,2,1,42.300968921,-83.6978846139,272.644714355,0.001156,0.0,0.0,0.0,0.001156,0.0,0.0,0.0,0.005041,2
1672944430437412813,128545,1672944430455570614,gps,2,1,42.3009689211,-83.6978858392,272.642852783,0.001156,0.0,0.0,0.0,0.001156,0.0,0.0,0.0,0.005041,2
1672944430457761422,128546,1672944430475520889,gps,2,1,42.3009689214,-83.6978870647,272.640991211,0.001156,0.0,0.0,0.0,0.001156,0.0,0.0,0.0,0.005041,2
1672944430477362999,128547,1672944430495567149,gps,2,1,42.3009689281,-83.6978882906,272.639221191,0.001156,0.0,0.0,0.0,0.001156,0.0,0.0,0.0,0.005041,2
1672944430497849677,128548,1672944430515556984,gps,2,1,42.3009689282,-83.6978895278,272.636993408,0.001156,0.0,0.0,0.0,0.001156,0.0,0.0,0.0,0.005041,2
1672944430517788478,128549,1672944430535550817,gps,2,1,42.3009689266,-83.6978907652,272.63482666,0.001156,0.0,0.0,0.0,0.001156,0.0,0.0,0.0,0.005041,2
1672944430537972187,128550,1672944430555713844,gps,2,1,42.3009689333,-83.697892003,272.632873535,0.001156,0.0,0.0,0.0,0.001156,0.0,0.0,0.0,0.005041,2
1672944430557876429,128551,1672944430575604231,gps,2,1,42.3009689321,-83.6978932511,272.630828857,0.001156,0.0,0.0,0.0,0.001156,0.0,0.0,0.0,0.005041,2
1672944430577761848,128552,1672944430595662206,gps,2,1,42.3009689294,-83.6978945016,272.628356934,0.001156,0.0,0.0,0.0,0.001156,0.0,0.0,0.0,0.005041,2
1672944430597447815,128553,1672944430615640895,gps,2,1,42.3009689362,-83.6978957513,272.626556396,0.001156,0.0,0.0,0.0,0.001156,0.0,0.0,0.0,0.005041,2
1672944430617340802,128554,1672944430635593072,gps,2,1,42.3009689337,-83.6978970106,272.624237061,0.001156,0.0,0.0,0.0,0.001156,0.0,0.0,0.0,0.005041,2
1672944430637729683,128555,1672944430655695960,gps,2,1,42.3009689314,-83.6978982704,272.621887207,0.001156,0.0,0.0,0.0,0.001156,0.0,0.0,0.0,0.005041,2
1672944430657634233,128556,1672944430675582865,gps,2,1,42.3009689385,-83.6978995319,272.620269775,0.001156,0.0,0.0,0.0,0.001156,0.0,0.0,0.0,0.005041,2
1672944430677592096,128557,1672944430695584749,gps,2,1,42.3009689372,-83.6979008027,272.618103027,0.001156,0.0,0.0,0.0,0.001156,0.0,0.0,0.0,0.005041,2
1672944430697531428,128558,1672944430715607857,gps,2,1,42.3009689363,-83.6979020744,272.615966797,0.001156,0.0,0.0,0.0,0.001156,0.0,0.0,0.0,0.005041,2
1672944430717419744,128559,1672944430735641152,gps,2,1,42.3009689443,-83.6979033474,272.614501953,0.001156,0.0,0.0,0.0,0.001156,0.0,0.0,0.0,0.005041,2
1672944430737393086,128560,1672944430755580922,gps,2,1,42.3009689456,-83.6979046292,272.612609863,0.001156,0.0,0.0,0.0,0.001156,0.0,0.0,0.0,0.005041,2
1672944430757644268,128561,1672944430775557397,gps,2,1,42.300968947,-83.6979059116,272.610717773,0.001156,0.0,0.0,0.0,0.001156,0.0,0.0,0.0,0.005041,2
1672944430777672937,128562,1672944430795663215,gps,2,1,42.3009689551,-83.6979071953,272.60949707,0.001156,0.0,0.0,0.0,0.001156,0.0,0.0,0.0,0.005041,2
1672944430797798290,128563,1672944430815521539,gps,2,1,42.3009689562,-83.6979084878,272.607940674,0.001156,0.0,0.0,0.0,0.001156,0.0,0.0,0.0,0.005041,2
1672944430817777160,128564,1672944430835673628,gps,2,1,42.3009689596,-83.697909781,272.606292725,0.001156,0.0,0.0,0.0,0.001156,0.0,0.0,0.0,0.005041,2
1672944430837503754,128565,1672944430855734316,gps,2,1,42.3009689664,-83.6979110765,272.605285645,0.001156,0.0,0.0,0.0,0.001156,0.0,0.0,0.0,0.005041,2
1672944430857897994,128566,1672944430875586372,gps,2,1,42.3009689684,-83.6979123804,272.603820801,0.001156,0.0,0.0,0.0,0.001156,0.0,0.0,0.0,0.005041,2
1672944430877810803,128567,1672944430895549330,gps,2,1,42.3009689703,-83.6979136873,272.602203369,0.001156,0.0,0.0,0.0,0.001156,0.0,0.0,0.0,0.005041,2
1672944430897642039,128568,1672944430915584664,gps,2,1,42.3009689759,-83.6979149948,272.601043701,0.001156,0.0,0.0,0.0,0.001156,0.0,0.0,0.0,0.005041,2
1672944430917756257,128569,1672944430935583956,gps,2,1,42.3009689741,-83.697916315,272.599243164,0.001156,0.0,0.0,0.0,0.001156,0.0,0.0,0.0,0.005041,2
1672944430937637780,128570,1672944430955571424,gps,2,1,42.3009689723,-83.6979176354,272.597412109,0.001156,0.0,0.0,0.0,0.001156,0.0,0.0,0.0,0.005041,2
1672944430957727621,128571,1672944430975626041,gps,2,1,42.3009689769,-83.6979189573,272.595703125,0.001156,0.0,0.0,0.0,0.001156,0.0,0.0,0.0,0.005041,2
1672944430977805498,128572,1672944430995555034,gps,2,1,42.3009689752,-83.6979202903,272.593322754,0.001156,0.0,0.0,0.0,0.001156,0.0,0.0,0.0,0.005041,2
1672944430997622713,128573,1672944431015546929,gps,2,1,42.3009689729,-83.6979216208,272.590881348,0.001156,0.0,0.0,0.0,0.001156,0.0,0.0,0.0,0.005041,2
1672944431017624848,128574,1672944431035581128,gps,2,1,42.3009689773,-83.6979229561,272.588562012,0.001156,0.0,0.0,0.0,0.001156,0.0,0.0,0.0,0.005041,2
1672944431037752477,128575,1672944431055650475,gps,2,1,42.3009689758,-83.6979243001,272.585723877,0.001156,0.0,0.0,0.0,0.001156,0.0,0.0,0.0,0.005041,2
1672944431057687912,128576,1672944431075670892,gps,2,1,42.3009689741,-83.6979256457,272.582672119,0.001156,0.0,0.0,0.0,0.001156,0.0,0.0,0.0,0.005041,2
1672944431077594107,128577,1672944431095716512,gps,2,1,42.3009689788,-83.6979269939,272.580169678,0.001156,0.0,0.0,0.0,0.001156,0.0,0.0,0.0,0.005041,2
1672944431097605736,128578,1672944431115612510,gps,2,1,42.3009689778,-83.6979283522,272.577209473,0.001156,0.0,0.0,0.0,0.001156,0.0,0.0,0.0,0.005041,2
1672944431117426673,128579,1672944431135581760,gps,2,1,42.300968979,-83.6979297111,272.574279785,0.001156,0.0,0.0,0.0,0.001156,0.0,0.0,0.0,0.005041,2
1672944431137891247,128580,1672944431155795830,gps,2,1,42.3009689836,-83.6979310725,272.571899414,0.001156,0.0,0.0,0.0,0.001156,0.0,0.0,0.0,0.005041,2
1672944431157230940,128581,1672944431175554137,gps,2,1,42.3009689839,-83.6979324435,272.569244385,0.001156,0.0,0.0,0.0,0.001156,0.0,0.0,0.0,0.005041,2
1672944431177590986,128582,1672944431195612265,gps,2,1,42.3009689843,-83.6979338146,272.566589355,0.001156,0.0,0.0,0.0,0.001156,0.0,0.0,0.0,0.005041,2
1672944431197632398,128583,1672944431215599463,gps,2,1,42.3009689871,-83.6979351892,272.564453125,0.001156,0.0,0.0,0.0,0.001156,0.0,0.0,0.0,0.005041,2
1672944431217574019,128584,1672944431235591732,gps,2,1,42.3009689834,-83.6979365726,272.561920166,0.001156,0.0,0.0,0.0,0.001156,0.0,0.0,0.0,0.005041,2
1672944431237479371,128585,1672944431255517983,gps,2,1,42.3009689797,-83.6979379562,272.559417725,0.001156,0.0,0.0,0.0,0.001156,0.0,0.0,0.0,0.005041,2
1672944431257139116,128586,1672944431275588052,gps,2,1,42.3009689802,-83.6979393428,272.557434082,0.001156,0.0,0.0,0.0,0.001156,0.0,0.0,0.0,0.005041,2
1672944431277623476,128587,1672944431295583263,gps,2,1,42.3009689742,-83.6979407378,272.555267334,0.001156,0.0,0.0,0.0,0.001156,0.0,0.0,0.0,0.005041,2
1672944431297354727,128588,1672944431315570351,gps,2,1,42.3009689668,-83.69794213,272.553192139,0.001156,0.0,0.0,0.0,0.001156,0.0,0.0,0.0,0.005041,2
1672944431317776694,128589,1672944431335777017,gps,2,1,42.300968964,-83.6979435283,272.551635742,0.001156,0.0,0.0,0.0,0.001156,0.0,0.0,0.0,0.005041,2
1672944431337658897,128590,1672944431355644442,gps,2,1,42.3009689536,-83.6979449321,272.549804688,0.001156,0.0,0.0,0.0,0.001156,0.0,0.0,0.0,0.005041,2
1672944431357369716,128591,1672944431375570125,gps,2,1,42.3009689429,-83.6979463359,272.548034668,0.001156,0.0,0.0,0.0,0.001156,0.0,0.0,0.0,0.005041,2
1672944431377485101,128592,1672944431395610614,gps,2,1,42.3009689366,-83.6979477458,272.546508789,0.001156,0.0,0.0,0.0,0.001156,0.0,0.0,0.0,0.005041,2
1672944431397401298,128593,1672944431415619729,gps,2,1,42.3009689233,-83.697949161,272.544494629,0.001156,0.0,0.0,0.0,0.001156,0.0,0.0,0.0,0.005041,2
1672944431417702379,128594,1672944431435610623,gps,2,1,42.3009689107,-83.6979505801,272.542358398,0.001156,0.0,0.0,0.0,0.001156,0.0,0.0,0.0,0.005041,2
1672944431437688606,128595,1672944431455659784,gps,2,1,42.3009689028,-83.6979520017,272.540222168,0.001156,0.0,0.0,0.0,0.001156,0.0,0.0,0.0,0.005041,2
1672944431457635426,128596,1672944431475641446,gps,2,1,42.3009688895,-83.697953432,272.537384033,0.001156,0.0,0.0,0.0,0.001156,0.0,0.0,0.0,0.005041,2
1672944431477594061,128597,1672944431495575212,gps,2,1,42.3009688752,-83.6979548624,272.534606934,0.001156,0.0,0.0,0.0,0.001156,0.0,0.0,0.0,0.005041,2
1672944431497564666,128598,1672944431515675939,gps,2,1,42.3009688668,-83.6979562956,272.531768799,0.001156,0.0,0.0,0.0,0.001156,0.0,0.0,0.0,0.005041,2
1672944431517646785,128599,1672944431535731022,gps,2,1,42.3009688523,-83.6979577372,272.528411865,0.001156,0.0,0.0,0.0,0.001156,0.0,0.0,0.0,0.005041,2
1672944431537629341,128600,1672944431555642769,gps,2,1,42.3009688372,-83.6979591805,272.524902344,0.001156,0.0,0.0,0.0,0.001156,0.0,0.0,0.0,0.005041,2
1672944431557721229,128601,1672944431575723759,gps,2,1,42.3009688278,-83.6979606251,272.52154541,0.001156,0.0,0.0,0.0,0.001156,0.0,0.0,0.0,0.005041,2
1672944431577782273,128602,1672944431595674371,gps,2,1,42.3009688117,-83.6979620793,272.517608643,0.001156,0.0,0.0,0.0,0.001156,0.0,0.0,0.0,0.005041,2
1672944431597703962,128603,1672944431615578874,gps,2,1,42.3009687962,-83.6979635319,272.513641357,0.001156,0.0,0.0,0.0,0.001156,0.0,0.0,0.0,0.005041,2
1672944431617667291,128604,1672944431635669968,gps,2,1,42.3009687854,-83.6979649886,272.509979248,0.001156,0.0,0.0,0.0,0.001156,0.0,0.0,0.0,0.005041,2
1672944431637696626,128605,1672944431655614784,gps,2,1,42.3009687683,-83.6979664532,272.505889893,0.001156,0.0,0.0,0.0,0.001156,0.0,0.0,0.0,0.005041,2
1672944431657520378,128606,1672944431675608402,gps,2,1,42.3009687514,-83.6979679186,272.501800537,0.001156,0.0,0.0,0.0,0.001156,0.0,0.0,0.0,0.005041,2
1672944431677585770,128607,1672944431695642494,gps,2,1,42.3009687386,-83.6979693876,272.498138428,0.001156,0.0,0.0,0.0,0.001156,0.0,0.0,0.0,0.005041,2
1672944431697600870,128608,1672944431715587367,gps,2,1,42.3009687198,-83.6979708643,272.494262695,0.001156,0.0,0.0,0.0,0.001156,0.0,0.0,0.0,0.005041,2
1672944431717547876,128609,1672944431735607766,gps,2,1,42.3009687001,-83.697972342,272.490478516,0.001156,0.0,0.0,0.0,0.001156,0.0,0.0,0.0,0.005041,2
1672944431737581632,128610,1672944431755661446,gps,2,1,42.3009686851,-83.6979738233,272.487091064,0.001156,0.0,0.0,0.0,0.001156,0.0,0.0,0.0,0.005041,2
1672944431757586571,128611,1672944431775615555,gps,2,1,42.3009686643,-83.6979753147,272.483581543,0.001156,0.0,0.0,0.0,0.001156,0.0,0.0,0.0,0.005041,2
1672944431777522662,128612,1672944431795572466,gps,2,1,42.3009686444,-83.6979768022,272.480285645,0.0009,0.0,0.0,0.0,0.0009,0.0,0.0,0.0,0.0049,2
1672944431797323164,128613,1672944431815604962,gps,2,1,42.3009686255,-83.6979782978,272.477416992,0.0009,0.0,0.0,0.0,0.0009,0.0,0.0,0.0,0.0049,2
1672944431817800059,128614,1672944431835707207,gps,2,1,42.3009686049,-83.6979798022,272.474517822,0.0009,0.0,0.0,0.0,0.0009,0.0,0.0,0.0,0.0049,2
1672944431837502855,128615,1672944431855557940,gps,2,1,42.3009685833,-83.6979813065,272.471710205,0.0009,0.0,0.0,0.0,0.0009,0.0,0.0,0.0,0.0049,2
1672944431857759631,128616,1672944431875625334,gps,2,1,42.3009685635,-83.6979828138,272.469207764,0.0009,0.0,0.0,0.0,0.0009,0.0,0.0,0.0,0.0049,2
1672944431877742687,128617,1672944431895585522,gps,2,1,42.3009685401,-83.6979843306,272.466339111,0.0009,0.0,0.0,0.0,0.0009,0.0,0.0,0.0,0.0049,2
1672944431897856845,128618,1672944431915623957,gps,2,1,42.300968517,-83.6979858532,272.463500977,0.0009,0.0,0.0,0.0,0.0009,0.0,0.0,0.0,0.0049,2
1672944431917540203,128619,1672944431935619930,gps,2,1,42.3009684965,-83.6979873745,272.460723877,0.0009,0.0,0.0,0.0,0.0009,0.0,0.0,0.0,0.0049,2
1672944431937515533,128620,1672944431955595896,gps,2,1,42.3009684713,-83.6979889053,272.457458496,0.0009,0.0,0.0,0.0,0.0009,0.0,0.0,0.0,0.0049,2
1672944431957503989,128621,1672944431975587849,gps,2,1,42.3009684467,-83.6979904379,272.454315186,0.0009,0.0,0.0,0.0,0.0009,0.0,0.0,0.0,0.0049,2
1672944431977763637,128622,1672944431995637076,gps,2,1,42.3009684259,-83.6979919742,272.451141357,0.0009,0.0,0.0,0.0,0.0009,0.0,0.0,0.0,0.0049,2
1672944431997674901,128623,1672944432015615017,gps,2,1,42.3009684023,-83.6979935191,272.447692871,0.0009,0.0,0.0,0.0,0.0009,0.0,0.0,0.0,0.0049,2
1672944432017627270,128624,1672944432035681086,gps,2,1,42.3009683781,-83.697995065,272.444244385,0.0009,0.0,0.0,0.0,0.0009,0.0,0.0,0.0,0.0049,2
1672944432037916568,128625,1672944432055670913,gps,2,1,42.3009683591,-83.6979966159,272.440887451,0.0009,0.0,0.0,0.0,0.0009,0.0,0.0,0.0,0.0049,2
1672944432057605459,128626,1672944432075697274,gps,2,1,42.3009683364,-83.697998177,272.437286377,0.0009,0.0,0.0,0.0,0.0009,0.0,0.0,0.0,0.0049,2
1672944432077541290,128627,1672944432095676852,gps,2,1,42.300968314,-83.6979997383,272.43371582,0.0009,0.0,0.0,0.0,0.0009,0.0,0.0,0.0,0.0049,2
1672944432097449219,128628,1672944432115633001,gps,2,1,42.3009682976,-83.6980013031,272.430297852,0.0009,0.0,0.0,0.0,0.0009,0.0,0.0,0.0,0.0049,2
1672944432117713034,128629,1672944432135674023,gps,2,1,42.3009682791,-83.6980028765,272.42666626,0.0009,0.0,0.0,0.0,0.0009,0.0,0.0,0.0,0.0049,2
1672944432137843341,128630,1672944432155814954,gps,2,1,42.3009682611,-83.69800445,272.423156738,0.0009,0.0,0.0,0.0,0.0009,0.0,0.0,0.0,0.0049,2
1672944432157757824,128631,1672944432175662875,gps,2,1,42.3009682466,-83.6980060282,272.419921875,0.0009,0.0,0.0,0.0,0.0009,0.0,0.0,0.0,0.0049,2
1672944432177673381,128632,1672944432195639183,gps,2,1,42.3009682293,-83.6980076137,272.416717529,0.0009,0.0,0.0,0.0,0.0009,0.0,0.0,0.0,0.0049,2
1672944432197621125,128633,1672944432215678051,gps,2,1,42.3009682121,-83.6980091997,272.413421631,0.0009,0.0,0.0,0.0,0.0009,0.0,0.0,0.0,0.0049,2
1672944432217562754,128634,1672944432235676745,gps,2,1,42.3009681971,-83.6980107906,272.410491943,0.0009,0.0,0.0,0.0,0.0009,0.0,0.0,0.0,0.0049,2
1672944432237434398,128635,1672944432255629681,gps,2,1,42.3009681758,-83.6980123873,272.407867432,0.0009,0.0,0.0,0.0,0.0009,0.0,0.0,0.0,0.0049,2
1672944432257407677,128636,1672944432275547743,gps,2,1,42.3009681563,-83.6980139896,272.404724121,0.0009,0.0,0.0,0.0,0.0009,0.0,0.0,0.0,0.0049,2
1672944432277715794,128637,1672944432295664100,gps,2,1,42.3009681385,-83.698015592,272.402069092,0.0009,0.0,0.0,0.0,0.0009,0.0,0.0,0.0,0.0049,2
1672944432297657727,128638,1672944432315584971,gps,2,1,42.3009681118,-83.6980172029,272.399139404,0.0009,0.0,0.0,0.0,0.0009,0.0,0.0,0.0,0.0049,2
1672944432317649570,128639,1672944432335671274,gps,2,1,42.3009680854,-83.6980188136,272.396087646,0.0009,0.0,0.0,0.0,0.0009,0.0,0.0,0.0,0.0049,2
1672944432337549089,128640,1672944432355658829,gps,2,1,42.3009680596,-83.698020427,272.392944336,0.0009,0.0,0.0,0.0,0.0009,0.0,0.0,0.0,0.0049,2
1672944432357515244,128641,1672944432375549224,gps,2,1,42.3009680258,-83.6980220473,272.389312744,0.0009,0.0,0.0,0.0,0.0009,0.0,0.0,0.0,0.0049,2
1672944432377448265,128642,1672944432395624128,gps,2,1,42.3009679914,-83.6980236672,272.38571167,0.0009,0.0,0.0,0.0,0.0009,0.0,0.0,0.0,0.0049,2
1672944432397353463,128643,1672944432415687158,gps,2,1,42.3009679595,-83.698025291,272.381896973,0.0009,0.0,0.0,0.0,0.0009,0.0,0.0,0.0,0.0049,2
1672944432417426625,128644,1672944432435658730,gps,2,1,42.3009679208,-83.6980269203,272.377685547,0.0009,0.0,0.0,0.0,0.0009,0.0,0.0,0.0,0.0049,2
1672944432437586456,128645,1672944432455566531,gps,2,1,42.3009678825,-83.6980285508,272.373443604,0.0009,0.0,0.0,0.0,0.0009,0.0,0.0,0.0,0.0049,2
1672944432457586566,128646,1672944432475609235,gps,2,1,42.3009678481,-83.6980301842,272.36895752,0.0009,0.0,0.0,0.0,0.0009,0.0,0.0,0.0,0.0049,2
1672944432477436878,128647,1672944432495539683,gps,2,1,42.3009678082,-83.6980318249,272.364105225,0.0009,0.0,0.0,0.0,0.0009,0.0,0.0,0.0,0.0049,2
1672944432497584505,128648,1672944432515592532,gps,2,1,42.3009677687,-83.6980334652,272.359283447,0.0009,0.0,0.0,0.0,0.0009,0.0,0.0,0.0,0.0049,2
1672944432517551817,128649,1672944432535617264,gps,2,1,42.3009677334,-83.6980351099,272.354309082,0.0009,0.0,0.0,0.0,0.0009,0.0,0.0,0.0,0.0049,2
1672944432537380973,128650,1672944432555651154,gps,2,1,42.3009676952,-83.6980367626,272.348999023,0.0009,0.0,0.0,0.0,0.0009,0.0,0.0,0.0,0.0049,2
1672944432557725611,128651,1672944432575567359,gps,2,1,42.3009676566,-83.6980384148,272.343597412,0.0009,0.0,0.0,0.0,0.0009,0.0,0.0,0.0,0.0049,2
1672944432577586268,128652,1672944432595645682,gps,2,1,42.3009676201,-83.6980400723,272.338195801,0.0009,0.0,0.0,0.0,0.0009,0.0,0.0,0.0,0.0049,2
1672944432597525414,128653,1672944432615570436,gps,2,1,42.3009675791,-83.6980417375,272.332580566,0.0009,0.0,0.0,0.0,0.0009,0.0,0.0,0.0,0.0049,2
1672944432617773632,128654,1672944432635608752,gps,2,1,42.3009675359,-83.6980434055,272.326782227,0.0009,0.0,0.0,0.0,0.0009,0.0,0.0,0.0,0.0049,2
1672944432637606427,128655,1672944432655770986,gps,2,1,42.3009674955,-83.698045076,272.321502686,0.0009,0.0,0.0,0.0,0.0009,0.0,0.0,0.0,0.0049,2
1672944432657501330,128656,1672944432675584646,gps,2,1,42.3009674474,-83.6980467558,272.316162109,0.0009,0.0,0.0,0.0,0.0009,0.0,0.0,0.0,0.0049,2
1672944432677415635,128657,1672944432695629517,gps,2,1,42.3009673986,-83.6980484371,272.310791016,0.0009,0.0,0.0,0.0,0.0009,0.0,0.0,0.0,0.0049,2
1672944432697755697,128658,1672944432715636550,gps,2,1,42.3009673516,-83.6980501202,272.305938721,0.0009,0.0,0.0,0.0,0.0009,0.0,0.0,0.0,0.0049,2
1672944432717788489,128659,1672944432735560166,gps,2,1,42.3009672987,-83.6980518108,272.301116943,0.0009,0.0,0.0,0.0,0.0009,0.0,0.0,0.0,0.0049,2
1672944432737654536,128660,1672944432755592602,gps,2,1,42.3009672452,-83.698053503,272.296264648,0.0009,0.0,0.0,0.0,0.0009,0.0,0.0,0.0,0.0049,2
1672944432757709321,128661,1672944432775656982,gps,2,1,42.3009671916,-83.698055198,272.291992188,0.0009,0.0,0.0,0.0,0.0009,0.0,0.0,0.0,0.0049,2
1672944432777516235,128662,1672944432795564720,gps,2,1,42.300967133,-83.6980569001,272.287750244,0.0009,0.0,0.0,0.0,0.0009,0.0,0.0,0.0,0.0049,2
1672944432797653727,128663,1672944432815617178,gps,2,1,42.3009670745,-83.6980586015,272.283569336,0.0009,0.0,0.0,0.0,0.0009,0.0,0.0,0.0,0.0049,2
1672944432817839041,128664,1672944432835746357,gps,2,1,42.3009670159,-83.6980603063,272.279937744,0.0009,0.0,0.0,0.0,0.0009,0.0,0.0,0.0,0.0049,2
1672944432837616094,128665,1672944432855518149,gps,2,1,42.3009669509,-83.6980620159,272.27645874,0.0009,0.0,0.0,0.0,0.0009,0.0,0.0,0.0,0.0049,2
1672944432857596024,128666,1672944432875604435,gps,2,1,42.3009668857,-83.6980637253,272.273010254,0.0009,0.0,0.0,0.0,0.0009,0.0,0.0,0.0,0.0049,2
1672944432877604683,128667,1672944432895612445,gps,2,1,42.3009668205,-83.6980654378,272.270080566,0.0009,0.0,0.0,0.0,0.0009,0.0,0.0,0.0,0.0049,2
1672944432897238906,128668,1672944432915588764,gps,2,1,42.3009667481,-83.6980671541,272.267303467,0.0009,0.0,0.0,0.0,0.0009,0.0,0.0,0.0,0.0049,2
1672944432917408384,128669,1672944432935581043,gps,2,1,42.3009666774,-83.6980688712,272.264526367,0.0009,0.0,0.0,0.0,0.0009,0.0,0.0,0.0,0.0049,2
1672944432937922274,128670,1672944432955688213,gps,2,1,42.3009666048,-83.6980705896,272.262145996,0.0009,0.0,0.0,0.0,0.0009,0.0,0.0,0.0,0.0049,2
1672944432957511225,128671,1672944432975521535,gps,2,1,42.3009665278,-83.698072312,272.259735107,0.0009,0.0,0.0,0.0,0.0009,0.0,0.0,0.0,0.0049,2
1672944432977631725,128672,1672944432995554175,gps,2,1,42.3009664508,-83.6980740347,272.257385254,0.0009,0.0,0.0,0.0,0.0009,0.0,0.0,0.0,0.0049,2
1672944432997570303,128673,1672944433015596994,gps,2,1,42.300966373,-83.6980757588,272.255218506,0.0009,0.0,0.0,0.0,0.0009,0.0,0.0,0.0,0.0049,2
1672944433017562479,128674,1672944433035550586,gps,2,1,42.3009662886,-83.6980774889,272.252746582,0.0009,0.0,0.0,0.0,0.0009,0.0,0.0,0.0,0.0049,2
1672944433037714102,128675,1672944433055713761,gps,2,1,42.3009662043,-83.6980792203,272.250274658,0.0009,0.0,0.0,0.0,0.0009,0.0,0.0,0.0,0.0049,2
1672944433057566678,128676,1672944433075700038,gps,2,1,42.3009661227,-83.6980809505,272.247833252,0.0009,0.0,0.0,0.0,0.0009,0.0,0.0,0.0,0.0049,2
1672944433077569963,128677,1672944433095604746,gps,2,1,42.3009660337,-83.6980826873,272.244873047,0.0009,0.0,0.0,0.0,0.0009,0.0,0.0,0.0,0.0049,2
1672944433097774344,128678,1672944433115724192,gps,2,1,42.3009659446,-83.6980844255,272.241882324,0.0009,0.0,0.0,0.0,0.0009,0.0,0.0,0.0,0.0049,2
1672944433117685355,128679,1672944433135627137,gps,2,1,42.3009658586,-83.6980861621,272.23916626,0.0009,0.0,0.0,0.0,0.0009,0.0,0.0,0.0,0.0049,2
1672944433137578358,128680,1672944433155605899,gps,2,1,42.3009657658,-83.6980879039,272.235931396,0.0009,0.0,0.0,0.0,0.0009,0.0,0.0,0.0,0.0049,2
1672944433157698112,128681,1672944433175547746,gps,2,1,42.3009656731,-83.6980896457,272.232727051,0.0009,0.0,0.0,0.0,0.0009,0.0,0.0,0.0,0.0049,2
1672944433177442048,128682,1672944433195558556,gps,2,1,42.3009655815,-83.698091389,272.229675293,0.0009,0.0,0.0,0.0,0.0009,0.0,0.0,0.0,0.0049,2
1672944433197603432,128683,1672944433215578523,gps,2,1,42.3009654841,-83.6980931374,272.226409912,0.0009,0.0,0.0,0.0,0.0009,0.0,0.0,0.0,0.0049,2
1672944433217646364,128684,1672944433235557181,gps,2,1,42.300965387,-83.698094885,272.223114014,0.0009,0.0,0.0,0.0,0.0009,0.0,0.0,0.0,0.0049,2
1672944433237563648,128685,1672944433255617640,gps,2,1,42.300965291,-83.698096635,272.220428467,0.0009,0.0,0.0,0.0,0.0009,0.0,0.0,0.0,0.0049,2
1672944433257501744,128686,1672944433275558375,gps,2,1,42.3009651889,-83.6980983889,272.217926025,0.0009,0.0,0.0,0.0,0.0009,0.0,0.0,0.0,0.0049,2
1672944433277411575,128687,1672944433295576737,gps,2,1,42.3009650866,-83.6981001432,272.215423584,0.0009,0.0,0.0,0.0,0.0009,0.0,0.0,0.0,0.0049,2
1672944433297537808,128688,1672944433315615257,gps,2,1,42.3009649838,-83.6981018992,272.213562012,0.0009,0.0,0.0,0.0,0.0009,0.0,0.0,0.0,0.0049,2
1672944433317660162,128689,1672944433335723776,gps,2,1,42.300964874,-83.6981036581,272.21194458,0.0009,0.0,0.0,0.0,0.0009,0.0,0.0,0.0,0.0049,2
1672944433337612820,128690,1672944433355560415,gps,2,1,42.3009647641,-83.6981054165,272.210357666,0.0009,0.0,0.0,0.0,0.0009,0.0,0.0,0.0,0.0049,2
1672944433357486908,128691,1672944433375619351,gps,2,1,42.3009646529,-83.6981071777,272.209289551,0.0009,0.0,0.0,0.0,0.0009,0.0,0.0,0.0,0.0049,2
1672944433377630892,128692,1672944433395554412,gps,2,1,42.3009645358,-83.6981089408,272.208374023,0.0009,0.0,0.0,0.0,0.0009,0.0,0.0,0.0,0.0049,2
1672944433397248797,128693,1672944433415558587,gps,2,1,42.3009644183,-83.6981107042,272.207366943,0.0009,0.0,0.0,0.0,0.0009,0.0,0.0,0.0,0.0049,2
1672944433417616712,128694,1672944433435661640,gps,2,1,42.3009643005,-83.6981124694,272.206604004,0.0009,0.0,0.0,0.0,0.0009,0.0,0.0,0.0,0.0049,2
1672944433437706048,128695,1672944433455585782,gps,2,1,42.3009641769,-83.6981142367,272.205535889,0.0009,0.0,0.0,0.0,0.0009,0.0,0.0,0.0,0.0049,2
1672944433457530304,128696,1672944433475548512,gps,2,1,42.3009640529,-83.698116005,272.204345703,0.0009,0.0,0.0,0.0,0.0009,0.0,0.0,0.0,0.0049,2
1672944433477668801,128697,1672944433495624393,gps,2,1,42.3009639301,-83.6981177735,272.203338623,0.0009,0.0,0.0,0.0,0.0009,0.0,0.0,0.0,0.0049,2
1672944433497475508,128698,1672944433515572070,gps,2,1,42.3009638028,-83.698119544,272.201751709,0.0009,0.0,0.0,0.0,0.0009,0.0,0.0,0.0,0.0049,2
1672944433517324485,128699,1672944433535556370,gps,2,1,42.3009636735,-83.6981213136,272.200256348,0.0009,0.0,0.0,0.0,0.0009,0.0,0.0,0.0,0.0049,2
1672944433537782217,128700,1672944433555679593,gps,2,1,42.3009635464,-83.6981230857,272.198852539,0.0009,0.0,0.0,0.0,0.0009,0.0,0.0,0.0,0.0049,2
1672944433557670770,128701,1672944433575652189,gps,2,1,42.3009634118,-83.6981248586,272.197021484,0.0009,0.0,0.0,0.0,0.0009,0.0,0.0,0.0,0.0049,2
1672944433577705729,128702,1672944433595635079,gps,2,1,42.300963277,-83.6981266304,272.19519043,0.0009,0.0,0.0,0.0,0.0009,0.0,0.0,0.0,0.0049,2
1672944433597684449,128703,1672944433615638391,gps,2,1,42.3009631443,-83.6981284037,272.193603516,0.0009,0.0,0.0,0.0,0.0009,0.0,0.0,0.0,0.0049,2
1672944433617467267,128704,1672944433635556123,gps,2,1,42.3009630064,-83.6981301738,272.191802979,0.0009,0.0,0.0,0.0,0.0009,0.0,0.0,0.0,0.0049,2
1672944433637629528,128705,1672944433655622377,gps,2,1,42.3009628685,-83.6981319444,272.190063477,0.0009,0.0,0.0,0.0,0.0009,0.0,0.0,0.0,0.0049,2
1672944433657457645,128706,1672944433675631922,gps,2,1,42.3009627353,-83.6981337143,272.188934326,0.0009,0.0,0.0,0.0,0.0009,0.0,0.0,0.0,0.0049,2
1672944433677688285,128707,1672944433695618025,gps,2,1,42.3009626008,-83.6981354815,272.187805176,0.0009,0.0,0.0,0.0,0.0009,0.0,0.0,0.0,0.0049,2
1672944433697515816,128708,1672944433715595065,gps,2,1,42.3009624667,-83.6981372492,272.186767578,0.0009,0.0,0.0,0.0,0.0009,0.0,0.0,0.0,0.0049,2
1672944433717772884,128709,1672944433735675506,gps,2,1,42.3009623379,-83.6981390178,272.186279297,0.0009,0.0,0.0,0.0,0.0009,0.0,0.0,0.0,0.0049,2
1672944433737217526,128710,1672944433755584991,gps,2,1,42.3009622088,-83.6981407845,272.185760498,0.0009,0.0,0.0,0.0,0.0009,0.0,0.0,0.0,0.0049,2
1672944433757583879,128711,1672944433775605769,gps,2,1,42.30096208,-83.6981425519,272.185272217,0.0009,0.0,0.0,0.0,0.0009,0.0,0.0,0.0,0.0049,2
1672944433777367728,128712,1672944433795661192,gps,2,1,42.3009619536,-83.6981443216,272.185089111,0.001156,0.0,0.0,0.0,0.001156,0.0,0.0,0.0,0.005184,2
1672944433797506371,128713,1672944433815592100,gps,2,1,42.3009618227,-83.6981460909,272.184539795,0.001156,0.0,0.0,0.0,0.001156,0.0,0.0,0.0,0.005184,2
1672944433817671239,128714,1672944433835673998,gps,2,1,42.300961693,-83.698147861,272.183929443,0.001156,0.0,0.0,0.0,0.001156,0.0,0.0,0.0,0.005184,2
1672944433837757182,128715,1672944433855628102,gps,2,1,42.3009615613,-83.6981496336,272.183410645,0.001156,0.0,0.0,0.0,0.001156,0.0,0.0,0.0,0.005184,2
1672944433857532271,128716,1672944433875561412,gps,2,1,42.300961424,-83.6981514068,272.182250977,0.001156,0.0,0.0,0.0,0.001156,0.0,0.0,0.0,0.005184,2
1672944433877520690,128717,1672944433895573165,gps,2,1,42.300961287,-83.6981531799,272.181121826,0.001156,0.0,0.0,0.0,0.001156,0.0,0.0,0.0,0.005184,2
1672944433897507418,128718,1672944433915547101,gps,2,1,42.3009611477,-83.6981549551,272.179992676,0.001156,0.0,0.0,0.0,0.001156,0.0,0.0,0.0,0.005184,2
1672944433917646437,128719,1672944433935599716,gps,2,1,42.3009610016,-83.6981567297,272.178405762,0.001156,0.0,0.0,0.0,0.001156,0.0,0.0,0.0,0.005184,2
1672944433937520530,128720,1672944433955592299,gps,2,1,42.300960855,-83.6981585043,272.17678833,0.001156,0.0,0.0,0.0,0.001156,0.0,0.0,0.0,0.005184,2
1672944433957378182,128721,1672944433975581915,gps,2,1,42.3009607069,-83.6981602805,272.175109863,0.001156,0.0,0.0,0.0,0.001156,0.0,0.0,0.0,0.005184,2
1672944433977577986,128722,1672944433995511963,gps,2,1,42.3009605512,-83.6981620552,272.173431396,0.001156,0.0,0.0,0.0,0.001156,0.0,0.0,0.0,0.005184,2
1672944433997703478,128723,1672944434015571006,gps,2,1,42.300960396,-83.6981638297,272.171783447,0.001156,0.0,0.0,0.0,0.001156,0.0,0.0,0.0,0.005184,2
1672944434017686328,128724,1672944434035623563,gps,2,1,42.3009602421,-83.6981656045,272.170837402,0.001156,0.0,0.0,0.0,0.001156,0.0,0.0,0.0,0.005184,2
1672944434037529819,128725,1672944434055714187,gps,2,1,42.300960088,-83.6981673817,272.170349121,0.001156,0.0,0.0,0.0,0.001156,0.0,0.0,0.0,0.005184,2
1672944434057491278,128726,1672944434075577218,gps,2,1,42.300959934,-83.6981691572,272.169921875,0.001156,0.0,0.0,0.0,0.001156,0.0,0.0,0.0,0.005184,2
1672944434077544469,128727,1672944434095707704,gps,2,1,42.3009597854,-83.6981709327,272.170532227,0.001156,0.0,0.0,0.0,0.001156,0.0,0.0,0.0,0.005184,2
1672944434097531242,128728,1672944434115597713,gps,2,1,42.3009596413,-83.6981727102,272.171478271,0.001156,0.0,0.0,0.0,0.001156,0.0,0.0,0.0,0.005184,2
1672944434117746339,128729,1672944434135630312,gps,2,1,42.3009594981,-83.6981744845,272.172454834,0.001156,0.0,0.0,0.0,0.001156,0.0,0.0,0.0,0.005184,2
1672944434137859561,128730,1672944434155704424,gps,2,1,42.3009593608,-83.6981762613,272.173980713,0.001156,0.0,0.0,0.0,0.001156,0.0,0.0,0.0,0.005184,2
1672944434157560148,128731,1672944434175536270,gps,2,1,42.3009592285,-83.6981780363,272.175262451,0.001156,0.0,0.0,0.0,0.001156,0.0,0.0,0.0,0.005184,2
1672944434177545216,128732,1672944434195546079,gps,2,1,42.3009590961,-83.6981798105,272.176574707,0.001156,0.0,0.0,0.0,0.001156,0.0,0.0,0.0,0.005184,2
1672944434197636161,128733,1672944434215663450,gps,2,1,42.3009589665,-83.6981815861,272.177947998,0.001156,0.0,0.0,0.0,0.001156,0.0,0.0,0.0,0.005184,2
1672944434217335172,128734,1672944434235697263,gps,2,1,42.3009588377,-83.6981833585,272.178497314,0.001156,0.0,0.0,0.0,0.001156,0.0,0.0,0.0,0.005184,2
1672944434237625010,128735,1672944434255536097,gps,2,1,42.3009587084,-83.6981851314,272.178924561,0.001156,0.0,0.0,0.0,0.001156,0.0,0.0,0.0,0.005184,2
1672944434257605421,128736,1672944434275532879,gps,2,1,42.3009585787,-83.6981869032,272.179046631,0.001156,0.0,0.0,0.0,0.001156,0.0,0.0,0.0,0.005184,2
1672944434277605382,128737,1672944434295586471,gps,2,1,42.3009584443,-83.6981886722,272.178314209,0.001156,0.0,0.0,0.0,0.001156,0.0,0.0,0.0,0.005184,2
1672944434297456467,128738,1672944434315548096,gps,2,1,42.3009583096,-83.6981904412,272.177337646,0.001156,0.0,0.0,0.0,0.001156,0.0,0.0,0.0,0.005184,2
1672944434317586256,128739,1672944434335675066,gps,2,1,42.3009581725,-83.6981922093,272.176300049,0.001156,0.0,0.0,0.0,0.001156,0.0,0.0,0.0,0.005184,2
1672944434337652995,128740,1672944434355621301,gps,2,1,42.3009580299,-83.6981939749,272.174407959,0.001156,0.0,0.0,0.0,0.001156,0.0,0.0,0.0,0.005184,2
1672944434357484152,128741,1672944434375558923,gps,2,1,42.3009578869,-83.6981957401,272.172576904,0.001156,0.0,0.0,0.0,0.001156,0.0,0.0,0.0,0.005184,2
1672944434377763518,128742,1672944434395661771,gps,2,1,42.3009577409,-83.6981975046,272.170684814,0.001156,0.0,0.0,0.0,0.001156,0.0,0.0,0.0,0.005184,2
1672944434397627228,128743,1672944434415653104,gps,2,1,42.3009575909,-83.6981992674,272.168365479,0.001156,0.0,0.0,0.0,0.001156,0.0,0.0,0.0,0.005184,2
1672944434417444375,128744,1672944434435594052,gps,2,1,42.3009574384,-83.6982010292,272.166107178,0.001156,0.0,0.0,0.0,0.001156,0.0,0.0,0.0,0.005184,2
1672944434437904856,128745,1672944434455655522,gps,2,1,42.3009572876,-83.6982027915,272.164031982,0.001156,0.0,0.0,0.0,0.001156,0.0,0.0,0.0,0.005184,2
1672944434457705658,128746,1672944434475606852,gps,2,1,42.3009571327,-83.698204552,272.161865234,0.001156,0.0,0.0,0.0,0.001156,0.0,0.0,0.0,0.005184,2
1672944434477545141,128747,1672944434495522222,gps,2,1,42.3009569834,-83.6982063065,272.159423828,0.001156,0.0,0.0,0.0,0.001156,0.0,0.0,0.0,0.005184,2
