%time,field.header.seq,field.header.stamp,field.header.frame_id,field.twist.twist.linear.x,field.twist.twist.linear.y,field.twist.twist.linear.z,field.twist.twist.angular.x,field.twist.twist.angular.y,field.twist.twist.angular.z,field.twist.covariance0,field.twist.covariance1,field.twist.covariance2,field.twist.covariance3,field.twist.covariance4,field.twist.covariance5,field.twist.covariance6,field.twist.covariance7,field.twist.covariance8,field.twist.covariance9,field.twist.covariance10,field.twist.covariance11,field.twist.covariance12,field.twist.covariance13,field.twist.covariance14,field.twist.covariance15,field.twist.covariance16,field.twist.covariance17,field.twist.covariance18,field.twist.covariance19,field.twist.covariance20,field.twist.covariance21,field.twist.covariance22,field.twist.covariance23,field.twist.covariance24,field.twist.covariance25,field.twist.covariance26,field.twist.covariance27,field.twist.covariance28,field.twist.covariance29,field.twist.covariance30,field.twist.covariance31,field.twist.covariance32,field.twist.covariance33,field.twist.covariance34,field.twist.covariance35
1672947559342160494,284991,1672947559340868580,enu,0.0021,0.0001,0.0002,0.0,0.0,0.0,0.000169,0.0,0.0,0.0,0.0,0.0,0.0,0.000169,0.0,0.0,0.0,0.0,0.0,0.0,0.000121,0.0,0.0,0.0,0.0,0.0,0.0,0.0,0.0,0.0,0.0,0.0,0.0,0.0,0.0,0.0,0.0,0.0,0.0,0.0,0.0,0.0
1672947559362158724,284992,1672947559360955021,enu,0.0019,0.0002,-0.0,0.0,0.0,0.0,0.000169,0.0,0.0,0.0,0.0,0.0,0.0,0.000169,0.0,0.0,0.0,0.0,0.0,0.0,0.000121,0.0,0.0,0.0,0.0,0.0,0.0,0.0,0.0,0.0,0.0,0.0,0.0,0.0,0.0,0.0,0.0,0.0,0.0,0.0,0.0,0.0
1672947559382188258,284993,1672947559380965424,enu,0.0019,0.0004,0.0001,0.0,0.0,0.0,0.000169,0.0,0.0,0.0,0.0,0.0,0.0,0.000169,0.0,0.0,0.0,0.0,0.0,0.0,0.000121,0.0,0.0,0.0,0.0,0.0,0.0,0.0,0.0,0.0,0.0,0.0,0.0,0.0,0.0,0.0,0.0,0.0,0.0,0.0,0.0,0.0
1672947559402153459,284994,1672947559400908326,enu,0.0021,0.0005,0.0001,0.0,0.0,0.0,0.000169,0.0,0.0,0.0,0.0,0.0,0.0,0.000169,0.0,0.0,0.0,0.0,0.0,0.0,0.000121,0.0,0.0,0.0,0.0,0.0,0.0,0.0,0.0,0.0,0.0,0.0,0.0,0.0,0.0,0.0,0.0,0.0,0.0,0.0,0.0,0.0
1672947559421974725,284995,1672947559420952884,enu,0.0021,0.0005,0.0002,0.0,0.0,0.0,0.000169,0.0,0.0,0.0,0.0,0.0,0.0,0.000169,0.0,0.0,0.0,0.0,0.0,0.0,0.000121,0.0,0.0,0.0,0.0,0.0,0.0,0.0,0.0,0.0,0.0,0.0,0.0,0.0,0.0,0.0,0.0,0.0,0.0,0.0,0.0,0.0
1672947559441880399,284996,1672947559440906380,enu,0.0023,0.0001,0.0003,0.0,0.0,0.0,0.000169,0.0,0.0,0.0,0.0,0.0,0.0,0.000169,0.0,0.0,0.0,0.0,0.0,0.0,0.000121,0.0,0.0,0.0,0.0,0.0,0.0,0.0,0.0,0.0,0.0,0.0,0.0,0.0,0.0,0.0,0.0,0.0,0.0,0.0,0.0,0.0
1672947559462036847,284997,1672947559460969182,enu,0.0026,0.0002,0.0004,0.0,0.0,0.0,0.000169,0.0,0.0,0.0,0.0,0.0,0.0,0.000169,0.0,0.0,0.0,0.0,0.0,0.0,0.000121,0.0,0.0,0.0,0.0,0.0,0.0,0.0,0.0,0.0,0.0,0.0,0.0,0.0,0.0,0.0,0.0,0.0,0.0,0.0,0.0,0.0
1672947559482330000,284998,1672947559480963458,enu,0.0027,0.0,0.0002,0.0,0.0,0.0,0.000169,0.0,0.0,0.0,0.0,0.0,0.0,0.000169,0.0,0.0,0.0,0.0,0.0,0.0,0.000121,0.0,0.0,0.0,0.0,0.0,0.0,0.0,0.0,0.0,0.0,0.0,0.0,0.0,0.0,0.0,0.0,0.0,0.0,0.0,0.0,0.0
1672947559502277752,284999,1672947559500977317,enu,0.0028,-0.0003,0.0001,0.0,0.0,0.0,0.000169,0.0,0.0,0.0,0.0,0.0,0.0,0.000169,0.0,0.0,0.0,0.0,0.0,0.0,0.000121,0.0,0.0,0.0,0.0,0.0,0.0,0.0,0.0,0.0,0.0,0.0,0.0,0.0,0.0,0.0,0.0,0.0,0.0,0.0,0.0,0.0
1672947559522185342,285000,1672947559521000279,enu,0.002,-0.0009,-0.0005,0.0,0.0,0.0,0.000169,0.0,0.0,0.0,0.0,0.0,0.0,0.000169,0.0,0.0,0.0,0.0,0.0,0.0,0.000121,0.0,0.0,0.0,0.0,0.0,0.0,0.0,0.0,0.0,0.0,0.0,0.0,0.0,0.0,0.0,0.0,0.0,0.0,0.0,0.0,0.0
1672947559542455742,285001,1672947559541060120,enu,0.0013,-0.0011,-0.0008,0.0,0.0,0.0,0.000169,0.0,0.0,0.0,0.0,0.0,0.0,0.000169,0.0,0.0,0.0,0.0,0.0,0.0,0.000121,0.0,0.0,0.0,0.0,0.0,0.0,0.0,0.0,0.0,0.0,0.0,0.0,0.0,0.0,0.0,0.0,0.0,0.0,0.0,0.0,0.0
1672947559562222107,285002,1672947559560915125,enu,0.0,-0.001,-0.001,0.0,0.0,0.0,0.000169,0.0,0.0,0.0,0.0,0.0,0.0,0.000169,0.0,0.0,0.0,0.0,0.0,0.0,0.000121,0.0,0.0,0.0,0.0,0.0,0.0,0.0,0.0,0.0,0.0,0.0,0.0,0.0,0.0,0.0,0.0,0.0,0.0,0.0,0.0,0.0
1672947559581909432,285003,1672947559580878545,enu,-0.0011,-0.0012,-0.001,0.0,0.0,0.0,0.000169,0.0,0.0,0.0,0.0,0.0,0.0,0.000169,0.0,0.0,0.0,0.0,0.0,0.0,0.000121,0.0,0.0,0.0,0.0,0.0,0.0,0.0,0.0,0.0,0.0,0.0,0.0,0.0,0.0,0.0,0.0,0.0,0.0,0.0,0.0,0.0
1672947559601936025,285004,1672947559600976658,enu,-0.0029,-0.0025,-0.0013,0.0,0.0,0.0,0.000169,0.0,0.0,0.0,0.0,0.0,0.0,0.000169,0.0,0.0,0.0,0.0,0.0,0.0,0.000121,0.0,0.0,0.0,0.0,0.0,0.0,0.0,0.0,0.0,0.0,0.0,0.0,0.0,0.0,0.0,0.0,0.0,0.0,0.0,0.0,0.0
1672947559622231622,285005,1672947559620847373,enu,-0.0068,-0.002,-0.0012,0.0,0.0,0.0,0.000169,0.0,0.0,0.0,0.0,0.0,0.0,0.000169,0.0,0.0,0.0,0.0,0.0,0.0,0.000121,0.0,0.0,0.0,0.0,0.0,0.0,0.0,0.0,0.0,0.0,0.0,0.0,0.0,0.0,0.0,0.0,0.0,0.0,0.0,0.0,0.0
1672947559642258832,285006,1672947559640911366,enu,-0.0118,-0.0018,-0.0018,0.0,0.0,0.0,0.000169,0.0,0.0,0.0,0.0,0.0,0.0,0.000169,0.0,0.0,0.0,0.0,0.0,0.0,0.000121,0.0,0.0,0.0,0.0,0.0,0.0,0.0,0.0,0.0,0.0,0.0,0.0,0.0,0.0,0.0,0.0,0.0,0.0,0.0,0.0,0.0
1672947559662170898,285007,1672947559660844537,enu,-0.0178,-0.0023,-0.0026,0.0,0.0,0.0,0.000169,0.0,0.0,0.0,0.0,0.0,0.0,0.000169,0.0,0.0,0.0,0.0,0.0,0.0,0.000121,0.0,0.0,0.0,0.0,0.0,0.0,0.0,0.0,0.0,0.0,0.0,0.0,0.0,0.0,0.0,0.0,0.0,0.0,0.0,0.0,0.0
1672947559681963540,285008,1672947559680870157,enu,-0.0242,-0.0022,-0.0031,0.0,0.0,0.0,0.000169,0.0,0.0,0.0,0.0,0.0,0.0,0.000169,0.0,0.0,0.0,0.0,0.0,0.0,0.000121,0.0,0.0,0.0,0.0,0.0,0.0,0.0,0.0,0.0,0.0,0.0,0.0,0.0,0.0,0.0,0.0,0.0,0.0,0.0,0.0,0.0
1672947559701854483,285009,1672947559700912449,enu,-0.031,-0.0026,-0.0036,0.0,0.0,0.0,0.000169,0.0,0.0,0.0,0.0,0.0,0.0,0.000169,0.0,0.0,0.0,0.0,0.0,0.0,0.000121,0.0,0.0,0.0,0.0,0.0,0.0,0.0,0.0,0.0,0.0,0.0,0.0,0.0,0.0,0.0,0.0,0.0,0.0,0.0,0.0,0.0
1672947559721910993,285010,1672947559720913835,enu,-0.039,-0.0029,-0.0045,0.0,0.0,0.0,0.000169,0.0,0.0,0.0,0.0,0.0,0.0,0.000169,0.0,0.0,0.0,0.0,0.0,0.0,0.000121,0.0,0.0,0.0,0.0,0.0,0.0,0.0,0.0,0.0,0.0,0.0,0.0,0.0,0.0,0.0,0.0,0.0,0.0,0.0,0.0,0.0
1672947559741787958,285011,1672947559740884109,enu,-0.0473,-0.0034,-0.0054,0.0,0.0,0.0,0.000169,0.0,0.0,0.0,0.0,0.0,0.0,0.000169,0.0,0.0,0.0,0.0,0.0,0.0,0.000121,0.0,0.0,0.0,0.0,0.0,0.0,0.0,0.0,0.0,0.0,0.0,0.0,0.0,0.0,0.0,0.0,0.0,0.0,0.0,0.0,0.0
1672947559762279594,285012,1672947559761034197,enu,-0.0542,-0.0041,-0.0057,0.0,0.0,0.0,0.000169,0.0,0.0,0.0,0.0,0.0,0.0,0.000169,0.0,0.0,0.0,0.0,0.0,0.0,0.000121,0.0,0.0,0.0,0.0,0.0,0.0,0.0,0.0,0.0,0.0,0.0,0.0,0.0,0.0,0.0,0.0,0.0,0.0,0.0,0.0,0.0
1672947559782338357,285013,1672947559780910393,enu,-0.0623,-0.0046,-0.0062,0.0,0.0,0.0,0.000196,0.0,0.0,0.0,0.0,0.0,0.0,0.000196,0.0,0.0,0.0,0.0,0.0,0.0,0.000144,0.0,0.0,0.0,0.0,0.0,0.0,0.0,0.0,0.0,0.0,0.0,0.0,0.0,0.0,0.0,0.0,0.0,0.0,0.0,0.0,0.0
1672947559802173670,285014,1672947559800827560,enu,-0.0713,-0.0052,-0.0066,0.0,0.0,0.0,0.000196,0.0,0.0,0.0,0.0,0.0,0.0,0.000196,0.0,0.0,0.0,0.0,0.0,0.0,0.000144,0.0,0.0,0.0,0.0,0.0,0.0,0.0,0.0,0.0,0.0,0.0,0.0,0.0,0.0,0.0,0.0,0.0,0.0,0.0,0.0,0.0
1672947559822071532,285015,1672947559820857971,enu,-0.0807,-0.0061,-0.0073,0.0,0.0,0.0,0.000196,0.0,0.0,0.0,0.0,0.0,0.0,0.000196,0.0,0.0,0.0,0.0,0.0,0.0,0.000144,0.0,0.0,0.0,0.0,0.0,0.0,0.0,0.0,0.0,0.0,0.0,0.0,0.0,0.0,0.0,0.0,0.0,0.0,0.0,0.0,0.0
1672947559842330003,285016,1672947559840858810,enu,-0.0913,-0.0067,-0.0076,0.0,0.0,0.0,0.000196,0.0,0.0,0.0,0.0,0.0,0.0,0.000196,0.0,0.0,0.0,0.0,0.0,0.0,0.000144,0.0,0.0,0.0,0.0,0.0,0.0,0.0,0.0,0.0,0.0,0.0,0.0,0.0,0.0,0.0,0.0,0.0,0.0,0.0,0.0,0.0
1672947559862086572,285017,1672947559860869461,enu,-0.1014,-0.0075,-0.0078,0.0,0.0,0.0,0.000196,0.0,0.0,0.0,0.0,0.0,0.0,0.000196,0.0,0.0,0.0,0.0,0.0,0.0,0.000144,0.0,0.0,0.0,0.0,0.0,0.0,0.0,0.0,0.0,0.0,0.0,0.0,0.0,0.0,0.0,0.0,0.0,0.0,0.0,0.0,0.0
1672947559881889416,285018,1672947559880840668,enu,-0.1115,-0.0082,-0.0079,0.0,0.0,0.0,0.000196,0.0,0.0,0.0,0.0,0.0,0.0,0.000196,0.0,0.0,0.0,0.0,0.0,0.0,0.000144,0.0,0.0,0.0,0.0,0.0,0.0,0.0,0.0,0.0,0.0,0.0,0.0,0.0,0.0,0.0,0.0,0.0,0.0,0.0,0.0,0.0
1672947559902167540,285019,1672947559900919592,enu,-0.1236,-0.0088,-0.0083,0.0,0.0,0.0,0.000196,0.0,0.0,0.0,0.0,0.0,0.0,0.000196,0.0,0.0,0.0,0.0,0.0,0.0,0.000144,0.0,0.0,0.0,0.0,0.0,0.0,0.0,0.0,0.0,0.0,0.0,0.0,0.0,0.0,0.0,0.0,0.0,0.0,0.0,0.0,0.0
1672947559922248041,285020,1672947559920842346,enu,-0.1349,-0.0097,-0.0082,0.0,0.0,0.0,0.000196,0.0,0.0,0.0,0.0,0.0,0.0,0.000196,0.0,0.0,0.0,0.0,0.0,0.0,0.000144,0.0,0.0,0.0,0.0,0.0,0.0,0.0,0.0,0.0,0.0,0.0,0.0,0.0,0.0,0.0,0.0,0.0,0.0,0.0,0.0,0.0
1672947559942247876,285021,1672947559940954722,enu,-0.1473,-0.0104,-0.0082,0.0,0.0,0.0,0.000196,0.0,0.0,0.0,0.0,0.0,0.0,0.000196,0.0,0.0,0.0,0.0,0.0,0.0,0.000144,0.0,0.0,0.0,0.0,0.0,0.0,0.0,0.0,0.0,0.0,0.0,0.0,0.0,0.0,0.0,0.0,0.0,0.0,0.0,0.0,0.0
1672947559962065341,285022,1672947559960845931,enu,-0.1589,-0.0111,-0.0081,0.0,0.0,0.0,0.000196,0.0,0.0,0.0,0.0,0.0,0.0,0.000196,0.0,0.0,0.0,0.0,0.0,0.0,0.000144,0.0,0.0,0.0,0.0,0.0,0.0,0.0,0.0,0.0,0.0,0.0,0.0,0.0,0.0,0.0,0.0,0.0,0.0,0.0,0.0,0.0
1672947559982020874,285023,1672947559980855949,enu,-0.1716,-0.0117,-0.0083,0.0,0.0,0.0,0.000196,0.0,0.0,0.0,0.0,0.0,0.0,0.000196,0.0,0.0,0.0,0.0,0.0,0.0,0.000144,0.0,0.0,0.0,0.0,0.0,0.0,0.0,0.0,0.0,0.0,0.0,0.0,0.0,0.0,0.0,0.0,0.0,0.0,0.0,0.0,0.0
1672947560001891517,285024,1672947560000919745,enu,-0.1841,-0.0118,-0.0084,0.0,0.0,0.0,0.000196,0.0,0.0,0.0,0.0,0.0,0.0,0.000196,0.0,0.0,0.0,0.0,0.0,0.0,0.000144,0.0,0.0,0.0,0.0,0.0,0.0,0.0,0.0,0.0,0.0,0.0,0.0,0.0,0.0,0.0,0.0,0.0,0.0,0.0,0.0,0.0
1672947560022304181,285025,1672947560021018069,enu,-0.1965,-0.012,-0.0084,0.0,0.0,0.0,0.000196,0.0,0.0,0.0,0.0,0.0,0.0,0.000196,0.0,0.0,0.0,0.0,0.0,0.0,0.000144,0.0,0.0,0.0,0.0,0.0,0.0,0.0,0.0,0.0,0.0,0.0,0.0,0.0,0.0,0.0,0.0,0.0,0.0,0.0,0.0,0.0
1672947560042308081,285026,1672947560040912832,enu,-0.21,-0.0131,-0.0083,0.0,0.0,0.0,0.000196,0.0,0.0,0.0,0.0,0.0,0.0,0.000196,0.0,0.0,0.0,0.0,0.0,0.0,0.000144,0.0,0.0,0.0,0.0,0.0,0.0,0.0,0.0,0.0,0.0,0.0,0.0,0.0,0.0,0.0,0.0,0.0,0.0,0.0,0.0,0.0
1672947560062200370,285027,1672947560061011751,enu,-0.2218,-0.0134,-0.0079,0.0,0.0,0.0,0.000196,0.0,0.0,0.0,0.0,0.0,0.0,0.000196,0.0,0.0,0.0,0.0,0.0,0.0,0.000144,0.0,0.0,0.0,0.0,0.0,0.0,0.0,0.0,0.0,0.0,0.0,0.0,0.0,0.0,0.0,0.0,0.0,0.0,0.0,0.0,0.0
1672947560082188520,285028,1672947560080931491,enu,-0.2359,-0.0137,-0.008,0.0,0.0,0.0,0.000196,0.0,0.0,0.0,0.0,0.0,0.0,0.000196,0.0,0.0,0.0,0.0,0.0,0.0,0.000144,0.0,0.0,0.0,0.0,0.0,0.0,0.0,0.0,0.0,0.0,0.0,0.0,0.0,0.0,0.0,0.0,0.0,0.0,0.0,0.0,0.0
1672947560102098194,285029,1672947560100848820,enu,-0.2498,-0.0141,-0.0081,0.0,0.0,0.0,0.000196,0.0,0.0,0.0,0.0,0.0,0.0,0.000196,0.0,0.0,0.0,0.0,0.0,0.0,0.000144,0.0,0.0,0.0,0.0,0.0,0.0,0.0,0.0,0.0,0.0,0.0,0.0,0.0,0.0,0.0,0.0,0.0,0.0,0.0,0.0,0.0
1672947560122314379,285030,1672947560120976857,enu,-0.2634,-0.0146,-0.0083,0.0,0.0,0.0,0.000196,0.0,0.0,0.0,0.0,0.0,0.0,0.000196,0.0,0.0,0.0,0.0,0.0,0.0,0.000144,0.0,0.0,0.0,0.0,0.0,0.0,0.0,0.0,0.0,0.0,0.0,0.0,0.0,0.0,0.0,0.0,0.0,0.0,0.0,0.0,0.0
1672947560142173419,285031,1672947560140896577,enu,-0.2781,-0.0151,-0.0086,0.0,0.0,0.0,0.000196,0.0,0.0,0.0,0.0,0.0,0.0,0.000196,0.0,0.0,0.0,0.0,0.0,0.0,0.000144,0.0,0.0,0.0,0.0,0.0,0.0,0.0,0.0,0.0,0.0,0.0,0.0,0.0,0.0,0.0,0.0,0.0,0.0,0.0,0.0,0.0
1672947560162152083,285032,1672947560160917926,enu,-0.292,-0.0154,-0.0092,0.0,0.0,0.0,0.000196,0.0,0.0,0.0,0.0,0.0,0.0,0.000196,0.0,0.0,0.0,0.0,0.0,0.0,0.000144,0.0,0.0,0.0,0.0,0.0,0.0,0.0,0.0,0.0,0.0,0.0,0.0,0.0,0.0,0.0,0.0,0.0,0.0,0.0,0.0,0.0
1672947560182284862,285033,1672947560180898292,enu,-0.3062,-0.0161,-0.0094,0.0,0.0,0.0,0.000196,0.0,0.0,0.0,0.0,0.0,0.0,0.000196,0.0,0.0,0.0,0.0,0.0,0.0,0.000144,0.0,0.0,0.0,0.0,0.0,0.0,0.0,0.0,0.0,0.0,0.0,0.0,0.0,0.0,0.0,0.0,0.0,0.0,0.0,0.0,0.0
1672947560202211355,285034,1672947560200884182,enu,-0.3189,-0.0176,-0.0085,0.0,0.0,0.0,0.000196,0.0,0.0,0.0,0.0,0.0,0.0,0.000196,0.0,0.0,0.0,0.0,0.0,0.0,0.000144,0.0,0.0,0.0,0.0,0.0,0.0,0.0,0.0,0.0,0.0,0.0,0.0,0.0,0.0,0.0,0.0,0.0,0.0,0.0,0.0,0.0
1672947560222058047,285035,1672947560220897489,enu,-0.3314,-0.0192,-0.0082,0.0,0.0,0.0,0.000196,0.0,0.0,0.0,0.0,0.0,0.0,0.000196,0.0,0.0,0.0,0.0,0.0,0.0,0.000144,0.0,0.0,0.0,0.0,0.0,0.0,0.0,0.0,0.0,0.0,0.0,0.0,0.0,0.0,0.0,0.0,0.0,0.0,0.0,0.0,0.0
1672947560242161696,285036,1672947560240943176,enu,-0.3432,-0.0213,-0.0073,0.0,0.0,0.0,0.000196,0.0,0.0,0.0,0.0,0.0,0.0,0.000196,0.0,0.0,0.0,0.0,0.0,0.0,0.000144,0.0,0.0,0.0,0.0,0.0,0.0,0.0,0.0,0.0,0.0,0.0,0.0,0.0,0.0,0.0,0.0,0.0,0.0,0.0,0.0,0.0
1672947560262310228,285037,1672947560260973862,enu,-0.3553,-0.0235,-0.007,0.0,0.0,0.0,0.000196,0.0,0.0,0.0,0.0,0.0,0.0,0.000196,0.0,0.0,0.0,0.0,0.0,0.0,0.000144,0.0,0.0,0.0,0.0,0.0,0.0,0.0,0.0,0.0,0.0,0.0,0.0,0.0,0.0,0.0,0.0,0.0,0.0,0.0,0.0,0.0
1672947560281814718,285038,1672947560280910398,enu,-0.3668,-0.0257,-0.0068,0.0,0.0,0.0,0.000196,0.0,0.0,0.0,0.0,0.0,0.0,0.000196,0.0,0.0,0.0,0.0,0.0,0.0,0.000144,0.0,0.0,0.0,0.0,0.0,0.0,0.0,0.0,0.0,0.0,0.0,0.0,0.0,0.0,0.0,0.0,0.0,0.0,0.0,0.0,0.0
1672947560302229414,285039,1672947560300944735,enu,-0.3783,-0.0284,-0.0069,0.0,0.0,0.0,0.000196,0.0,0.0,0.0,0.0,0.0,0.0,0.000196,0.0,0.0,0.0,0.0,0.0,0.0,0.000144,0.0,0.0,0.0,0.0,0.0,0.0,0.0,0.0,0.0,0.0,0.0,0.0,0.0,0.0,0.0,0.0,0.0,0.0,0.0,0.0,0.0
1672947560322206250,285040,1672947560320871372,enu,-0.3877,-0.0302,-0.006,0.0,0.0,0.0,0.000196,0.0,0.0,0.0,0.0,0.0,0.0,0.000196,0.0,0.0,0.0,0.0,0.0,0.0,0.000144,0.0,0.0,0.0,0.0,0.0,0.0,0.0,0.0,0.0,0.0,0.0,0.0,0.0,0.0,0.0,0.0,0.0,0.0,0.0,0.0,0.0
1672947560341992046,285041,1672947560340865651,enu,-0.3971,-0.0311,-0.0057,0.0,0.0,0.0,0.000196,0.0,0.0,0.0,0.0,0.0,0.0,0.000196,0.0,0.0,0.0,0.0,0.0,0.0,0.000144,0.0,0.0,0.0,0.0,0.0,0.0,0.0,0.0,0.0,0.0,0.0,0.0,0.0,0.0,0.0,0.0,0.0,0.0,0.0,0.0,0.0
1672947560362087995,285042,1672947560360943614,enu,-0.4053,-0.031,-0.0048,0.0,0.0,0.0,0.000196,0.0,0.0,0.0,0.0,0.0,0.0,0.000196,0.0,0.0,0.0,0.0,0.0,0.0,0.000144,0.0,0.0,0.0,0.0,0.0,0.0,0.0,0.0,0.0,0.0,0.0,0.0,0.0,0.0,0.0,0.0,0.0,0.0,0.0,0.0,0.0
1672947560382005361,285043,1672947560380876266,enu,-0.4123,-0.0305,-0.004,0.0,0.0,0.0,0.000196,0.0,0.0,0.0,0.0,0.0,0.0,0.000196,0.0,0.0,0.0,0.0,0.0,0.0,0.000144,0.0,0.0,0.0,0.0,0.0,0.0,0.0,0.0,0.0,0.0,0.0,0.0,0.0,0.0,0.0,0.0,0.0,0.0,0.0,0.0,0.0
1672947560402013713,285044,1672947560400860084,enu,-0.4192,-0.0291,-0.0028,0.0,0.0,0.0,0.000196,0.0,0.0,0.0,0.0,0.0,0.0,0.000196,0.0,0.0,0.0,0.0,0.0,0.0,0.000144,0.0,0.0,0.0,0.0,0.0,0.0,0.0,0.0,0.0,0.0,0.0,0.0,0.0,0.0,0.0,0.0,0.0,0.0,0.0,0.0,0.0
1672947560421821022,285045,1672947560420944559,enu,-0.4252,-0.0271,-0.0015,0.0,0.0,0.0,0.000196,0.0,0.0,0.0,0.0,0.0,0.0,0.000196,0.0,0.0,0.0,0.0,0.0,0.0,0.000144,0.0,0.0,0.0,0.0,0.0,0.0,0.0,0.0,0.0,0.0,0.0,0.0,0.0,0.0,0.0,0.0,0.0,0.0,0.0,0.0,0.0
1672947560441871896,285046,1672947560440868621,enu,-0.4313,-0.0256,-0.0011,0.0,0.0,0.0,0.000196,0.0,0.0,0.0,0.0,0.0,0.0,0.000196,0.0,0.0,0.0,0.0,0.0,0.0,0.000144,0.0,0.0,0.0,0.0,0.0,0.0,0.0,0.0,0.0,0.0,0.0,0.0,0.0,0.0,0.0,0.0,0.0,0.0,0.0,0.0,0.0
1672947560461732791,285047,1672947560460868796,enu,-0.4374,-0.0246,-0.0012,0.0,0.0,0.0,0.000196,0.0,0.0,0.0,0.0,0.0,0.0,0.000196,0.0,0.0,0.0,0.0,0.0,0.0,0.000144,0.0,0.0,0.0,0.0,0.0,0.0,0.0,0.0,0.0,0.0,0.0,0.0,0.0,0.0,0.0,0.0,0.0,0.0,0.0,0.0,0.0
1672947560482189369,285048,1672947560480922368,enu,-0.4427,-0.0248,-0.0018,0.0,0.0,0.0,0.000196,0.0,0.0,0.0,0.0,0.0,0.0,0.000196,0.0,0.0,0.0,0.0,0.0,0.0,0.000144,0.0,0.0,0.0,0.0,0.0,0.0,0.0,0.0,0.0,0.0,0.0,0.0,0.0,0.0,0.0,0.0,0.0,0.0,0.0,0.0,0.0
1672947560501953735,285049,1672947560500948883,enu,-0.448,-0.0258,-0.0027,0.0,0.0,0.0,0.000196,0.0,0.0,0.0,0.0,0.0,0.0,0.000196,0.0,0.0,0.0,0.0,0.0,0.0,0.000144,0.0,0.0,0.0,0.0,0.0,0.0,0.0,0.0,0.0,0.0,0.0,0.0,0.0,0.0,0.0,0.0,0.0,0.0,0.0,0.0,0.0
1672947560522170299,285050,1672947560521023845,enu,-0.4533,-0.0277,-0.0036,0.0,0.0,0.0,0.000196,0.0,0.0,0.0,0.0,0.0,0.0,0.000196,0.0,0.0,0.0,0.0,0.0,0.0,0.000144,0.0,0.0,0.0,0.0,0.0,0.0,0.0,0.0,0.0,0.0,0.0,0.0,0.0,0.0,0.0,0.0,0.0,0.0,0.0,0.0,0.0
1672947560541975768,285051,1672947560540968261,enu,-0.4596,-0.0304,-0.0047,0.0,0.0,0.0,0.000196,0.0,0.0,0.0,0.0,0.0,0.0,0.000196,0.0,0.0,0.0,0.0,0.0,0.0,0.000144,0.0,0.0,0.0,0.0,0.0,0.0,0.0,0.0,0.0,0.0,0.0,0.0,0.0,0.0,0.0,0.0,0.0,0.0,0.0,0.0,0.0
1672947560561862175,285052,1672947560560963472,enu,-0.4656,-0.0331,-0.0064,0.0,0.0,0.0,0.000196,0.0,0.0,0.0,0.0,0.0,0.0,0.000196,0.0,0.0,0.0,0.0,0.0,0.0,0.000144,0.0,0.0,0.0,0.0,0.0,0.0,0.0,0.0,0.0,0.0,0.0,0.0,0.0,0.0,0.0,0.0,0.0,0.0,0.0,0.0,0.0
1672947560581676820,285053,1672947560580804406,enu,-0.4715,-0.0357,-0.0085,0.0,0.0,0.0,0.000196,0.0,0.0,0.0,0.0,0.0,0.0,0.000196,0.0,0.0,0.0,0.0,0.0,0.0,0.000144,0.0,0.0,0.0,0.0,0.0,0.0,0.0,0.0,0.0,0.0,0.0,0.0,0.0,0.0,0.0,0.0,0.0,0.0,0.0,0.0,0.0
1672947560602326730,285054,1672947560601067335,enu,-0.4787,-0.038,-0.0102,0.0,0.0,0.0,0.000196,0.0,0.0,0.0,0.0,0.0,0.0,0.000196,0.0,0.0,0.0,0.0,0.0,0.0,0.000144,0.0,0.0,0.0,0.0,0.0,0.0,0.0,0.0,0.0,0.0,0.0,0.0,0.0,0.0,0.0,0.0,0.0,0.0,0.0,0.0,0.0
1672947560622135022,285055,1672947560620947103,enu,-0.4849,-0.0398,-0.0101,0.0,0.0,0.0,0.000196,0.0,0.0,0.0,0.0,0.0,0.0,0.000196,0.0,0.0,0.0,0.0,0.0,0.0,0.000144,0.0,0.0,0.0,0.0,0.0,0.0,0.0,0.0,0.0,0.0,0.0,0.0,0.0,0.0,0.0,0.0,0.0,0.0,0.0,0.0,0.0
1672947560642119255,285056,1672947560640846526,enu,-0.4933,-0.0413,-0.0092,0.0,0.0,0.0,0.000196,0.0,0.0,0.0,0.0,0.0,0.0,0.000196,0.0,0.0,0.0,0.0,0.0,0.0,0.000144,0.0,0.0,0.0,0.0,0.0,0.0,0.0,0.0,0.0,0.0,0.0,0.0,0.0,0.0,0.0,0.0,0.0,0.0,0.0,0.0,0.0
1672947560662068020,285057,1672947560660939788,enu,-0.5026,-0.0417,-0.0079,0.0,0.0,0.0,0.000196,0.0,0.0,0.0,0.0,0.0,0.0,0.000196,0.0,0.0,0.0,0.0,0.0,0.0,0.000144,0.0,0.0,0.0,0.0,0.0,0.0,0.0,0.0,0.0,0.0,0.0,0.0,0.0,0.0,0.0,0.0,0.0,0.0,0.0,0.0,0.0
1672947560682175151,285058,1672947560680965435,enu,-0.5122,-0.0417,-0.0065,0.0,0.0,0.0,0.000196,0.0,0.0,0.0,0.0,0.0,0.0,0.000196,0.0,0.0,0.0,0.0,0.0,0.0,0.000144,0.0,0.0,0.0,0.0,0.0,0.0,0.0,0.0,0.0,0.0,0.0,0.0,0.0,0.0,0.0,0.0,0.0,0.0,0.0,0.0,0.0
1672947560702148183,285059,1672947560700945840,enu,-0.523,-0.0411,-0.0055,0.0,0.0,0.0,0.000196,0.0,0.0,0.0,0.0,0.0,0.0,0.000196,0.0,0.0,0.0,0.0,0.0,0.0,0.000144,0.0,0.0,0.0,0.0,0.0,0.0,0.0,0.0,0.0,0.0,0.0,0.0,0.0,0.0,0.0,0.0,0.0,0.0,0.0,0.0,0.0
1672947560721948675,285060,1672947560720921378,enu,-0.534,-0.0405,-0.0049,0.0,0.0,0.0,0.000196,0.0,0.0,0.0,0.0,0.0,0.0,0.000196,0.0,0.0,0.0,0.0,0.0,0.0,0.000144,0.0,0.0,0.0,0.0,0.0,0.0,0.0,0.0,0.0,0.0,0.0,0.0,0.0,0.0,0.0,0.0,0.0,0.0,0.0,0.0,0.0
1672947560742150375,285061,1672947560740954161,enu,-0.5455,-0.0396,-0.0043,0.0,0.0,0.0,0.000196,0.0,0.0,0.0,0.0,0.0,0.0,0.000196,0.0,0.0,0.0,0.0,0.0,0.0,0.000144,0.0,0.0,0.0,0.0,0.0,0.0,0.0,0.0,0.0,0.0,0.0,0.0,0.0,0.0,0.0,0.0,0.0,0.0,0.0,0.0,0.0
1672947560762360213,285062,1672947560760929845,enu,-0.5585,-0.0386,-0.0052,0.0,0.0,0.0,0.000196,0.0,0.0,0.0,0.0,0.0,0.0,0.000196,0.0,0.0,0.0,0.0,0.0,0.0,0.000144,0.0,0.0,0.0,0.0,0.0,0.0,0.0,0.0,0.0,0.0,0.0,0.0,0.0,0.0,0.0,0.0,0.0,0.0,0.0,0.0,0.0
1672947560782251831,285063,1672947560780952238,enu,-0.5716,-0.0372,-0.0065,0.0,0.0,0.0,0.000196,0.0,0.0,0.0,0.0,0.0,0.0,0.000196,0.0,0.0,0.0,0.0,0.0,0.0,0.000144,0.0,0.0,0.0,0.0,0.0,0.0,0.0,0.0,0.0,0.0,0.0,0.0,0.0,0.0,0.0,0.0,0.0,0.0,0.0,0.0,0.0
1672947560802063541,285064,1672947560800879575,enu,-0.5851,-0.0359,-0.0085,0.0,0.0,0.0,0.000196,0.0,0.0,0.0,0.0,0.0,0.0,0.000196,0.0,0.0,0.0,0.0,0.0,0.0,0.000144,0.0,0.0,0.0,0.0,0.0,0.0,0.0,0.0,0.0,0.0,0.0,0.0,0.0,0.0,0.0,0.0,0.0,0.0,0.0,0.0,0.0
1672947560821850998,285065,1672947560820849516,enu,-0.5999,-0.035,-0.0112,0.0,0.0,0.0,0.000196,0.0,0.0,0.0,0.0,0.0,0.0,0.000196,0.0,0.0,0.0,0.0,0.0,0.0,0.000144,0.0,0.0,0.0,0.0,0.0,0.0,0.0,0.0,0.0,0.0,0.0,0.0,0.0,0.0,0.0,0.0,0.0,0.0,0.0,0.0,0.0
1672947560842364744,285066,1672947560840914192,enu,-0.6146,-0.0347,-0.0133,0.0,0.0,0.0,0.000196,0.0,0.0,0.0,0.0,0.0,0.0,0.000196,0.0,0.0,0.0,0.0,0.0,0.0,0.000144,0.0,0.0,0.0,0.0,0.0,0.0,0.0,0.0,0.0,0.0,0.0,0.0,0.0,0.0,0.0,0.0,0.0,0.0,0.0,0.0,0.0
1672947560861829201,285067,1672947560860823299,enu,-0.6315,-0.0355,-0.0156,0.0,0.0,0.0,0.000196,0.0,0.0,0.0,0.0,0.0,0.0,0.000196,0.0,0.0,0.0,0.0,0.0,0.0,0.000144,0.0,0.0,0.0,0.0,0.0,0.0,0.0,0.0,0.0,0.0,0.0,0.0,0.0,0.0,0.0,0.0,0.0,0.0,0.0,0.0,0.0
1672947560882218090,285068,1672947560880842353,enu,-0.6489,-0.0371,-0.0184,0.0,0.0,0.0,0.000196,0.0,0.0,0.0,0.0,0.0,0.0,0.000196,0.0,0.0,0.0,0.0,0.0,0.0,0.000144,0.0,0.0,0.0,0.0,0.0,0.0,0.0,0.0,0.0,0.0,0.0,0.0,0.0,0.0,0.0,0.0,0.0,0.0,0.0,0.0,0.0
1672947560902240925,285069,1672947560900893661,enu,-0.667,-0.0387,-0.0215,0.0,0.0,0.0,0.000196,0.0,0.0,0.0,0.0,0.0,0.0,0.000196,0.0,0.0,0.0,0.0,0.0,0.0,0.000144,0.0,0.0,0.0,0.0,0.0,0.0,0.0,0.0,0.0,0.0,0.0,0.0,0.0,0.0,0.0,0.0,0.0,0.0,0.0,0.0,0.0
1672947560922173766,285070,1672947560920870494,enu,-0.6864,-0.0413,-0.024,0.0,0.0,0.0,0.000196,0.0,0.0,0.0,0.0,0.0,0.0,0.000196,0.0,0.0,0.0,0.0,0.0,0.0,0.000144,0.0,0.0,0.0,0.0,0.0,0.0,0.0,0.0,0.0,0.0,0.0,0.0,0.0,0.0,0.0,0.0,0.0,0.0,0.0,0.0,0.0
1672947560942176813,285071,1672947560940931364,enu,-0.7071,-0.0436,-0.027,0.0,0.0,0.0,0.000196,0.0,0.0,0.0,0.0,0.0,0.0,0.000196,0.0,0.0,0.0,0.0,0.0,0.0,0.000144,0.0,0.0,0.0,0.0,0.0,0.0,0.0,0.0,0.0,0.0,0.0,0.0,0.0,0.0,0.0,0.0,0.0,0.0,0.0,0.0,0.0
1672947560962043863,285072,1672947560960929773,enu,-0.7284,-0.0459,-0.0294,0.0,0.0,0.0,0.000196,0.0,0.0,0.0,0.0,0.0,0.0,0.000196,0.0,0.0,0.0,0.0,0.0,0.0,0.000144,0.0,0.0,0.0,0.0,0.0,0.0,0.0,0.0,0.0,0.0,0.0,0.0,0.0,0.0,0.0,0.0,0.0,0.0,0.0,0.0,0.0
1672947560981847166,285073,1672947560980918124,enu,-0.7505,-0.0478,-0.0309,0.0,0.0,0.0,0.000196,0.0,0.0,0.0,0.0,0.0,0.0,0.000196,0.0,0.0,0.0,0.0,0.0,0.0,0.000144,0.0,0.0,0.0,0.0,0.0,0.0,0.0,0.0,0.0,0.0,0.0,0.0,0.0,0.0,0.0,0.0,0.0,0.0,0.0,0.0,0.0
1672947561001788463,285074,1672947561000908010,enu,-0.7747,-0.05,-0.0314,0.0,0.0,0.0,0.000196,0.0,0.0,0.0,0.0,0.0,0.0,0.000196,0.0,0.0,0.0,0.0,0.0,0.0,0.000144,0.0,0.0,0.0,0.0,0.0,0.0,0.0,0.0,0.0,0.0,0.0,0.0,0.0,0.0,0.0,0.0,0.0,0.0,0.0,0.0,0.0
1672947561022238295,285075,1672947561020977528,enu,-0.7982,-0.0523,-0.0308,0.0,0.0,0.0,0.000196,0.0,0.0,0.0,0.0,0.0,0.0,0.000196,0.0,0.0,0.0,0.0,0.0,0.0,0.000144,0.0,0.0,0.0,0.0,0.0,0.0,0.0,0.0,0.0,0.0,0.0,0.0,0.0,0.0,0.0,0.0,0.0,0.0,0.0,0.0,0.0
1672947561041960349,285076,1672947561040884534,enu,-0.823,-0.0548,-0.0312,0.0,0.0,0.0,0.000196,0.0,0.0,0.0,0.0,0.0,0.0,0.000196,0.0,0.0,0.0,0.0,0.0,0.0,0.000144,0.0,0.0,0.0,0.0,0.0,0.0,0.0,0.0,0.0,0.0,0.0,0.0,0.0,0.0,0.0,0.0,0.0,0.0,0.0,0.0,0.0
1672947561062205856,285077,1672947561061014432,enu,-0.8488,-0.0569,-0.0322,0.0,0.0,0.0,0.000196,0.0,0.0,0.0,0.0,0.0,0.0,0.000196,0.0,0.0,0.0,0.0,0.0,0.0,0.000144,0.0,0.0,0.0,0.0,0.0,0.0,0.0,0.0,0.0,0.0,0.0,0.0,0.0,0.0,0.0,0.0,0.0,0.0,0.0,0.0,0.0
1672947561082097601,285078,1672947561080928511,enu,-0.8747,-0.0583,-0.0313,0.0,0.0,0.0,0.000196,0.0,0.0,0.0,0.0,0.0,0.0,0.000196,0.0,0.0,0.0,0.0,0.0,0.0,0.000144,0.0,0.0,0.0,0.0,0.0,0.0,0.0,0.0,0.0,0.0,0.0,0.0,0.0,0.0,0.0,0.0,0.0,0.0,0.0,0.0,0.0
1672947561102255003,285079,1672947561100949113,enu,-0.9016,-0.0596,-0.0312,0.0,0.0,0.0,0.000196,0.0,0.0,0.0,0.0,0.0,0.0,0.000196,0.0,0.0,0.0,0.0,0.0,0.0,0.000144,0.0,0.0,0.0,0.0,0.0,0.0,0.0,0.0,0.0,0.0,0.0,0.0,0.0,0.0,0.0,0.0,0.0,0.0,0.0,0.0,0.0
1672947561121798930,285080,1672947561120849670,enu,-0.9284,-0.0619,-0.0312,0.0,0.0,0.0,0.000196,0.0,0.0,0.0,0.0,0.0,0.0,0.000196,0.0,0.0,0.0,0.0,0.0,0.0,0.000144,0.0,0.0,0.0,0.0,0.0,0.0,0.0,0.0,0.0,0.0,0.0,0.0,0.0,0.0,0.0,0.0,0.0,0.0,0.0,0.0,0.0
1672947561141766935,285081,1672947561140797095,enu,-0.9552,-0.0638,-0.0314,0.0,0.0,0.0,0.000196,0.0,0.0,0.0,0.0,0.0,0.0,0.000196,0.0,0.0,0.0,0.0,0.0,0.0,0.000144,0.0,0.0,0.0,0.0,0.0,0.0,0.0,0.0,0.0,0.0,0.0,0.0,0.0,0.0,0.0,0.0,0.0,0.0,0.0,0.0,0.0
1672947561161790333,285082,1672947561160858700,enu,-0.9841,-0.0651,-0.0311,0.0,0.0,0.0,0.000196,0.0,0.0,0.0,0.0,0.0,0.0,0.000196,0.0,0.0,0.0,0.0,0.0,0.0,0.000144,0.0,0.0,0.0,0.0,0.0,0.0,0.0,0.0,0.0,0.0,0.0,0.0,0.0,0.0,0.0,0.0,0.0,0.0,0.0,0.0,0.0
1672947561182089286,285083,1672947561180855717,enu,-1.0134,-0.0658,-0.0318,0.0,0.0,0.0,0.000196,0.0,0.0,0.0,0.0,0.0,0.0,0.000196,0.0,0.0,0.0,0.0,0.0,0.0,0.000144,0.0,0.0,0.0,0.0,0.0,0.0,0.0,0.0,0.0,0.0,0.0,0.0,0.0,0.0,0.0,0.0,0.0,0.0,0.0,0.0,0.0
1672947561202075676,285084,1672947561200856236,enu,-1.0424,-0.0667,-0.0331,0.0,0.0,0.0,0.000196,0.0,0.0,0.0,0.0,0.0,0.0,0.000196,0.0,0.0,0.0,0.0,0.0,0.0,0.000144,0.0,0.0,0.0,0.0,0.0,0.0,0.0,0.0,0.0,0.0,0.0,0.0,0.0,0.0,0.0,0.0,0.0,0.0,0.0,0.0,0.0
1672947561222120192,285085,1672947561220885181,enu,-1.072,-0.0662,-0.0327,0.0,0.0,0.0,0.000196,0.0,0.0,0.0,0.0,0.0,0.0,0.000196,0.0,0.0,0.0,0.0,0.0,0.0,0.000144,0.0,0.0,0.0,0.0,0.0,0.0,0.0,0.0,0.0,0.0,0.0,0.0,0.0,0.0,0.0,0.0,0.0,0.0,0.0,0.0,0.0
1672947561241998878,285086,1672947561240849800,enu,-1.1013,-0.0669,-0.0324,0.0,0.0,0.0,0.000196,0.0,0.0,0.0,0.0,0.0,0.0,0.000196,0.0,0.0,0.0,0.0,0.0,0.0,0.000144,0.0,0.0,0.0,0.0,0.0,0.0,0.0,0.0,0.0,0.0,0.0,0.0,0.0,0.0,0.0,0.0,0.0,0.0,0.0,0.0,0.0
1672947561262253916,285087,1672947561260987443,enu,-1.1296,-0.0679,-0.0342,0.0,0.0,0.0,0.000196,0.0,0.0,0.0,0.0,0.0,0.0,0.000196,0.0,0.0,0.0,0.0,0.0,0.0,0.000144,0.0,0.0,0.0,0.0,0.0,0.0,0.0,0.0,0.0,0.0,0.0,0.0,0.0,0.0,0.0,0.0,0.0,0.0,0.0,0.0,0.0
1672947561281851581,285088,1672947561280823334,enu,-1.1598,-0.0676,-0.0352,0.0,0.0,0.0,0.000196,0.0,0.0,0.0,0.0,0.0,0.0,0.000196,0.0,0.0,0.0,0.0,0.0,0.0,0.000144,0.0,0.0,0.0,0.0,0.0,0.0,0.0,0.0,0.0,0.0,0.0,0.0,0.0,0.0,0.0,0.0,0.0,0.0,0.0,0.0,0.0
1672947561302214642,285089,1672947561300866475,enu,-1.1874,-0.0667,-0.0353,0.0,0.0,0.0,0.000196,0.0,0.0,0.0,0.0,0.0,0.0,0.000196,0.0,0.0,0.0,0.0,0.0,0.0,0.000144,0.0,0.0,0.0,0.0,0.0,0.0,0.0,0.0,0.0,0.0,0.0,0.0,0.0,0.0,0.0,0.0,0.0,0.0,0.0,0.0,0.0
1672947561322082358,285090,1672947561320861472,enu,-1.2175,-0.0691,-0.0375,0.0,0.0,0.0,0.000196,0.0,0.0,0.0,0.0,0.0,0.0,0.000196,0.0,0.0,0.0,0.0,0.0,0.0,0.000144,0.0,0.0,0.0,0.0,0.0,0.0,0.0,0.0,0.0,0.0,0.0,0.0,0.0,0.0,0.0,0.0,0.0,0.0,0.0,0.0,0.0
1672947561342169172,285091,1672947561340787536,enu,-1.2439,-0.0696,-0.038,0.0,0.0,0.0,0.000196,0.0,0.0,0.0,0.0,0.0,0.0,0.000196,0.0,0.0,0.0,0.0,0.0,0.0,0.000144,0.0,0.0,0.0,0.0,0.0,0.0,0.0,0.0,0.0,0.0,0.0,0.0,0.0,0.0,0.0,0.0,0.0,0.0,0.0,0.0,0.0
1672947561362287461,285092,1672947561360903187,enu,-1.274,-0.0725,-0.0393,0.0,0.0,0.0,0.000196,0.0,0.0,0.0,0.0,0.0,0.0,0.000196,0.0,0.0,0.0,0.0,0.0,0.0,0.000144,0.0,0.0,0.0,0.0,0.0,0.0,0.0,0.0,0.0,0.0,0.0,0.0,0.0,0.0,0.0,0.0,0.0,0.0,0.0,0.0,0.0
1672947561382116715,285093,1672947561380898892,enu,-1.3009,-0.0736,-0.041,0.0,0.0,0.0,0.000196,0.0,0.0,0.0,0.0,0.0,0.0,0.000196,0.0,0.0,0.0,0.0,0.0,0.0,0.000144,0.0,0.0,0.0,0.0,0.0,0.0,0.0,0.0,0.0,0.0,0.0,0.0,0.0,0.0,0.0,0.0,0.0,0.0,0.0,0.0,0.0
1672947561401861641,285094,1672947561400868650,enu,-1.3315,-0.0766,-0.0421,0.0,0.0,0.0,0.000196,0.0,0.0,0.0,0.0,0.0,0.0,0.000196,0.0,0.0,0.0,0.0,0.0,0.0,0.000144,0.0,0.0,0.0,0.0,0.0,0.0,0.0,0.0,0.0,0.0,0.0,0.0,0.0,0.0,0.0,0.0,0.0,0.0,0.0,0.0,0.0
1672947561421797595,285095,1672947561420862501,enu,-1.3582,-0.0788,-0.0423,0.0,0.0,0.0,0.000196,0.0,0.0,0.0,0.0,0.0,0.0,0.000196,0.0,0.0,0.0,0.0,0.0,0.0,0.000144,0.0,0.0,0.0,0.0,0.0,0.0,0.0,0.0,0.0,0.0,0.0,0.0,0.0,0.0,0.0,0.0,0.0,0.0,0.0,0.0,0.0
1672947561441860030,285096,1672947561440958424,enu,-1.3869,-0.0825,-0.044,0.0,0.0,0.0,0.000196,0.0,0.0,0.0,0.0,0.0,0.0,0.000196,0.0,0.0,0.0,0.0,0.0,0.0,0.000144,0.0,0.0,0.0,0.0,0.0,0.0,0.0,0.0,0.0,0.0,0.0,0.0,0.0,0.0,0.0,0.0,0.0,0.0,0.0,0.0,0.0
1672947561462206774,285097,1672947561460899507,enu,-1.4145,-0.0841,-0.0427,0.0,0.0,0.0,0.000196,0.0,0.0,0.0,0.0,0.0,0.0,0.000196,0.0,0.0,0.0,0.0,0.0,0.0,0.000144,0.0,0.0,0.0,0.0,0.0,0.0,0.0,0.0,0.0,0.0,0.0,0.0,0.0,0.0,0.0,0.0,0.0,0.0,0.0,0.0,0.0
1672947561482076466,285098,1672947561480879689,enu,-1.4422,-0.0889,-0.044,0.0,0.0,0.0,0.000196,0.0,0.0,0.0,0.0,0.0,0.0,0.000196,0.0,0.0,0.0,0.0,0.0,0.0,0.000144,0.0,0.0,0.0,0.0,0.0,0.0,0.0,0.0,0.0,0.0,0.0,0.0,0.0,0.0,0.0,0.0,0.0,0.0,0.0,0.0,0.0
1672947561502301449,285099,1672947561500989481,enu,-1.4676,-0.0909,-0.0427,0.0,0.0,0.0,0.000196,0.0,0.0,0.0,0.0,0.0,0.0,0.000196,0.0,0.0,0.0,0.0,0.0,0.0,0.000144,0.0,0.0,0.0,0.0,0.0,0.0,0.0,0.0,0.0,0.0,0.0,0.0,0.0,0.0,0.0,0.0,0.0,0.0,0.0,0.0,0.0
1672947561522043096,285100,1672947561520905082,enu,-1.4986,-0.093,-0.045,0.0,0.0,0.0,0.000196,0.0,0.0,0.0,0.0,0.0,0.0,0.000196,0.0,0.0,0.0,0.0,0.0,0.0,0.000144,0.0,0.0,0.0,0.0,0.0,0.0,0.0,0.0,0.0,0.0,0.0,0.0,0.0,0.0,0.0,0.0,0.0,0.0,0.0,0.0,0.0
1672947561541712020,285101,1672947561540863339,enu,-1.5222,-0.0959,-0.0457,0.0,0.0,0.0,0.000196,0.0,0.0,0.0,0.0,0.0,0.0,0.000196,0.0,0.0,0.0,0.0,0.0,0.0,0.000144,0.0,0.0,0.0,0.0,0.0,0.0,0.0,0.0,0.0,0.0,0.0,0.0,0.0,0.0,0.0,0.0,0.0,0.0,0.0,0.0,0.0
1672947561561874292,285102,1672947561560914773,enu,-1.5516,-0.0996,-0.0453,0.0,0.0,0.0,0.000196,0.0,0.0,0.0,0.0,0.0,0.0,0.000196,0.0,0.0,0.0,0.0,0.0,0.0,0.000144,0.0,0.0,0.0,0.0,0.0,0.0,0.0,0.0,0.0,0.0,0.0,0.0,0.0,0.0,0.0,0.0,0.0,0.0,0.0,0.0,0.0
1672947561581693553,285103,1672947561580835761,enu,-1.5779,-0.1026,-0.0457,0.0,0.0,0.0,0.000196,0.0,0.0,0.0,0.0,0.0,0.0,0.000196,0.0,0.0,0.0,0.0,0.0,0.0,0.000144,0.0,0.0,0.0,0.0,0.0,0.0,0.0,0.0,0.0,0.0,0.0,0.0,0.0,0.0,0.0,0.0,0.0,0.0,0.0,0.0,0.0
1672947561601715739,285104,1672947561600899155,enu,-1.6045,-0.1035,-0.0471,0.0,0.0,0.0,0.000196,0.0,0.0,0.0,0.0,0.0,0.0,0.000196,0.0,0.0,0.0,0.0,0.0,0.0,0.000144,0.0,0.0,0.0,0.0,0.0,0.0,0.0,0.0,0.0,0.0,0.0,0.0,0.0,0.0,0.0,0.0,0.0,0.0,0.0,0.0,0.0
1672947561622196189,285105,1672947561620941209,enu,-1.6326,-0.1063,-0.0487,0.0,0.0,0.0,0.000196,0.0,0.0,0.0,0.0,0.0,0.0,0.000196,0.0,0.0,0.0,0.0,0.0,0.0,0.000144,0.0,0.0,0.0,0.0,0.0,0.0,0.0,0.0,0.0,0.0,0.0,0.0,0.0,0.0,0.0,0.0,0.0,0.0,0.0,0.0,0.0
1672947561642004049,285106,1672947561640823580,enu,-1.6569,-0.1082,-0.05,0.0,0.0,0.0,0.000196,0.0,0.0,0.0,0.0,0.0,0.0,0.000196,0.0,0.0,0.0,0.0,0.0,0.0,0.000144,0.0,0.0,0.0,0.0,0.0,0.0,0.0,0.0,0.0,0.0,0.0,0.0,0.0,0.0,0.0,0.0,0.0,0.0,0.0,0.0,0.0
1672947561662044619,285107,1672947561660868575,enu,-1.6855,-0.1094,-0.0508,0.0,0.0,0.0,0.000196,0.0,0.0,0.0,0.0,0.0,0.0,0.000196,0.0,0.0,0.0,0.0,0.0,0.0,0.000144,0.0,0.0,0.0,0.0,0.0,0.0,0.0,0.0,0.0,0.0,0.0,0.0,0.0,0.0,0.0,0.0,0.0,0.0,0.0,0.0,0.0
1672947561681947696,285108,1672947561680897065,enu,-1.7105,-0.1099,-0.051,0.0,0.0,0.0,0.000196,0.0,0.0,0.0,0.0,0.0,0.0,0.000196,0.0,0.0,0.0,0.0,0.0,0.0,0.000144,0.0,0.0,0.0,0.0,0.0,0.0,0.0,0.0,0.0,0.0,0.0,0.0,0.0,0.0,0.0,0.0,0.0,0.0,0.0,0.0,0.0
1672947561702204657,285109,1672947561700838081,enu,-1.7355,-0.1105,-0.0505,0.0,0.0,0.0,0.000196,0.0,0.0,0.0,0.0,0.0,0.0,0.000196,0.0,0.0,0.0,0.0,0.0,0.0,0.000144,0.0,0.0,0.0,0.0,0.0,0.0,0.0,0.0,0.0,0.0,0.0,0.0,0.0,0.0,0.0,0.0,0.0,0.0,0.0,0.0,0.0
1672947561721705389,285110,1672947561720836144,enu,-1.7616,-0.1112,-0.0509,0.0,0.0,0.0,0.000196,0.0,0.0,0.0,0.0,0.0,0.0,0.000196,0.0,0.0,0.0,0.0,0.0,0.0,0.000144,0.0,0.0,0.0,0.0,0.0,0.0,0.0,0.0,0.0,0.0,0.0,0.0,0.0,0.0,0.0,0.0,0.0,0.0,0.0,0.0,0.0
1672947561742203172,285111,1672947561740900947,enu,-1.7877,-0.1116,-0.0501,0.0,0.0,0.0,0.000196,0.0,0.0,0.0,0.0,0.0,0.0,0.000196,0.0,0.0,0.0,0.0,0.0,0.0,0.000144,0.0,0.0,0.0,0.0,0.0,0.0,0.0,0.0,0.0,0.0,0.0,0.0,0.0,0.0,0.0,0.0,0.0,0.0,0.0,0.0,0.0
1672947561762212057,285112,1672947561760964252,enu,-1.813,-0.1118,-0.0485,0.0,0.0,0.0,0.000196,0.0,0.0,0.0,0.0,0.0,0.0,0.000196,0.0,0.0,0.0,0.0,0.0,0.0,0.000144,0.0,0.0,0.0,0.0,0.0,0.0,0.0,0.0,0.0,0.0,0.0,0.0,0.0,0.0,0.0,0.0,0.0,0.0,0.0,0.0,0.0
1672947561782142230,285113,1672947561780914553,enu,-1.8413,-0.1138,-0.0501,0.0,0.0,0.0,0.000196,0.0,0.0,0.0,0.0,0.0,0.0,0.000196,0.0,0.0,0.0,0.0,0.0,0.0,0.000121,0.0,0.0,0.0,0.0,0.0,0.0,0.0,0.0,0.0,0.0,0.0,0.0,0.0,0.0,0.0,0.0,0.0,0.0,0.0,0.0,0.0
1672947561801989072,285114,1672947561800991144,enu,-1.8642,-0.1154,-0.0481,0.0,0.0,0.0,0.000196,0.0,0.0,0.0,0.0,0.0,0.0,0.000196,0.0,0.0,0.0,0.0,0.0,0.0,0.000121,0.0,0.0,0.0,0.0,0.0,0.0,0.0,0.0,0.0,0.0,0.0,0.0,0.0,0.0,0.0,0.0,0.0,0.0,0.0,0.0,0.0
1672947561822121739,285115,1672947561820832597,enu,-1.89,-0.1156,-0.0469,0.0,0.0,0.0,0.000196,0.0,0.0,0.0,0.0,0.0,0.0,0.000196,0.0,0.0,0.0,0.0,0.0,0.0,0.000121,0.0,0.0,0.0,0.0,0.0,0.0,0.0,0.0,0.0,0.0,0.0,0.0,0.0,0.0,0.0,0.0,0.0,0.0,0.0,0.0,0.0
1672947561842130281,285116,1672947561840869777,enu,-1.9119,-0.118,-0.0496,0.0,0.0,0.0,0.000196,0.0,0.0,0.0,0.0,0.0,0.0,0.000196,0.0,0.0,0.0,0.0,0.0,0.0,0.000121,0.0,0.0,0.0,0.0,0.0,0.0,0.0,0.0,0.0,0.0,0.0,0.0,0.0,0.0,0.0,0.0,0.0,0.0,0.0,0.0,0.0
1672947561862190476,285117,1672947561860941314,enu,-1.939,-0.1192,-0.0506,0.0,0.0,0.0,0.000196,0.0,0.0,0.0,0.0,0.0,0.0,0.000196,0.0,0.0,0.0,0.0,0.0,0.0,0.000121,0.0,0.0,0.0,0.0,0.0,0.0,0.0,0.0,0.0,0.0,0.0,0.0,0.0,0.0,0.0,0.0,0.0,0.0,0.0,0.0,0.0
1672947561882048934,285118,1672947561880845743,enu,-1.961,-0.1193,-0.0547,0.0,0.0,0.0,0.000196,0.0,0.0,0.0,0.0,0.0,0.0,0.000196,0.0,0.0,0.0,0.0,0.0,0.0,0.000121,0.0,0.0,0.0,0.0,0.0,0.0,0.0,0.0,0.0,0.0,0.0,0.0,0.0,0.0,0.0,0.0,0.0,0.0,0.0,0.0,0.0
1672947561901692437,285119,1672947561900802633,enu,-1.9901,-0.1185,-0.0577,0.0,0.0,0.0,0.000196,0.0,0.0,0.0,0.0,0.0,0.0,0.000196,0.0,0.0,0.0,0.0,0.0,0.0,0.000121,0.0,0.0,0.0,0.0,0.0,0.0,0.0,0.0,0.0,0.0,0.0,0.0,0.0,0.0,0.0,0.0,0.0,0.0,0.0,0.0,0.0
1672947561922042173,285120,1672947561920942623,enu,-2.0134,-0.1192,-0.064,0.0,0.0,0.0,0.000196,0.0,0.0,0.0,0.0,0.0,0.0,0.000196,0.0,0.0,0.0,0.0,0.0,0.0,0.000121,0.0,0.0,0.0,0.0,0.0,0.0,0.0,0.0,0.0,0.0,0.0,0.0,0.0,0.0,0.0,0.0,0.0,0.0,0.0,0.0,0.0
1672947561941964331,285121,1672947561940974799,enu,-2.0381,-0.1185,-0.0685,0.0,0.0,0.0,0.000196,0.0,0.0,0.0,0.0,0.0,0.0,0.000196,0.0,0.0,0.0,0.0,0.0,0.0,0.000121,0.0,0.0,0.0,0.0,0.0,0.0,0.0,0.0,0.0,0.0,0.0,0.0,0.0,0.0,0.0,0.0,0.0,0.0,0.0,0.0,0.0
1672947561961966608,285122,1672947561960862511,enu,-2.0652,-0.1198,-0.0753,0.0,0.0,0.0,0.000196,0.0,0.0,0.0,0.0,0.0,0.0,0.000196,0.0,0.0,0.0,0.0,0.0,0.0,0.000121,0.0,0.0,0.0,0.0,0.0,0.0,0.0,0.0,0.0,0.0,0.0,0.0,0.0,0.0,0.0,0.0,0.0,0.0,0.0,0.0,0.0
1672947561981988775,285123,1672947561980933733,enu,-2.0845,-0.1207,-0.0825,0.0,0.0,0.0,0.000196,0.0,0.0,0.0,0.0,0.0,0.0,0.000196,0.0,0.0,0.0,0.0,0.0,0.0,0.000121,0.0,0.0,0.0,0.0,0.0,0.0,0.0,0.0,0.0,0.0,0.0,0.0,0.0,0.0,0.0,0.0,0.0,0.0,0.0,0.0,0.0
1672947562001802974,285124,1672947562000901672,enu,-2.1128,-0.123,-0.0786,0.0,0.0,0.0,0.000196,0.0,0.0,0.0,0.0,0.0,0.0,0.000196,0.0,0.0,0.0,0.0,0.0,0.0,0.000121,0.0,0.0,0.0,0.0,0.0,0.0,0.0,0.0,0.0,0.0,0.0,0.0,0.0,0.0,0.0,0.0,0.0,0.0,0.0,0.0,0.0
1672947562022182768,285125,1672947562020988507,enu,-2.133,-0.1247,-0.0783,0.0,0.0,0.0,0.000196,0.0,0.0,0.0,0.0,0.0,0.0,0.000196,0.0,0.0,0.0,0.0,0.0,0.0,0.000121,0.0,0.0,0.0,0.0,0.0,0.0,0.0,0.0,0.0,0.0,0.0,0.0,0.0,0.0,0.0,0.0,0.0,0.0,0.0,0.0,0.0
1672947562042190241,285126,1672947562040967722,enu,-2.1515,-0.1242,-0.0744,0.0,0.0,0.0,0.000196,0.0,0.0,0.0,0.0,0.0,0.0,0.000196,0.0,0.0,0.0,0.0,0.0,0.0,0.000121,0.0,0.0,0.0,0.0,0.0,0.0,0.0,0.0,0.0,0.0,0.0,0.0,0.0,0.0,0.0,0.0,0.0,0.0,0.0,0.0,0.0
1672947562062243853,285127,1672947562060910204,enu,-2.1767,-0.1257,-0.0701,0.0,0.0,0.0,0.000196,0.0,0.0,0.0,0.0,0.0,0.0,0.000196,0.0,0.0,0.0,0.0,0.0,0.0,0.000121,0.0,0.0,0.0,0.0,0.0,0.0,0.0,0.0,0.0,0.0,0.0,0.0,0.0,0.0,0.0,0.0,0.0,0.0,0.0,0.0,0.0
1672947562082003604,285128,1672947562080963174,enu,-2.1976,-0.1258,-0.0722,0.0,0.0,0.0,0.000196,0.0,0.0,0.0,0.0,0.0,0.0,0.000196,0.0,0.0,0.0,0.0,0.0,0.0,0.000121,0.0,0.0,0.0,0.0,0.0,0.0,0.0,0.0,0.0,0.0,0.0,0.0,0.0,0.0,0.0,0.0,0.0,0.0,0.0,0.0,0.0
1672947562102198689,285129,1672947562100959117,enu,-2.2195,-0.1245,-0.0638,0.0,0.0,0.0,0.000196,0.0,0.0,0.0,0.0,0.0,0.0,0.000196,0.0,0.0,0.0,0.0,0.0,0.0,0.000121,0.0,0.0,0.0,0.0,0.0,0.0,0.0,0.0,0.0,0.0,0.0,0.0,0.0,0.0,0.0,0.0,0.0,0.0,0.0,0.0,0.0
1672947562122363391,285130,1672947562121043469,enu,-2.2359,-0.1209,-0.0573,0.0,0.0,0.0,0.000196,0.0,0.0,0.0,0.0,0.0,0.0,0.000196,0.0,0.0,0.0,0.0,0.0,0.0,0.000121,0.0,0.0,0.0,0.0,0.0,0.0,0.0,0.0,0.0,0.0,0.0,0.0,0.0,0.0,0.0,0.0,0.0,0.0,0.0,0.0,0.0
1672947562142263805,285131,1672947562140928190,enu,-2.256,-0.1193,-0.0541,0.0,0.0,0.0,0.000196,0.0,0.0,0.0,0.0,0.0,0.0,0.000196,0.0,0.0,0.0,0.0,0.0,0.0,0.000121,0.0,0.0,0.0,0.0,0.0,0.0,0.0,0.0,0.0,0.0,0.0,0.0,0.0,0.0,0.0,0.0,0.0,0.0,0.0,0.0,0.0
1672947562161824830,285132,1672947562160948240,enu,-2.2772,-0.1149,-0.046,0.0,0.0,0.0,0.000196,0.0,0.0,0.0,0.0,0.0,0.0,0.000196,0.0,0.0,0.0,0.0,0.0,0.0,0.000121,0.0,0.0,0.0,0.0,0.0,0.0,0.0,0.0,0.0,0.0,0.0,0.0,0.0,0.0,0.0,0.0,0.0,0.0,0.0,0.0,0.0
1672947562182087212,285133,1672947562180974443,enu,-2.2965,-0.1138,-0.0439,0.0,0.0,0.0,0.000196,0.0,0.0,0.0,0.0,0.0,0.0,0.000196,0.0,0.0,0.0,0.0,0.0,0.0,0.000121,0.0,0.0,0.0,0.0,0.0,0.0,0.0,0.0,0.0,0.0,0.0,0.0,0.0,0.0,0.0,0.0,0.0,0.0,0.0,0.0,0.0
1672947562202096754,285134,1672947562200860188,enu,-2.312,-0.1108,-0.0395,0.0,0.0,0.0,0.000196,0.0,0.0,0.0,0.0,0.0,0.0,0.000196,0.0,0.0,0.0,0.0,0.0,0.0,0.000121,0.0,0.0,0.0,0.0,0.0,0.0,0.0,0.0,0.0,0.0,0.0,0.0,0.0,0.0,0.0,0.0,0.0,0.0,0.0,0.0,0.0
1672947562222061248,285135,1672947562220915770,enu,-2.3295,-0.1091,-0.0384,0.0,0.0,0.0,0.000196,0.0,0.0,0.0,0.0,0.0,0.0,0.000196,0.0,0.0,0.0,0.0,0.0,0.0,0.000121,0.0,0.0,0.0,0.0,0.0,0.0,0.0,0.0,0.0,0.0,0.0,0.0,0.0,0.0,0.0,0.0,0.0,0.0,0.0,0.0,0.0
1672947562241976963,285136,1672947562240842333,enu,-2.352,-0.1069,-0.0416,0.0,0.0,0.0,0.000196,0.0,0.0,0.0,0.0,0.0,0.0,0.000196,0.0,0.0,0.0,0.0,0.0,0.0,0.000121,0.0,0.0,0.0,0.0,0.0,0.0,0.0,0.0,0.0,0.0,0.0,0.0,0.0,0.0,0.0,0.0,0.0,0.0,0.0,0.0,0.0
1672947562261958963,285137,1672947562260998112,enu,-2.3693,-0.1046,-0.0449,0.0,0.0,0.0,0.000196,0.0,0.0,0.0,0.0,0.0,0.0,0.000196,0.0,0.0,0.0,0.0,0.0,0.0,0.000121,0.0,0.0,0.0,0.0,0.0,0.0,0.0,0.0,0.0,0.0,0.0,0.0,0.0,0.0,0.0,0.0,0.0,0.0,0.0,0.0,0.0
1672947562281890474,285138,1672947562280908664,enu,-2.3886,-0.1028,-0.0487,0.0,0.0,0.0,0.000196,0.0,0.0,0.0,0.0,0.0,0.0,0.000196,0.0,0.0,0.0,0.0,0.0,0.0,0.000121,0.0,0.0,0.0,0.0,0.0,0.0,0.0,0.0,0.0,0.0,0.0,0.0,0.0,0.0,0.0,0.0,0.0,0.0,0.0,0.0,0.0
1672947562301885433,285139,1672947562300878418,enu,-2.4015,-0.0989,-0.051,0.0,0.0,0.0,0.000196,0.0,0.0,0.0,0.0,0.0,0.0,0.000196,0.0,0.0,0.0,0.0,0.0,0.0,0.000121,0.0,0.0,0.0,0.0,0.0,0.0,0.0,0.0,0.0,0.0,0.0,0.0,0.0,0.0,0.0,0.0,0.0,0.0,0.0,0.0,0.0
1672947562322208706,285140,1672947562320846244,enu,-2.4234,-0.0964,-0.0563,0.0,0.0,0.0,0.000196,0.0,0.0,0.0,0.0,0.0,0.0,0.000196,0.0,0.0,0.0,0.0,0.0,0.0,0.000121,0.0,0.0,0.0,0.0,0.0,0.0,0.0,0.0,0.0,0.0,0.0,0.0,0.0,0.0,0.0,0.0,0.0,0.0,0.0,0.0,0.0
1672947562342126568,285141,1672947562340887084,enu,-2.4409,-0.0917,-0.0551,0.0,0.0,0.0,0.000196,0.0,0.0,0.0,0.0,0.0,0.0,0.000196,0.0,0.0,0.0,0.0,0.0,0.0,0.000121,0.0,0.0,0.0,0.0,0.0,0.0,0.0,0.0,0.0,0.0,0.0,0.0,0.0,0.0,0.0,0.0,0.0,0.0,0.0,0.0,0.0
1672947562361999845,285142,1672947562360837492,enu,-2.4565,-0.0882,-0.0574,0.0,0.0,0.0,0.000196,0.0,0.0,0.0,0.0,0.0,0.0,0.000196,0.0,0.0,0.0,0.0,0.0,0.0,0.000121,0.0,0.0,0.0,0.0,0.0,0.0,0.0,0.0,0.0,0.0,0.0,0.0,0.0,0.0,0.0,0.0,0.0,0.0,0.0,0.0,0.0
1672947562381761407,285143,1672947562380865278,enu,-2.4733,-0.0822,-0.0525,0.0,0.0,0.0,0.000196,0.0,0.0,0.0,0.0,0.0,0.0,0.000196,0.0,0.0,0.0,0.0,0.0,0.0,0.000121,0.0,0.0,0.0,0.0,0.0,0.0,0.0,0.0,0.0,0.0,0.0,0.0,0.0,0.0,0.0,0.0,0.0,0.0,0.0,0.0,0.0
1672947562402062384,285144,1672947562400896969,enu,-2.4898,-0.0797,-0.0544,0.0,0.0,0.0,0.000196,0.0,0.0,0.0,0.0,0.0,0.0,0.000196,0.0,0.0,0.0,0.0,0.0,0.0,0.000121,0.0,0.0,0.0,0.0,0.0,0.0,0.0,0.0,0.0,0.0,0.0,0.0,0.0,0.0,0.0,0.0,0.0,0.0,0.0,0.0,0.0
1672947562421787393,285145,1672947562420829874,enu,-2.5103,-0.0741,-0.0501,0.0,0.0,0.0,0.000196,0.0,0.0,0.0,0.0,0.0,0.0,0.000196,0.0,0.0,0.0,0.0,0.0,0.0,0.000121,0.0,0.0,0.0,0.0,0.0,0.0,0.0,0.0,0.0,0.0,0.0,0.0,0.0,0.0,0.0,0.0,0.0,0.0,0.0,0.0,0.0
1672947562441840083,285146,1672947562440889919,enu,-2.5238,-0.0702,-0.0572,0.0,0.0,0.0,0.000196,0.0,0.0,0.0,0.0,0.0,0.0,0.000196,0.0,0.0,0.0,0.0,0.0,0.0,0.000121,0.0,0.0,0.0,0.0,0.0,0.0,0.0,0.0,0.0,0.0,0.0,0.0,0.0,0.0,0.0,0.0,0.0,0.0,0.0,0.0,0.0
1672947562462217805,285147,1672947562460931428,enu,-2.5427,-0.0697,-0.0476,0.0,0.0,0.0,0.000196,0.0,0.0,0.0,0.0,0.0,0.0,0.000196,0.0,0.0,0.0,0.0,0.0,0.0,0.000121,0.0,0.0,0.0,0.0,0.0,0.0,0.0,0.0,0.0,0.0,0.0,0.0,0.0,0.0,0.0,0.0,0.0,0.0,0.0,0.0,0.0
1672947562482050150,285148,1672947562480829983,enu,-2.5482,-0.0659,-0.0418,0.0,0.0,0.0,0.000196,0.0,0.0,0.0,0.0,0.0,0.0,0.000196,0.0,0.0,0.0,0.0,0.0,0.0,0.000121,0.0,0.0,0.0,0.0,0.0,0.0,0.0,0.0,0.0,0.0,0.0,0.0,0.0,0.0,0.0,0.0,0.0,0.0,0.0,0.0,0.0
1672947562502101540,285149,1672947562500911501,enu,-2.5533,-0.0637,-0.0278,0.0,0.0,0.0,0.000196,0.0,0.0,0.0,0.0,0.0,0.0,0.000196,0.0,0.0,0.0,0.0,0.0,0.0,0.000121,0.0,0.0,0.0,0.0,0.0,0.0,0.0,0.0,0.0,0.0,0.0,0.0,0.0,0.0,0.0,0.0,0.0,0.0,0.0,0.0,0.0
1672947562521894978,285150,1672947562520930238,enu,-2.5718,-0.0642,-0.0199,0.0,0.0,0.0,0.000196,0.0,0.0,0.0,0.0,0.0,0.0,0.000196,0.0,0.0,0.0,0.0,0.0,0.0,0.000121,0.0,0.0,0.0,0.0,0.0,0.0,0.0,0.0,0.0,0.0,0.0,0.0,0.0,0.0,0.0,0.0,0.0,0.0,0.0,0.0,0.0
1672947562542280833,285151,1672947562540926495,enu,-2.6037,-0.0659,-0.0113,0.0,0.0,0.0,0.000196,0.0,0.0,0.0,0.0,0.0,0.0,0.000196,0.0,0.0,0.0,0.0,0.0,0.0,0.000121,0.0,0.0,0.0,0.0,0.0,0.0,0.0,0.0,0.0,0.0,0.0,0.0,0.0,0.0,0.0,0.0,0.0,0.0,0.0,0.0,0.0
1672947562562233394,285152,1672947562560944181,enu,-2.6217,-0.063,-0.0183,0.0,0.0,0.0,0.000196,0.0,0.0,0.0,0.0,0.0,0.0,0.000196,0.0,0.0,0.0,0.0,0.0,0.0,0.000121,0.0,0.0,0.0,0.0,0.0,0.0,0.0,0.0,0.0,0.0,0.0,0.0,0.0,0.0,0.0,0.0,0.0,0.0,0.0,0.0,0.0
1672947562582436963,285153,1672947562581099982,enu,-2.6234,-0.064,-0.0261,0.0,0.0,0.0,0.000196,0.0,0.0,0.0,0.0,0.0,0.0,0.000196,0.0,0.0,0.0,0.0,0.0,0.0,0.000121,0.0,0.0,0.0,0.0,0.0,0.0,0.0,0.0,0.0,0.0,0.0,0.0,0.0,0.0,0.0,0.0,0.0,0.0,0.0,0.0,0.0
1672947562602178165,285154,1672947562600876997,enu,-2.6403,-0.065,-0.0395,0.0,0.0,0.0,0.000196,0.0,0.0,0.0,0.0,0.0,0.0,0.000196,0.0,0.0,0.0,0.0,0.0,0.0,0.000121,0.0,0.0,0.0,0.0,0.0,0.0,0.0,0.0,0.0,0.0,0.0,0.0,0.0,0.0,0.0,0.0,0.0,0.0,0.0,0.0,0.0
1672947562622072934,285155,1672947562620872697,enu,-2.6612,-0.0669,-0.0476,0.0,0.0,0.0,0.000196,0.0,0.0,0.0,0.0,0.0,0.0,0.000196,0.0,0.0,0.0,0.0,0.0,0.0,0.000121,0.0,0.0,0.0,0.0,0.0,0.0,0.0,0.0,0.0,0.0,0.0,0.0,0.0,0.0,0.0,0.0,0.0,0.0,0.0,0.0,0.0
1672947562642176421,285156,1672947562640913274,enu,-2.6854,-0.0682,-0.0664,0.0,0.0,0.0,0.000196,0.0,0.0,0.0,0.0,0.0,0.0,0.000196,0.0,0.0,0.0,0.0,0.0,0.0,0.000121,0.0,0.0,0.0,0.0,0.0,0.0,0.0,0.0,0.0,0.0,0.0,0.0,0.0,0.0,0.0,0.0,0.0,0.0,0.0,0.0,0.0
1672947562662191148,285157,1672947562660810366,enu,-2.6924,-0.0668,-0.0701,0.0,0.0,0.0,0.000196,0.0,0.0,0.0,0.0,0.0,0.0,0.000196,0.0,0.0,0.0,0.0,0.0,0.0,0.000121,0.0,0.0,0.0,0.0,0.0,0.0,0.0,0.0,0.0,0.0,0.0,0.0,0.0,0.0,0.0,0.0,0.0,0.0,0.0,0.0,0.0
1672947562681812236,285158,1672947562680844923,enu,-2.71,-0.0711,-0.0891,0.0,0.0,0.0,0.000196,0.0,0.0,0.0,0.0,0.0,0.0,0.000196,0.0,0.0,0.0,0.0,0.0,0.0,0.000121,0.0,0.0,0.0,0.0,0.0,0.0,0.0,0.0,0.0,0.0,0.0,0.0,0.0,0.0,0.0,0.0,0.0,0.0,0.0,0.0,0.0
1672947562701812841,285159,1672947562700873065,enu,-2.722,-0.0733,-0.0904,0.0,0.0,0.0,0.000196,0.0,0.0,0.0,0.0,0.0,0.0,0.000196,0.0,0.0,0.0,0.0,0.0,0.0,0.000121,0.0,0.0,0.0,0.0,0.0,0.0,0.0,0.0,0.0,0.0,0.0,0.0,0.0,0.0,0.0,0.0,0.0,0.0,0.0,0.0,0.0
1672947562721697842,285160,1672947562720820997,enu,-2.7462,-0.0768,-0.1056,0.0,0.0,0.0,0.000196,0.0,0.0,0.0,0.0,0.0,0.0,0.000196,0.0,0.0,0.0,0.0,0.0,0.0,0.000121,0.0,0.0,0.0,0.0,0.0,0.0,0.0,0.0,0.0,0.0,0.0,0.0,0.0,0.0,0.0,0.0,0.0,0.0,0.0,0.0,0.0
1672947562741998127,285161,1672947562740828772,enu,-2.7624,-0.0734,-0.1068,0.0,0.0,0.0,0.000196,0.0,0.0,0.0,0.0,0.0,0.0,0.000196,0.0,0.0,0.0,0.0,0.0,0.0,0.000121,0.0,0.0,0.0,0.0,0.0,0.0,0.0,0.0,0.0,0.0,0.0,0.0,0.0,0.0,0.0,0.0,0.0,0.0,0.0,0.0,0.0
1672947562762137063,285162,1672947562761031701,enu,-2.781,-0.0773,-0.1182,0.0,0.0,0.0,0.000196,0.0,0.0,0.0,0.0,0.0,0.0,0.000196,0.0,0.0,0.0,0.0,0.0,0.0,0.000121,0.0,0.0,0.0,0.0,0.0,0.0,0.0,0.0,0.0,0.0,0.0,0.0,0.0,0.0,0.0,0.0,0.0,0.0,0.0,0.0,0.0
1672947562782106454,285163,1672947562780863994,enu,-2.7977,-0.0767,-0.113,0.0,0.0,0.0,0.000196,0.0,0.0,0.0,0.0,0.0,0.0,0.000196,0.0,0.0,0.0,0.0,0.0,0.0,0.000121,0.0,0.0,0.0,0.0,0.0,0.0,0.0,0.0,0.0,0.0,0.0,0.0,0.0,0.0,0.0,0.0,0.0,0.0,0.0,0.0,0.0
1672947562801999033,285164,1672947562800821496,enu,-2.8151,-0.0823,-0.117,0.0,0.0,0.0,0.000196,0.0,0.0,0.0,0.0,0.0,0.0,0.000196,0.0,0.0,0.0,0.0,0.0,0.0,0.000121,0.0,0.0,0.0,0.0,0.0,0.0,0.0,0.0,0.0,0.0,0.0,0.0,0.0,0.0,0.0,0.0,0.0,0.0,0.0,0.0,0.0
1672947562821857680,285165,1672947562820923363,enu,-2.8305,-0.0795,-0.1211,0.0,0.0,0.0,0.000196,0.0,0.0,0.0,0.0,0.0,0.0,0.000196,0.0,0.0,0.0,0.0,0.0,0.0,0.000121,0.0,0.0,0.0,0.0,0.0,0.0,0.0,0.0,0.0,0.0,0.0,0.0,0.0,0.0,0.0,0.0,0.0,0.0,0.0,0.0,0.0
1672947562842148754,285166,1672947562840829309,enu,-2.8509,-0.0777,-0.1157,0.0,0.0,0.0,0.000196,0.0,0.0,0.0,0.0,0.0,0.0,0.000196,0.0,0.0,0.0,0.0,0.0,0.0,0.000121,0.0,0.0,0.0,0.0,0.0,0.0,0.0,0.0,0.0,0.0,0.0,0.0,0.0,0.0,0.0,0.0,0.0,0.0,0.0,0.0,0.0
1672947562861796995,285167,1672947562860834364,enu,-2.8732,-0.0726,-0.1254,0.0,0.0,0.0,0.000196,0.0,0.0,0.0,0.0,0.0,0.0,0.000196,0.0,0.0,0.0,0.0,0.0,0.0,0.000121,0.0,0.0,0.0,0.0,0.0,0.0,0.0,0.0,0.0,0.0,0.0,0.0,0.0,0.0,0.0,0.0,0.0,0.0,0.0,0.0,0.0
1672947562882015912,285168,1672947562880879952,enu,-2.8884,-0.0676,-0.1143,0.0,0.0,0.0,0.000196,0.0,0.0,0.0,0.0,0.0,0.0,0.000196,0.0,0.0,0.0,0.0,0.0,0.0,0.000121,0.0,0.0,0.0,0.0,0.0,0.0,0.0,0.0,0.0,0.0,0.0,0.0,0.0,0.0,0.0,0.0,0.0,0.0,0.0,0.0,0.0
1672947562902169837,285169,1672947562900798895,enu,-2.9056,-0.0711,-0.1167,0.0,0.0,0.0,0.000196,0.0,0.0,0.0,0.0,0.0,0.0,0.000196,0.0,0.0,0.0,0.0,0.0,0.0,0.000121,0.0,0.0,0.0,0.0,0.0,0.0,0.0,0.0,0.0,0.0,0.0,0.0,0.0,0.0,0.0,0.0,0.0,0.0,0.0,0.0,0.0
1672947562922242916,285170,1672947562920874041,enu,-2.9205,-0.0652,-0.0989,0.0,0.0,0.0,0.000196,0.0,0.0,0.0,0.0,0.0,0.0,0.000196,0.0,0.0,0.0,0.0,0.0,0.0,0.000121,0.0,0.0,0.0,0.0,0.0,0.0,0.0,0.0,0.0,0.0,0.0,0.0,0.0,0.0,0.0,0.0,0.0,0.0,0.0,0.0,0.0
1672947562942337886,285171,1672947562940946907,enu,-2.9401,-0.0669,-0.1028,0.0,0.0,0.0,0.000196,0.0,0.0,0.0,0.0,0.0,0.0,0.000196,0.0,0.0,0.0,0.0,0.0,0.0,0.000121,0.0,0.0,0.0,0.0,0.0,0.0,0.0,0.0,0.0,0.0,0.0,0.0,0.0,0.0,0.0,0.0,0.0,0.0,0.0,0.0,0.0
1672947562962005686,285172,1672947562960826417,enu,-2.9634,-0.057,-0.1,0.0,0.0,0.0,0.000196,0.0,0.0,0.0,0.0,0.0,0.0,0.000196,0.0,0.0,0.0,0.0,0.0,0.0,0.000121,0.0,0.0,0.0,0.0,0.0,0.0,0.0,0.0,0.0,0.0,0.0,0.0,0.0,0.0,0.0,0.0,0.0,0.0,0.0,0.0,0.0
1672947562981873114,285173,1672947562980898270,enu,-2.982,-0.0579,-0.0911,0.0,0.0,0.0,0.000196,0.0,0.0,0.0,0.0,0.0,0.0,0.000196,0.0,0.0,0.0,0.0,0.0,0.0,0.000121,0.0,0.0,0.0,0.0,0.0,0.0,0.0,0.0,0.0,0.0,0.0,0.0,0.0,0.0,0.0,0.0,0.0,0.0,0.0,0.0,0.0
1672947563001863176,285174,1672947563000848481,enu,-2.9969,-0.0524,-0.0938,0.0,0.0,0.0,0.000196,0.0,0.0,0.0,0.0,0.0,0.0,0.000196,0.0,0.0,0.0,0.0,0.0,0.0,0.000121,0.0,0.0,0.0,0.0,0.0,0.0,0.0,0.0,0.0,0.0,0.0,0.0,0.0,0.0,0.0,0.0,0.0,0.0,0.0,0.0,0.0
1672947563022119454,285175,1672947563020891864,enu,-3.0155,-0.0496,-0.0779,0.0,0.0,0.0,0.000196,0.0,0.0,0.0,0.0,0.0,0.0,0.000196,0.0,0.0,0.0,0.0,0.0,0.0,0.000121,0.0,0.0,0.0,0.0,0.0,0.0,0.0,0.0,0.0,0.0,0.0,0.0,0.0,0.0,0.0,0.0,0.0,0.0,0.0,0.0,0.0
1672947563042280591,285176,1672947563040945435,enu,-3.0371,-0.0572,-0.087,0.0,0.0,0.0,0.000196,0.0,0.0,0.0,0.0,0.0,0.0,0.000196,0.0,0.0,0.0,0.0,0.0,0.0,0.000121,0.0,0.0,0.0,0.0,0.0,0.0,0.0,0.0,0.0,0.0,0.0,0.0,0.0,0.0,0.0,0.0,0.0,0.0,0.0,0.0,0.0
1672947563062122704,285177,1672947563061000564,enu,-3.0572,-0.0444,-0.0766,0.0,0.0,0.0,0.000196,0.0,0.0,0.0,0.0,0.0,0.0,0.000196,0.0,0.0,0.0,0.0,0.0,0.0,0.000121,0.0,0.0,0.0,0.0,0.0,0.0,0.0,0.0,0.0,0.0,0.0,0.0,0.0,0.0,0.0,0.0,0.0,0.0,0.0,0.0,0.0
1672947563082197304,285178,1672947563080848432,enu,-3.0741,-0.0541,-0.081,0.0,0.0,0.0,0.000196,0.0,0.0,0.0,0.0,0.0,0.0,0.000196,0.0,0.0,0.0,0.0,0.0,0.0,0.000121,0.0,0.0,0.0,0.0,0.0,0.0,0.0,0.0,0.0,0.0,0.0,0.0,0.0,0.0,0.0,0.0,0.0,0.0,0.0,0.0,0.0
1672947563101859148,285179,1672947563100873654,enu,-3.0965,-0.0464,-0.0868,0.0,0.0,0.0,0.000196,0.0,0.0,0.0,0.0,0.0,0.0,0.000196,0.0,0.0,0.0,0.0,0.0,0.0,0.000121,0.0,0.0,0.0,0.0,0.0,0.0,0.0,0.0,0.0,0.0,0.0,0.0,0.0,0.0,0.0,0.0,0.0,0.0,0.0,0.0,0.0
1672947563121977585,285180,1672947563120950003,enu,-3.1172,-0.0447,-0.0834,0.0,0.0,0.0,0.000196,0.0,0.0,0.0,0.0,0.0,0.0,0.000196,0.0,0.0,0.0,0.0,0.0,0.0,0.000121,0.0,0.0,0.0,0.0,0.0,0.0,0.0,0.0,0.0,0.0,0.0,0.0,0.0,0.0,0.0,0.0,0.0,0.0,0.0,0.0,0.0
1672947563142194300,285181,1672947563140829097,enu,-3.1369,-0.049,-0.0951,0.0,0.0,0.0,0.000196,0.0,0.0,0.0,0.0,0.0,0.0,0.000196,0.0,0.0,0.0,0.0,0.0,0.0,0.000121,0.0,0.0,0.0,0.0,0.0,0.0,0.0,0.0,0.0,0.0,0.0,0.0,0.0,0.0,0.0,0.0,0.0,0.0,0.0,0.0,0.0
1672947563161783602,285182,1672947563160883449,enu,-3.1773,-0.0396,-0.1102,0.0,0.0,0.0,0.000196,0.0,0.0,0.0,0.0,0.0,0.0,0.000196,0.0,0.0,0.0,0.0,0.0,0.0,0.000121,0.0,0.0,0.0,0.0,0.0,0.0,0.0,0.0,0.0,0.0,0.0,0.0,0.0,0.0,0.0,0.0,0.0,0.0,0.0,0.0,0.0
1672947563182013338,285183,1672947563180942031,enu,-3.1849,-0.0397,-0.1092,0.0,0.0,0.0,0.000196,0.0,0.0,0.0,0.0,0.0,0.0,0.000196,0.0,0.0,0.0,0.0,0.0,0.0,0.000121,0.0,0.0,0.0,0.0,0.0,0.0,0.0,0.0,0.0,0.0,0.0,0.0,0.0,0.0,0.0,0.0,0.0,0.0,0.0,0.0,0.0
1672947563201968688,285184,1672947563200940363,enu,-3.1985,-0.0416,-0.1101,0.0,0.0,0.0,0.000196,0.0,0.0,0.0,0.0,0.0,0.0,0.000196,0.0,0.0,0.0,0.0,0.0,0.0,0.000121,0.0,0.0,0.0,0.0,0.0,0.0,0.0,0.0,0.0,0.0,0.0,0.0,0.0,0.0,0.0,0.0,0.0,0.0,0.0,0.0,0.0
1672947563222078466,285185,1672947563220853359,enu,-3.2295,-0.0379,-0.1017,0.0,0.0,0.0,0.000196,0.0,0.0,0.0,0.0,0.0,0.0,0.000196,0.0,0.0,0.0,0.0,0.0,0.0,0.000121,0.0,0.0,0.0,0.0,0.0,0.0,0.0,0.0,0.0,0.0,0.0,0.0,0.0,0.0,0.0,0.0,0.0,0.0,0.0,0.0,0.0
1672947563242270485,285186,1672947563240918673,enu,-3.2362,-0.0388,-0.1041,0.0,0.0,0.0,0.000196,0.0,0.0,0.0,0.0,0.0,0.0,0.000196,0.0,0.0,0.0,0.0,0.0,0.0,0.000121,0.0,0.0,0.0,0.0,0.0,0.0,0.0,0.0,0.0,0.0,0.0,0.0,0.0,0.0,0.0,0.0,0.0,0.0,0.0,0.0,0.0
1672947563262348293,285187,1672947563261019262,enu,-3.2562,-0.0343,-0.1011,0.0,0.0,0.0,0.000196,0.0,0.0,0.0,0.0,0.0,0.0,0.000196,0.0,0.0,0.0,0.0,0.0,0.0,0.000121,0.0,0.0,0.0,0.0,0.0,0.0,0.0,0.0,0.0,0.0,0.0,0.0,0.0,0.0,0.0,0.0,0.0,0.0,0.0,0.0,0.0
1672947563281842801,285188,1672947563280873062,enu,-3.2746,-0.0355,-0.0957,0.0,0.0,0.0,0.000196,0.0,0.0,0.0,0.0,0.0,0.0,0.000196,0.0,0.0,0.0,0.0,0.0,0.0,0.000121,0.0,0.0,0.0,0.0,0.0,0.0,0.0,0.0,0.0,0.0,0.0,0.0,0.0,0.0,0.0,0.0,0.0,0.0,0.0,0.0,0.0
1672947563302282388,285189,1672947563300945259,enu,-3.2913,-0.0371,-0.0918,0.0,0.0,0.0,0.000196,0.0,0.0,0.0,0.0,0.0,0.0,0.000196,0.0,0.0,0.0,0.0,0.0,0.0,0.000121,0.0,0.0,0.0,0.0,0.0,0.0,0.0,0.0,0.0,0.0,0.0,0.0,0.0,0.0,0.0,0.0,0.0,0.0,0.0,0.0,0.0
1672947563322097228,285190,1672947563320822227,enu,-3.3039,-0.0327,-0.0853,0.0,0.0,0.0,0.000196,0.0,0.0,0.0,0.0,0.0,0.0,0.000196,0.0,0.0,0.0,0.0,0.0,0.0,0.000121,0.0,0.0,0.0,0.0,0.0,0.0,0.0,0.0,0.0,0.0,0.0,0.0,0.0,0.0,0.0,0.0,0.0,0.0,0.0,0.0,0.0
1672947563342018391,285191,1672947563340835233,enu,-3.3219,-0.0311,-0.0796,0.0,0.0,0.0,0.000196,0.0,0.0,0.0,0.0,0.0,0.0,0.000196,0.0,0.0,0.0,0.0,0.0,0.0,0.000121,0.0,0.0,0.0,0.0,0.0,0.0,0.0,0.0,0.0,0.0,0.0,0.0,0.0,0.0,0.0,0.0,0.0,0.0,0.0,0.0,0.0
1672947563362051707,285192,1672947563360881675,enu,-3.3445,-0.0343,-0.0842,0.0,0.0,0.0,0.000196,0.0,0.0,0.0,0.0,0.0,0.0,0.000196,0.0,0.0,0.0,0.0,0.0,0.0,0.000121,0.0,0.0,0.0,0.0,0.0,0.0,0.0,0.0,0.0,0.0,0.0,0.0,0.0,0.0,0.0,0.0,0.0,0.0,0.0,0.0,0.0
1672947563382240099,285193,1672947563380877307,enu,-3.3575,-0.0273,-0.0737,0.0,0.0,0.0,0.000196,0.0,0.0,0.0,0.0,0.0,0.0,0.000196,0.0,0.0,0.0,0.0,0.0,0.0,0.000121,0.0,0.0,0.0,0.0,0.0,0.0,0.0,0.0,0.0,0.0,0.0,0.0,0.0,0.0,0.0,0.0,0.0,0.0,0.0,0.0,0.0
1672947563401900375,285194,1672947563400835032,enu,-3.3741,-0.0279,-0.0659,0.0,0.0,0.0,0.000196,0.0,0.0,0.0,0.0,0.0,0.0,0.000196,0.0,0.0,0.0,0.0,0.0,0.0,0.000121,0.0,0.0,0.0,0.0,0.0,0.0,0.0,0.0,0.0,0.0,0.0,0.0,0.0,0.0,0.0,0.0,0.0,0.0,0.0,0.0,0.0
1672947563422215599,285195,1672947563420879270,enu,-3.3939,-0.0251,-0.0594,0.0,0.0,0.0,0.000196,0.0,0.0,0.0,0.0,0.0,0.0,0.000196,0.0,0.0,0.0,0.0,0.0,0.0,0.000121,0.0,0.0,0.0,0.0,0.0,0.0,0.0,0.0,0.0,0.0,0.0,0.0,0.0,0.0,0.0,0.0,0.0,0.0,0.0,0.0,0.0
1672947563441876045,285196,1672947563440921046,enu,-3.4097,-0.0222,-0.0545,0.0,0.0,0.0,0.000196,0.0,0.0,0.0,0.0,0.0,0.0,0.000196,0.0,0.0,0.0,0.0,0.0,0.0,0.000121,0.0,0.0,0.0,0.0,0.0,0.0,0.0,0.0,0.0,0.0,0.0,0.0,0.0,0.0,0.0,0.0,0.0,0.0,0.0,0.0,0.0
1672947563462209194,285197,1672947563460818685,enu,-3.4279,-0.0232,-0.0516,0.0,0.0,0.0,0.000196,0.0,0.0,0.0,0.0,0.0,0.0,0.000196,0.0,0.0,0.0,0.0,0.0,0.0,0.000121,0.0,0.0,0.0,0.0,0.0,0.0,0.0,0.0,0.0,0.0,0.0,0.0,0.0,0.0,0.0,0.0,0.0,0.0,0.0,0.0,0.0
1672947563482144125,285198,1672947563480913631,enu,-3.4466,-0.0224,-0.0529,0.0,0.0,0.0,0.000196,0.0,0.0,0.0,0.0,0.0,0.0,0.000196,0.0,0.0,0.0,0.0,0.0,0.0,0.000121,0.0,0.0,0.0,0.0,0.0,0.0,0.0,0.0,0.0,0.0,0.0,0.0,0.0,0.0,0.0,0.0,0.0,0.0,0.0,0.0,0.0
1672947563502055340,285199,1672947563500951798,enu,-3.4629,-0.0189,-0.0495,0.0,0.0,0.0,0.000196,0.0,0.0,0.0,0.0,0.0,0.0,0.000196,0.0,0.0,0.0,0.0,0.0,0.0,0.000121,0.0,0.0,0.0,0.0,0.0,0.0,0.0,0.0,0.0,0.0,0.0,0.0,0.0,0.0,0.0,0.0,0.0,0.0,0.0,0.0,0.0
1672947563522179619,285200,1672947563520831107,enu,-3.4819,-0.0232,-0.0534,0.0,0.0,0.0,0.000196,0.0,0.0,0.0,0.0,0.0,0.0,0.000196,0.0,0.0,0.0,0.0,0.0,0.0,0.000121,0.0,0.0,0.0,0.0,0.0,0.0,0.0,0.0,0.0,0.0,0.0,0.0,0.0,0.0,0.0,0.0,0.0,0.0,0.0,0.0,0.0
1672947563542304472,285201,1672947563540959322,enu,-3.5132,-0.0234,-0.0644,0.0,0.0,0.0,0.000196,0.0,0.0,0.0,0.0,0.0,0.0,0.000196,0.0,0.0,0.0,0.0,0.0,0.0,0.000121,0.0,0.0,0.0,0.0,0.0,0.0,0.0,0.0,0.0,0.0,0.0,0.0,0.0,0.0,0.0,0.0,0.0,0.0,0.0,0.0,0.0
1672947563561878007,285202,1672947563560895908,enu,-3.5183,-0.0207,-0.0641,0.0,0.0,0.0,0.000196,0.0,0.0,0.0,0.0,0.0,0.0,0.000196,0.0,0.0,0.0,0.0,0.0,0.0,0.000121,0.0,0.0,0.0,0.0,0.0,0.0,0.0,0.0,0.0,0.0,0.0,0.0,0.0,0.0,0.0,0.0,0.0,0.0,0.0,0.0,0.0
1672947563581750994,285203,1672947563580801475,enu,-3.5392,-0.0288,-0.0607,0.0,0.0,0.0,0.000196,0.0,0.0,0.0,0.0,0.0,0.0,0.000196,0.0,0.0,0.0,0.0,0.0,0.0,0.000121,0.0,0.0,0.0,0.0,0.0,0.0,0.0,0.0,0.0,0.0,0.0,0.0,0.0,0.0,0.0,0.0,0.0,0.0,0.0,0.0,0.0
1672947563602297221,285204,1672947563600932290,enu,-3.5607,-0.0343,-0.061,0.0,0.0,0.0,0.000196,0.0,0.0,0.0,0.0,0.0,0.0,0.000196,0.0,0.0,0.0,0.0,0.0,0.0,0.000121,0.0,0.0,0.0,0.0,0.0,0.0,0.0,0.0,0.0,0.0,0.0,0.0,0.0,0.0,0.0,0.0,0.0,0.0,0.0,0.0,0.0
1672947563622156079,285205,1672947563620881348,enu,-3.5721,-0.0314,-0.0652,0.0,0.0,0.0,0.000196,0.0,0.0,0.0,0.0,0.0,0.0,0.000196,0.0,0.0,0.0,0.0,0.0,0.0,0.000121,0.0,0.0,0.0,0.0,0.0,0.0,0.0,0.0,0.0,0.0,0.0,0.0,0.0,0.0,0.0,0.0,0.0,0.0,0.0,0.0,0.0
1672947563642122847,285206,1672947563640824408,enu,-3.5991,-0.0362,-0.0642,0.0,0.0,0.0,0.000196,0.0,0.0,0.0,0.0,0.0,0.0,0.000196,0.0,0.0,0.0,0.0,0.0,0.0,0.000121,0.0,0.0,0.0,0.0,0.0,0.0,0.0,0.0,0.0,0.0,0.0,0.0,0.0,0.0,0.0,0.0,0.0,0.0,0.0,0.0,0.0
1672947563662117334,285207,1672947563660876750,enu,-3.6086,-0.0391,-0.0666,0.0,0.0,0.0,0.000196,0.0,0.0,0.0,0.0,0.0,0.0,0.000196,0.0,0.0,0.0,0.0,0.0,0.0,0.000121,0.0,0.0,0.0,0.0,0.0,0.0,0.0,0.0,0.0,0.0,0.0,0.0,0.0,0.0,0.0,0.0,0.0,0.0,0.0,0.0,0.0
1672947563681919810,285208,1672947563680888965,enu,-3.629,-0.0353,-0.0682,0.0,0.0,0.0,0.000196,0.0,0.0,0.0,0.0,0.0,0.0,0.000196,0.0,0.0,0.0,0.0,0.0,0.0,0.000121,0.0,0.0,0.0,0.0,0.0,0.0,0.0,0.0,0.0,0.0,0.0,0.0,0.0,0.0,0.0,0.0,0.0,0.0,0.0,0.0,0.0
1672947563702236665,285209,1672947563700881257,enu,-3.6461,-0.0338,-0.0669,0.0,0.0,0.0,0.000196,0.0,0.0,0.0,0.0,0.0,0.0,0.000196,0.0,0.0,0.0,0.0,0.0,0.0,0.000121,0.0,0.0,0.0,0.0,0.0,0.0,0.0,0.0,0.0,0.0,0.0,0.0,0.0,0.0,0.0,0.0,0.0,0.0,0.0,0.0,0.0
1672947563721841987,285210,1672947563720827490,enu,-3.6591,-0.0292,-0.0657,0.0,0.0,0.0,0.000196,0.0,0.0,0.0,0.0,0.0,0.0,0.000196,0.0,0.0,0.0,0.0,0.0,0.0,0.000121,0.0,0.0,0.0,0.0,0.0,0.0,0.0,0.0,0.0,0.0,0.0,0.0,0.0,0.0,0.0,0.0,0.0,0.0,0.0,0.0,0.0
1672947563742191003,285211,1672947563740841435,enu,-3.6774,-0.0246,-0.0659,0.0,0.0,0.0,0.000196,0.0,0.0,0.0,0.0,0.0,0.0,0.000196,0.0,0.0,0.0,0.0,0.0,0.0,0.000121,0.0,0.0,0.0,0.0,0.0,0.0,0.0,0.0,0.0,0.0,0.0,0.0,0.0,0.0,0.0,0.0,0.0,0.0,0.0,0.0,0.0
1672947563762160845,285212,1672947563760832622,enu,-3.6851,-0.0174,-0.0596,0.0,0.0,0.0,0.000196,0.0,0.0,0.0,0.0,0.0,0.0,0.000196,0.0,0.0,0.0,0.0,0.0,0.0,0.000121,0.0,0.0,0.0,0.0,0.0,0.0,0.0,0.0,0.0,0.0,0.0,0.0,0.0,0.0,0.0,0.0,0.0,0.0,0.0,0.0,0.0
1672947563782003548,285213,1672947563780831359,enu,-3.699,-0.0109,-0.0522,0.0,0.0,0.0,0.000169,0.0,0.0,0.0,0.0,0.0,0.0,0.000196,0.0,0.0,0.0,0.0,0.0,0.0,0.000121,0.0,0.0,0.0,0.0,0.0,0.0,0.0,0.0,0.0,0.0,0.0,0.0,0.0,0.0,0.0,0.0,0.0,0.0,0.0,0.0,0.0
1672947563802086017,285214,1672947563800883182,enu,-3.7106,-0.0014,-0.0471,0.0,0.0,0.0,0.000169,0.0,0.0,0.0,0.0,0.0,0.0,0.000196,0.0,0.0,0.0,0.0,0.0,0.0,0.000121,0.0,0.0,0.0,0.0,0.0,0.0,0.0,0.0,0.0,0.0,0.0,0.0,0.0,0.0,0.0,0.0,0.0,0.0,0.0,0.0,0.0
1672947563821835932,285215,1672947563820824266,enu,-3.7261,0.0036,-0.0439,0.0,0.0,0.0,0.000169,0.0,0.0,0.0,0.0,0.0,0.0,0.000196,0.0,0.0,0.0,0.0,0.0,0.0,0.000121,0.0,0.0,0.0,0.0,0.0,0.0,0.0,0.0,0.0,0.0,0.0,0.0,0.0,0.0,0.0,0.0,0.0,0.0,0.0,0.0,0.0
1672947563841961598,285216,1672947563840910292,enu,-3.739,0.0078,-0.0424,0.0,0.0,0.0,0.000169,0.0,0.0,0.0,0.0,0.0,0.0,0.000196,0.0,0.0,0.0,0.0,0.0,0.0,0.000121,0.0,0.0,0.0,0.0,0.0,0.0,0.0,0.0,0.0,0.0,0.0,0.0,0.0,0.0,0.0,0.0,0.0,0.0,0.0,0.0,0.0
1672947563861841109,285217,1672947563860815890,enu,-3.753,0.0135,-0.039,0.0,0.0,0.0,0.000169,0.0,0.0,0.0,0.0,0.0,0.0,0.000196,0.0,0.0,0.0,0.0,0.0,0.0,0.000121,0.0,0.0,0.0,0.0,0.0,0.0,0.0,0.0,0.0,0.0,0.0,0.0,0.0,0.0,0.0,0.0,0.0,0.0,0.0,0.0,0.0
1672947563882189456,285218,1672947563880842480,enu,-3.7697,0.0194,-0.0409,0.0,0.0,0.0,0.000169,0.0,0.0,0.0,0.0,0.0,0.0,0.000196,0.0,0.0,0.0,0.0,0.0,0.0,0.000121,0.0,0.0,0.0,0.0,0.0,0.0,0.0,0.0,0.0,0.0,0.0,0.0,0.0,0.0,0.0,0.0,0.0,0.0,0.0,0.0,0.0
1672947563902157282,285219,1672947563900889748,enu,-3.785,0.0197,-0.0443,0.0,0.0,0.0,0.000169,0.0,0.0,0.0,0.0,0.0,0.0,0.000196,0.0,0.0,0.0,0.0,0.0,0.0,0.000121,0.0,0.0,0.0,0.0,0.0,0.0,0.0,0.0,0.0,0.0,0.0,0.0,0.0,0.0,0.0,0.0,0.0,0.0,0.0,0.0,0.0
1672947563922073429,285220,1672947563920856604,enu,-3.7995,0.0193,-0.0508,0.0,0.0,0.0,0.000169,0.0,0.0,0.0,0.0,0.0,0.0,0.000196,0.0,0.0,0.0,0.0,0.0,0.0,0.000121,0.0,0.0,0.0,0.0,0.0,0.0,0.0,0.0,0.0,0.0,0.0,0.0,0.0,0.0,0.0,0.0,0.0,0.0,0.0,0.0,0.0
1672947563942299294,285221,1672947563940950325,enu,-3.8151,0.0213,-0.0544,0.0,0.0,0.0,0.000169,0.0,0.0,0.0,0.0,0.0,0.0,0.000196,0.0,0.0,0.0,0.0,0.0,0.0,0.000121,0.0,0.0,0.0,0.0,0.0,0.0,0.0,0.0,0.0,0.0,0.0,0.0,0.0,0.0,0.0,0.0,0.0,0.0,0.0,0.0,0.0
1672947563961836148,285222,1672947563960917351,enu,-3.8289,0.0201,-0.0789,0.0,0.0,0.0,0.000169,0.0,0.0,0.0,0.0,0.0,0.0,0.000196,0.0,0.0,0.0,0.0,0.0,0.0,0.000121,0.0,0.0,0.0,0.0,0.0,0.0,0.0,0.0,0.0,0.0,0.0,0.0,0.0,0.0,0.0,0.0,0.0,0.0,0.0,0.0,0.0
1672947563981829252,285223,1672947563980872079,enu,-3.8533,0.0213,-0.0952,0.0,0.0,0.0,0.000169,0.0,0.0,0.0,0.0,0.0,0.0,0.000196,0.0,0.0,0.0,0.0,0.0,0.0,0.000121,0.0,0.0,0.0,0.0,0.0,0.0,0.0,0.0,0.0,0.0,0.0,0.0,0.0,0.0,0.0,0.0,0.0,0.0,0.0,0.0,0.0
1672947564002142737,285224,1672947564000812505,enu,-3.8627,0.023,-0.1029,0.0,0.0,0.0,0.000169,0.0,0.0,0.0,0.0,0.0,0.0,0.000196,0.0,0.0,0.0,0.0,0.0,0.0,0.000121,0.0,0.0,0.0,0.0,0.0,0.0,0.0,0.0,0.0,0.0,0.0,0.0,0.0,0.0,0.0,0.0,0.0,0.0,0.0,0.0,0.0
1672947564022269666,285225,1672947564020914343,enu,-3.8686,0.0316,-0.0971,0.0,0.0,0.0,0.000169,0.0,0.0,0.0,0.0,0.0,0.0,0.000196,0.0,0.0,0.0,0.0,0.0,0.0,0.000121,0.0,0.0,0.0,0.0,0.0,0.0,0.0,0.0,0.0,0.0,0.0,0.0,0.0,0.0,0.0,0.0,0.0,0.0,0.0,0.0,0.0
1672947564042370865,285226,1672947564040911994,enu,-3.8859,0.0343,-0.0871,0.0,0.0,0.0,0.000169,0.0,0.0,0.0,0.0,0.0,0.0,0.000196,0.0,0.0,0.0,0.0,0.0,0.0,0.000121,0.0,0.0,0.0,0.0,0.0,0.0,0.0,0.0,0.0,0.0,0.0,0.0,0.0,0.0,0.0,0.0,0.0,0.0,0.0,0.0,0.0
1672947564062105036,285227,1672947564060921577,enu,-3.9065,0.0345,-0.0774,0.0,0.0,0.0,0.000169,0.0,0.0,0.0,0.0,0.0,0.0,0.000196,0.0,0.0,0.0,0.0,0.0,0.0,0.000121,0.0,0.0,0.0,0.0,0.0,0.0,0.0,0.0,0.0,0.0,0.0,0.0,0.0,0.0,0.0,0.0,0.0,0.0,0.0,0.0,0.0
1672947564081999851,285228,1672947564080892460,enu,-3.92,0.0353,-0.0622,0.0,0.0,0.0,0.000169,0.0,0.0,0.0,0.0,0.0,0.0,0.000196,0.0,0.0,0.0,0.0,0.0,0.0,0.000121,0.0,0.0,0.0,0.0,0.0,0.0,0.0,0.0,0.0,0.0,0.0,0.0,0.0,0.0,0.0,0.0,0.0,0.0,0.0,0.0,0.0
1672947564102275201,285229,1672947564100885240,enu,-3.9288,0.0338,-0.0468,0.0,0.0,0.0,0.000169,0.0,0.0,0.0,0.0,0.0,0.0,0.000196,0.0,0.0,0.0,0.0,0.0,0.0,0.000121,0.0,0.0,0.0,0.0,0.0,0.0,0.0,0.0,0.0,0.0,0.0,0.0,0.0,0.0,0.0,0.0,0.0,0.0,0.0,0.0,0.0
