%time,field.header.seq,field.header.stamp,field.header.frame_id,field.status.status,field.status.service,field.latitude,field.longitude,field.altitude,field.position_covariance0,field.position_covariance1,field.position_covariance2,field.position_covariance3,field.position_covariance4,field.position_covariance5,field.position_covariance6,field.position_covariance7,field.position_covariance8,field.position_covariance_type
1672944953329733984,154690,1672944953357829272,gps,2,1,42.3000655695,-83.6985840984,270.736602783,0.001089,0.0,0.0,0.0,0.001156,0.0,0.0,0.0,0.004624,2
1672944953349801387,154691,1672944953377673568,gps,2,1,42.3000655687,-83.6985841008,270.736572266,0.001089,0.0,0.0,0.0,0.001156,0.0,0.0,0.0,0.004624,2
1672944953369753782,154692,1672944953397771329,gps,2,1,42.30006557,-83.698584098,270.736541748,0.001089,0.0,0.0,0.0,0.001156,0.0,0.0,0.0,0.004624,2
1672944953389767264,154693,1672944953417814013,gps,2,1,42.3000655695,-83.6985841,270.736480713,0.001089,0.0,0.0,0.0,0.001156,0.0,0.0,0.0,0.004624,2
1672944953409460304,154694,1672944953437688311,gps,2,1,42.3000655685,-83.6985841026,270.736419678,0.001089,0.0,0.0,0.0,0.001156,0.0,0.0,0.0,0.004624,2
1672944953429417124,154695,1672944953457814143,gps,2,1,42.30006557,-83.6985840997,270.736419678,0.001089,0.0,0.0,0.0,0.001156,0.0,0.0,0.0,0.004624,2
1672944953449614134,154696,1672944953477747098,gps,2,1,42.3000655696,-83.6985841022,270.736328125,0.001089,0.0,0.0,0.0,0.001156,0.0,0.0,0.0,0.004624,2
1672944953469589340,154697,1672944953497750626,gps,2,1,42.3000655692,-83.6985841045,270.73626709,0.001089,0.0,0.0,0.0,0.001156,0.0,0.0,0.0,0.004624,2
1672944953489924215,154698,1672944953517807268,gps,2,1,42.3000655712,-83.6985841017,270.736236572,0.001089,0.0,0.0,0.0,0.001156,0.0,0.0,0.0,0.004624,2
1672944953509245667,154699,1672944953537752512,gps,2,1,42.3000655722,-83.6985841039,270.736114502,0.001089,0.0,0.0,0.0,0.001156,0.0,0.0,0.0,0.004624,2
1672944953529764507,154700,1672944953557863078,gps,2,1,42.3000655733,-83.6985841059,270.735992432,0.001089,0.0,0.0,0.0,0.001156,0.0,0.0,0.0,0.004624,2
1672944953549484290,154701,1672944953577817916,gps,2,1,42.3000655762,-83.6985841037,270.735992432,0.001089,0.0,0.0,0.0,0.001156,0.0,0.0,0.0,0.004624,2
1672944953569360489,154702,1672944953597861484,gps,2,1,42.3000655788,-83.6985841074,270.735900879,0.001089,0.0,0.0,0.0,0.001156,0.0,0.0,0.0,0.004624,2
1672944953589511978,154703,1672944953617751670,gps,2,1,42.3000655803,-83.6985841117,270.735870361,0.001089,0.0,0.0,0.0,0.001156,0.0,0.0,0.0,0.004624,2
1672944953609827225,154704,1672944953637861681,gps,2,1,42.3000655854,-83.698584111,270.735870361,0.001089,0.0,0.0,0.0,0.001156,0.0,0.0,0.0,0.004624,2
1672944953629823345,154705,1672944953657737681,gps,2,1,42.3000655897,-83.6985841168,270.735839844,0.001089,0.0,0.0,0.0,0.001156,0.0,0.0,0.0,0.004624,2
1672944953649586560,154706,1672944953677813595,gps,2,1,42.3000655942,-83.6985841226,270.735839844,0.001089,0.0,0.0,0.0,0.001156,0.0,0.0,0.0,0.004624,2
1672944953669756523,154707,1672944953697777431,gps,2,1,42.3000656026,-83.6985841238,270.735870361,0.001089,0.0,0.0,0.0,0.001156,0.0,0.0,0.0,0.004624,2
1672944953689482103,154708,1672944953717711295,gps,2,1,42.3000656108,-83.6985841315,270.735870361,0.001089,0.0,0.0,0.0,0.001156,0.0,0.0,0.0,0.004624,2
1672944953709445403,154709,1672944953737732445,gps,2,1,42.3000656204,-83.6985841387,270.735839844,0.001089,0.0,0.0,0.0,0.001156,0.0,0.0,0.0,0.004624,2
1672944953729333001,154710,1672944953757825484,gps,2,1,42.3000656328,-83.6985841423,270.735870361,0.001089,0.0,0.0,0.0,0.001156,0.0,0.0,0.0,0.004624,2
1672944953749431906,154711,1672944953777729400,gps,2,1,42.3000656466,-83.6985841519,270.735870361,0.001089,0.0,0.0,0.0,0.001156,0.0,0.0,0.0,0.004624,2
1672944953769526080,154712,1672944953797782596,gps,2,1,42.3000656608,-83.6985841615,270.735839844,0.0009,0.0,0.0,0.0,0.0009,0.0,0.0,0.0,0.004489,2
1672944953789478999,154713,1672944953817808310,gps,2,1,42.3000656779,-83.698584168,270.735870361,0.0009,0.0,0.0,0.0,0.0009,0.0,0.0,0.0,0.004489,2
1672944953809455100,154714,1672944953837711735,gps,2,1,42.3000656974,-83.6985841823,270.735809326,0.0009,0.0,0.0,0.0,0.0009,0.0,0.0,0.0,0.004489,2
1672944953829316769,154715,1672944953857768225,gps,2,1,42.3000657173,-83.6985841967,270.735748291,0.0009,0.0,0.0,0.0,0.0009,0.0,0.0,0.0,0.004489,2
1672944953849413180,154716,1672944953877775198,gps,2,1,42.3000657399,-83.6985842062,270.735748291,0.0009,0.0,0.0,0.0,0.0009,0.0,0.0,0.0,0.004489,2
1672944953869233088,154717,1672944953897733904,gps,2,1,42.3000657653,-83.6985842231,270.735717773,0.0009,0.0,0.0,0.0,0.0009,0.0,0.0,0.0,0.004489,2
1672944953889566595,154718,1672944953917742209,gps,2,1,42.3000657911,-83.69858424,270.735656738,0.0009,0.0,0.0,0.0,0.0009,0.0,0.0,0.0,0.004489,2
1672944953909726283,154719,1672944953937810849,gps,2,1,42.30006582,-83.6985842524,270.735656738,0.0009,0.0,0.0,0.0,0.0009,0.0,0.0,0.0,0.004489,2
1672944953929413617,154720,1672944953957699931,gps,2,1,42.3000658509,-83.6985842715,270.735687256,0.0009,0.0,0.0,0.0,0.0009,0.0,0.0,0.0,0.004489,2
1672944953949384960,154721,1672944953977718211,gps,2,1,42.3000658821,-83.6985842906,270.735687256,0.0009,0.0,0.0,0.0,0.0009,0.0,0.0,0.0,0.004489,2
1672944953969431900,154722,1672944953997775564,gps,2,1,42.3000659177,-83.6985843059,270.735748291,0.0009,0.0,0.0,0.0,0.0009,0.0,0.0,0.0,0.004489,2
1672944953989123543,154723,1672944954017764334,gps,2,1,42.3000659558,-83.6985843278,270.735809326,0.0009,0.0,0.0,0.0,0.0009,0.0,0.0,0.0,0.004489,2
1672944954009148713,154724,1672944954037769813,gps,2,1,42.3000659946,-83.6985843507,270.735809326,0.0009,0.0,0.0,0.0,0.0009,0.0,0.0,0.0,0.004489,2
1672944954029581176,154725,1672944954057889564,gps,2,1,42.3000660377,-83.6985843694,270.735931396,0.0009,0.0,0.0,0.0,0.0009,0.0,0.0,0.0,0.004489,2
1672944954049521430,154726,1672944954077741984,gps,2,1,42.3000660841,-83.698584397,270.735961914,0.0009,0.0,0.0,0.0,0.0009,0.0,0.0,0.0,0.004489,2
1672944954069695140,154727,1672944954097925831,gps,2,1,42.3000661309,-83.6985844246,270.736022949,0.0009,0.0,0.0,0.0,0.0009,0.0,0.0,0.0,0.004489,2
1672944954089554458,154728,1672944954117877789,gps,2,1,42.3000661814,-83.6985844468,270.736206055,0.0009,0.0,0.0,0.0,0.0009,0.0,0.0,0.0,0.004489,2
1672944954109462955,154729,1672944954137766077,gps,2,1,42.3000662352,-83.6985844768,270.736297607,0.0009,0.0,0.0,0.0,0.0009,0.0,0.0,0.0,0.004489,2
1672944954129358021,154730,1672944954157757096,gps,2,1,42.3000662893,-83.6985845067,270.736419678,0.0009,0.0,0.0,0.0,0.0009,0.0,0.0,0.0,0.004489,2
1672944954149726341,154731,1672944954177898439,gps,2,1,42.3000663474,-83.6985845328,270.736633301,0.0009,0.0,0.0,0.0,0.0009,0.0,0.0,0.0,0.004489,2
1672944954169176756,154732,1672944954197720654,gps,2,1,42.3000664088,-83.6985845663,270.736785889,0.0009,0.0,0.0,0.0,0.0009,0.0,0.0,0.0,0.004489,2
1672944954189581562,154733,1672944954217768849,gps,2,1,42.3000664705,-83.6985845998,270.736968994,0.0009,0.0,0.0,0.0,0.0009,0.0,0.0,0.0,0.004489,2
1672944954209577493,154734,1672944954237834154,gps,2,1,42.3000665363,-83.6985846298,270.737213135,0.0009,0.0,0.0,0.0,0.0009,0.0,0.0,0.0,0.004489,2
1672944954229529672,154735,1672944954257766789,gps,2,1,42.3000666062,-83.6985846674,270.737426758,0.0009,0.0,0.0,0.0,0.0009,0.0,0.0,0.0,0.004489,2
1672944954249405722,154736,1672944954277699123,gps,2,1,42.3000666763,-83.6985847049,270.737640381,0.0009,0.0,0.0,0.0,0.0009,0.0,0.0,0.0,0.004489,2
1672944954269505004,154737,1672944954297798068,gps,2,1,42.3000667501,-83.6985847388,270.737945557,0.0009,0.0,0.0,0.0,0.0009,0.0,0.0,0.0,0.004489,2
1672944954289293314,154738,1672944954317762386,gps,2,1,42.3000668281,-83.6985847797,270.738189697,0.0009,0.0,0.0,0.0,0.0009,0.0,0.0,0.0,0.004489,2
1672944954309613418,154739,1672944954337755014,gps,2,1,42.3000669055,-83.6985848213,270.738464355,0.0009,0.0,0.0,0.0,0.0009,0.0,0.0,0.0,0.004489,2
1672944954329513361,154740,1672944954357867486,gps,2,1,42.3000669879,-83.6985848587,270.738800049,0.0009,0.0,0.0,0.0,0.0009,0.0,0.0,0.0,0.004489,2
1672944954349517211,154741,1672944954377793929,gps,2,1,42.3000670738,-83.6985849035,270.739105225,0.0009,0.0,0.0,0.0,0.0009,0.0,0.0,0.0,0.004489,2
1672944954369450504,154742,1672944954397713616,gps,2,1,42.3000671602,-83.6985849482,270.7394104,0.0009,0.0,0.0,0.0,0.0009,0.0,0.0,0.0,0.004489,2
1672944954389459717,154743,1672944954417779500,gps,2,1,42.3000672514,-83.6985849889,270.739776611,0.0009,0.0,0.0,0.0,0.0009,0.0,0.0,0.0,0.004489,2
1672944954409364816,154744,1672944954437775681,gps,2,1,42.3000673458,-83.698585037,270.740081787,0.0009,0.0,0.0,0.0,0.0009,0.0,0.0,0.0,0.004489,2
1672944954429305504,154745,1672944954457742017,gps,2,1,42.3000674405,-83.6985850852,270.740386963,0.0009,0.0,0.0,0.0,0.0009,0.0,0.0,0.0,0.004489,2
1672944954449424679,154746,1672944954477817016,gps,2,1,42.3000675412,-83.6985851295,270.740783691,0.0009,0.0,0.0,0.0,0.0009,0.0,0.0,0.0,0.004489,2
1672944954469537470,154747,1672944954497800599,gps,2,1,42.3000676453,-83.698585181,270.741119385,0.0009,0.0,0.0,0.0,0.0009,0.0,0.0,0.0,0.004489,2
1672944954489003659,154748,1672944954517691901,gps,2,1,42.3000677498,-83.6985852323,270.741485596,0.0009,0.0,0.0,0.0,0.0009,0.0,0.0,0.0,0.004489,2
1672944954509530872,154749,1672944954537805647,gps,2,1,42.3000678602,-83.6985852804,270.741912842,0.0009,0.0,0.0,0.0,0.0009,0.0,0.0,0.0,0.004489,2
1672944954529439811,154750,1672944954557802452,gps,2,1,42.3000679744,-83.6985853359,270.742401123,0.0009,0.0,0.0,0.0,0.0009,0.0,0.0,0.0,0.004489,2
1672944954549416113,154751,1672944954577793583,gps,2,1,42.3000680891,-83.6985853913,270.742858887,0.0009,0.0,0.0,0.0,0.0009,0.0,0.0,0.0,0.004489,2
1672944954569714466,154752,1672944954597875644,gps,2,1,42.3000682102,-83.6985854436,270.74331665,0.0009,0.0,0.0,0.0,0.0009,0.0,0.0,0.0,0.004489,2
1672944954589098203,154753,1672944954617778660,gps,2,1,42.3000683356,-83.6985855027,270.743835449,0.0009,0.0,0.0,0.0,0.0009,0.0,0.0,0.0,0.004489,2
1672944954609665148,154754,1672944954637753939,gps,2,1,42.3000684622,-83.6985855621,270.744293213,0.0009,0.0,0.0,0.0,0.0009,0.0,0.0,0.0,0.004489,2
1672944954629550761,154755,1672944954657794251,gps,2,1,42.3000685948,-83.6985856185,270.744781494,0.0009,0.0,0.0,0.0,0.0009,0.0,0.0,0.0,0.004489,2
1672944954649705024,154756,1672944954677920796,gps,2,1,42.3000687328,-83.6985856818,270.745300293,0.0009,0.0,0.0,0.0,0.0009,0.0,0.0,0.0,0.004489,2
1672944954669410984,154757,1672944954697736237,gps,2,1,42.3000688714,-83.6985857451,270.745819092,0.0009,0.0,0.0,0.0,0.0009,0.0,0.0,0.0,0.004489,2
1672944954689386864,154758,1672944954717718152,gps,2,1,42.300069016,-83.6985858059,270.746337891,0.0009,0.0,0.0,0.0,0.0009,0.0,0.0,0.0,0.004489,2
1672944954709580109,154759,1672944954737810761,gps,2,1,42.3000691647,-83.6985858734,270.746887207,0.0009,0.0,0.0,0.0,0.0009,0.0,0.0,0.0,0.004489,2
1672944954729561190,154760,1672944954757701123,gps,2,1,42.3000693141,-83.698585941,270.747467041,0.0009,0.0,0.0,0.0,0.0009,0.0,0.0,0.0,0.004489,2
1672944954749343022,154761,1672944954777703521,gps,2,1,42.3000694711,-83.6985860065,270.748016357,0.0009,0.0,0.0,0.0,0.0009,0.0,0.0,0.0,0.004489,2
1672944954769501790,154762,1672944954797852892,gps,2,1,42.3000696327,-83.6985860786,270.748657227,0.0009,0.0,0.0,0.0,0.0009,0.0,0.0,0.0,0.004489,2
1672944954789542786,154763,1672944954817739000,gps,2,1,42.3000697953,-83.6985861521,270.749267578,0.0009,0.0,0.0,0.0,0.0009,0.0,0.0,0.0,0.004489,2
1672944954809455430,154764,1672944954837696565,gps,2,1,42.3000699652,-83.6985862227,270.74987793,0.0009,0.0,0.0,0.0,0.0009,0.0,0.0,0.0,0.004489,2
1672944954829418586,154765,1672944954857830088,gps,2,1,42.3000701403,-83.6985863012,270.750518799,0.0009,0.0,0.0,0.0,0.0009,0.0,0.0,0.0,0.004489,2
1672944954849443662,154766,1672944954877751614,gps,2,1,42.300070316,-83.6985863799,270.751190186,0.0009,0.0,0.0,0.0,0.0009,0.0,0.0,0.0,0.004489,2
1672944954869786490,154767,1672944954897809985,gps,2,1,42.3000704991,-83.6985864561,270.751831055,0.0009,0.0,0.0,0.0,0.0009,0.0,0.0,0.0,0.004489,2
1672944954889667660,154768,1672944954917778506,gps,2,1,42.3000706877,-83.6985865396,270.752563477,0.0009,0.0,0.0,0.0,0.0009,0.0,0.0,0.0,0.004489,2
1672944954909571367,154769,1672944954937692008,gps,2,1,42.3000708777,-83.6985866231,270.753265381,0.0009,0.0,0.0,0.0,0.0009,0.0,0.0,0.0,0.004489,2
1672944954929550002,154770,1672944954957822467,gps,2,1,42.3000710745,-83.6985867045,270.753997803,0.0009,0.0,0.0,0.0,0.0009,0.0,0.0,0.0,0.004489,2
1672944954949554800,154771,1672944954977764041,gps,2,1,42.3000712777,-83.6985867925,270.754760742,0.0009,0.0,0.0,0.0,0.0009,0.0,0.0,0.0,0.004489,2
1672944954969360269,154772,1672944954997722473,gps,2,1,42.3000714814,-83.6985868807,270.755493164,0.0009,0.0,0.0,0.0,0.0009,0.0,0.0,0.0,0.004489,2
1672944954989309605,154773,1672944955017741199,gps,2,1,42.3000716925,-83.6985869667,270.756286621,0.0009,0.0,0.0,0.0,0.0009,0.0,0.0,0.0,0.004489,2
1672944955009657510,154774,1672944955037819150,gps,2,1,42.3000719102,-83.6985870588,270.757080078,0.0009,0.0,0.0,0.0,0.0009,0.0,0.0,0.0,0.004489,2
1672944955029744608,154775,1672944955057870592,gps,2,1,42.3000721284,-83.6985871515,270.75793457,0.0009,0.0,0.0,0.0,0.0009,0.0,0.0,0.0,0.004489,2
1672944955049481492,154776,1672944955077758311,gps,2,1,42.3000723543,-83.6985872416,270.758758545,0.0009,0.0,0.0,0.0,0.0009,0.0,0.0,0.0,0.004489,2
1672944955069642608,154777,1672944955097829568,gps,2,1,42.3000725869,-83.6985873379,270.759643555,0.0009,0.0,0.0,0.0,0.0009,0.0,0.0,0.0,0.004489,2
1672944955089473537,154778,1672944955117855054,gps,2,1,42.3000728193,-83.6985874341,270.760528564,0.0009,0.0,0.0,0.0,0.0009,0.0,0.0,0.0,0.004489,2
1672944955109484256,154779,1672944955137739139,gps,2,1,42.3000730604,-83.6985875282,270.761413574,0.0009,0.0,0.0,0.0,0.0009,0.0,0.0,0.0,0.004489,2
1672944955129505438,154780,1672944955157856038,gps,2,1,42.3000733075,-83.6985876283,270.762329102,0.0009,0.0,0.0,0.0,0.0009,0.0,0.0,0.0,0.004489,2
1672944955149538376,154781,1672944955177826514,gps,2,1,42.3000735554,-83.6985877286,270.763244629,0.0009,0.0,0.0,0.0,0.0009,0.0,0.0,0.0,0.004489,2
1672944955169632514,154782,1672944955197753674,gps,2,1,42.3000738119,-83.6985878272,270.764190674,0.0009,0.0,0.0,0.0,0.0009,0.0,0.0,0.0,0.004489,2
1672944955189376803,154783,1672944955217698549,gps,2,1,42.3000740758,-83.698587932,270.765106201,0.0009,0.0,0.0,0.0,0.0009,0.0,0.0,0.0,0.004489,2
1672944955209514989,154784,1672944955237727984,gps,2,1,42.3000743404,-83.6985880368,270.766021729,0.0009,0.0,0.0,0.0,0.0009,0.0,0.0,0.0,0.004489,2
1672944955229450746,154785,1672944955257808226,gps,2,1,42.3000746125,-83.6985881403,270.766998291,0.0009,0.0,0.0,0.0,0.0009,0.0,0.0,0.0,0.004489,2
1672944955249449976,154786,1672944955277717546,gps,2,1,42.3000748921,-83.6985882498,270.767974854,0.0009,0.0,0.0,0.0,0.0009,0.0,0.0,0.0,0.004489,2
1672944955269427027,154787,1672944955297794338,gps,2,1,42.3000751724,-83.6985883594,270.768951416,0.0009,0.0,0.0,0.0,0.0009,0.0,0.0,0.0,0.004489,2
1672944955289455448,154788,1672944955317741486,gps,2,1,42.3000754603,-83.6985884679,270.769989014,0.0009,0.0,0.0,0.0,0.0009,0.0,0.0,0.0,0.004489,2
1672944955309753835,154789,1672944955337869540,gps,2,1,42.3000757556,-83.6985885809,270.771057129,0.0009,0.0,0.0,0.0,0.0009,0.0,0.0,0.0,0.004489,2
1672944955329503726,154790,1672944955357836128,gps,2,1,42.3000760516,-83.6985886939,270.772125244,0.0009,0.0,0.0,0.0,0.0009,0.0,0.0,0.0,0.004489,2
1672944955349593382,154791,1672944955377688602,gps,2,1,42.3000763561,-83.6985888069,270.773193359,0.0009,0.0,0.0,0.0,0.0009,0.0,0.0,0.0,0.004489,2
1672944955369412112,154792,1672944955397742850,gps,2,1,42.3000766683,-83.698588924,270.77432251,0.0009,0.0,0.0,0.0,0.0009,0.0,0.0,0.0,0.004489,2
1672944955389273426,154793,1672944955417683714,gps,2,1,42.3000769806,-83.6985890412,270.775421143,0.0009,0.0,0.0,0.0,0.0009,0.0,0.0,0.0,0.004489,2
1672944955409361308,154794,1672944955437688428,gps,2,1,42.3000773019,-83.6985891584,270.776550293,0.0009,0.0,0.0,0.0,0.0009,0.0,0.0,0.0,0.004489,2
1672944955429662947,154795,1672944955457737159,gps,2,1,42.3000776308,-83.6985892794,270.777740479,0.0009,0.0,0.0,0.0,0.0009,0.0,0.0,0.0,0.004489,2
1672944955449154774,154796,1672944955477721972,gps,2,1,42.3000779605,-83.6985894005,270.778900146,0.0009,0.0,0.0,0.0,0.0009,0.0,0.0,0.0,0.004489,2
1672944955469539212,154797,1672944955497857059,gps,2,1,42.300078299,-83.6985895215,270.78012085,0.0009,0.0,0.0,0.0,0.0009,0.0,0.0,0.0,0.004489,2
1672944955489036583,154798,1672944955517679386,gps,2,1,42.3000786454,-83.698589646,270.781341553,0.0009,0.0,0.0,0.0,0.0009,0.0,0.0,0.0,0.004489,2
1672944955509440032,154799,1672944955537822121,gps,2,1,42.300078993,-83.6985897728,270.782592773,0.0009,0.0,0.0,0.0,0.0009,0.0,0.0,0.0,0.004489,2
1672944955529472956,154800,1672944955557864960,gps,2,1,42.3000793491,-83.6985898973,270.783843994,0.0009,0.0,0.0,0.0,0.0009,0.0,0.0,0.0,0.004489,2
1672944955549308675,154801,1672944955577788268,gps,2,1,42.3000797135,-83.6985900271,270.785125732,0.0009,0.0,0.0,0.0,0.0009,0.0,0.0,0.0,0.004489,2
1672944955569797263,154802,1672944955597834635,gps,2,1,42.3000800786,-83.6985901578,270.786499023,0.0009,0.0,0.0,0.0,0.0009,0.0,0.0,0.0,0.004489,2
1672944955589625306,154803,1672944955617823626,gps,2,1,42.3000804521,-83.6985902859,270.787780762,0.0009,0.0,0.0,0.0,0.0009,0.0,0.0,0.0,0.004489,2
1672944955609450827,154804,1672944955637816282,gps,2,1,42.3000808335,-83.6985904191,270.78918457,0.0009,0.0,0.0,0.0,0.0009,0.0,0.0,0.0,0.004489,2
1672944955629561042,154805,1672944955657754521,gps,2,1,42.3000812158,-83.6985905526,270.790588379,0.0009,0.0,0.0,0.0,0.0009,0.0,0.0,0.0,0.004489,2
1672944955649516335,154806,1672944955677851315,gps,2,1,42.300081607,-83.6985906841,270.791900635,0.0009,0.0,0.0,0.0,0.0009,0.0,0.0,0.0,0.004489,2
1672944955669488701,154807,1672944955697726982,gps,2,1,42.3000820063,-83.6985908209,270.793273926,0.0009,0.0,0.0,0.0,0.0009,0.0,0.0,0.0,0.004489,2
1672944955689317526,154808,1672944955717796832,gps,2,1,42.3000824064,-83.6985909576,270.794677734,0.0009,0.0,0.0,0.0,0.0009,0.0,0.0,0.0,0.004489,2
1672944955709299451,154809,1672944955737807570,gps,2,1,42.3000828152,-83.6985910929,270.79598999,0.0009,0.0,0.0,0.0,0.0009,0.0,0.0,0.0,0.004489,2
1672944955729285835,154810,1672944955757692071,gps,2,1,42.3000832326,-83.6985912328,270.797424316,0.0009,0.0,0.0,0.0,0.0009,0.0,0.0,0.0,0.004489,2
1672944955749431615,154811,1672944955777688455,gps,2,1,42.3000836507,-83.6985913728,270.798828125,0.0009,0.0,0.0,0.0,0.0009,0.0,0.0,0.0,0.004489,2
1672944955769598138,154812,1672944955797787039,gps,2,1,42.3000840773,-83.6985915117,270.800231934,0.001089,0.0,0.0,0.0,0.001156,0.0,0.0,0.0,0.004624,2
1672944955789557175,154813,1672944955817747378,gps,2,1,42.3000845123,-83.6985916551,270.801757812,0.001089,0.0,0.0,0.0,0.001156,0.0,0.0,0.0,0.004624,2
1672944955809459423,154814,1672944955837750831,gps,2,1,42.3000849491,-83.6985917992,270.803314209,0.001089,0.0,0.0,0.0,0.001156,0.0,0.0,0.0,0.004624,2
1672944955829544868,154815,1672944955857900459,gps,2,1,42.3000853932,-83.698591942,270.804840088,0.001089,0.0,0.0,0.0,0.001156,0.0,0.0,0.0,0.004624,2
1672944955849281237,154816,1672944955877756016,gps,2,1,42.3000858466,-83.6985920902,270.806518555,0.001089,0.0,0.0,0.0,0.001156,0.0,0.0,0.0,0.004624,2
1672944955869676789,154817,1672944955897788041,gps,2,1,42.3000863007,-83.6985922386,270.808227539,0.001089,0.0,0.0,0.0,0.001156,0.0,0.0,0.0,0.004624,2
1672944955889507204,154818,1672944955917760763,gps,2,1,42.300086762,-83.698592386,270.809936523,0.001089,0.0,0.0,0.0,0.001156,0.0,0.0,0.0,0.004624,2
1672944955909611062,154819,1672944955937845981,gps,2,1,42.3000872306,-83.6985925391,270.811767578,0.001089,0.0,0.0,0.0,0.001156,0.0,0.0,0.0,0.004624,2
1672944955929100916,154820,1672944955957744626,gps,2,1,42.3000877001,-83.6985926924,270.813568115,0.001089,0.0,0.0,0.0,0.001156,0.0,0.0,0.0,0.004624,2
1672944955949611505,154821,1672944955977810145,gps,2,1,42.3000881784,-83.698592845,270.815338135,0.001089,0.0,0.0,0.0,0.001156,0.0,0.0,0.0,0.004624,2
1672944955969373526,154822,1672944955997760388,gps,2,1,42.3000886643,-83.6985930032,270.817138672,0.001089,0.0,0.0,0.0,0.001156,0.0,0.0,0.0,0.004624,2
1672944955989392277,154823,1672944956017748069,gps,2,1,42.3000891501,-83.6985931631,270.818939209,0.001089,0.0,0.0,0.0,0.001156,0.0,0.0,0.0,0.004624,2
1672944956009400817,154824,1672944956037820654,gps,2,1,42.3000896455,-83.6985933204,270.820587158,0.001089,0.0,0.0,0.0,0.001156,0.0,0.0,0.0,0.004624,2
1672944956029671080,154825,1672944956057880547,gps,2,1,42.3000901478,-83.6985934837,270.822235107,0.001089,0.0,0.0,0.0,0.001156,0.0,0.0,0.0,0.004624,2
1672944956049553052,154826,1672944956077807212,gps,2,1,42.3000906504,-83.6985936483,270.823944092,0.001089,0.0,0.0,0.0,0.001156,0.0,0.0,0.0,0.004624,2
1672944956069457576,154827,1672944956097804690,gps,2,1,42.3000911627,-83.6985938085,270.825531006,0.001089,0.0,0.0,0.0,0.001156,0.0,0.0,0.0,0.004624,2
1672944956089420247,154828,1672944956117870636,gps,2,1,42.3000916819,-83.698593975,270.82723999,0.001089,0.0,0.0,0.0,0.001156,0.0,0.0,0.0,0.004624,2
1672944956109361307,154829,1672944956137725777,gps,2,1,42.3000922032,-83.6985941416,270.828948975,0.001089,0.0,0.0,0.0,0.001156,0.0,0.0,0.0,0.004624,2
1672944956129618043,154830,1672944956157839968,gps,2,1,42.3000927324,-83.6985943038,270.830627441,0.001089,0.0,0.0,0.0,0.001156,0.0,0.0,0.0,0.004624,2
1672944956149699230,154831,1672944956177869939,gps,2,1,42.3000932698,-83.6985944727,270.832519531,0.001089,0.0,0.0,0.0,0.001156,0.0,0.0,0.0,0.004624,2
1672944956169468412,154832,1672944956197800998,gps,2,1,42.3000938076,-83.6985946413,270.834411621,0.001089,0.0,0.0,0.0,0.001156,0.0,0.0,0.0,0.004624,2
1672944956189595978,154833,1672944956217831758,gps,2,1,42.3000943532,-83.6985948064,270.836334229,0.001089,0.0,0.0,0.0,0.001156,0.0,0.0,0.0,0.004624,2
1672944956209374102,154834,1672944956237797203,gps,2,1,42.3000949056,-83.6985949775,270.838409424,0.001089,0.0,0.0,0.0,0.001156,0.0,0.0,0.0,0.004624,2
1672944956229481746,154835,1672944956257713390,gps,2,1,42.3000954587,-83.6985951485,270.840515137,0.001089,0.0,0.0,0.0,0.001156,0.0,0.0,0.0,0.004624,2
1672944956249479532,154836,1672944956277820857,gps,2,1,42.3000960206,-83.6985953171,270.842559814,0.001089,0.0,0.0,0.0,0.001156,0.0,0.0,0.0,0.004624,2
1672944956269316022,154837,1672944956297752034,gps,2,1,42.3000965893,-83.6985954915,270.844696045,0.001089,0.0,0.0,0.0,0.001156,0.0,0.0,0.0,0.004624,2
1672944956289459158,154838,1672944956317755049,gps,2,1,42.300097159,-83.6985956657,270.846832275,0.001089,0.0,0.0,0.0,0.001156,0.0,0.0,0.0,0.004624,2
1672944956309624601,154839,1672944956337844242,gps,2,1,42.3000977374,-83.698595838,270.848846436,0.001089,0.0,0.0,0.0,0.001156,0.0,0.0,0.0,0.004624,2
1672944956329816863,154840,1672944956357840014,gps,2,1,42.3000983231,-83.6985960151,270.850830078,0.001089,0.0,0.0,0.0,0.001156,0.0,0.0,0.0,0.004624,2
1672944956349365918,154841,1672944956377728935,gps,2,1,42.3000989098,-83.6985961923,270.852783203,0.001089,0.0,0.0,0.0,0.001156,0.0,0.0,0.0,0.004624,2
1672944956369613662,154842,1672944956397792393,gps,2,1,42.3000995047,-83.6985963683,270.854644775,0.001089,0.0,0.0,0.0,0.001156,0.0,0.0,0.0,0.004624,2
1672944956389466794,154843,1672944956417823496,gps,2,1,42.3001001069,-83.6985965488,270.856445312,0.001089,0.0,0.0,0.0,0.001156,0.0,0.0,0.0,0.004624,2
1672944956409266569,154844,1672944956437806023,gps,2,1,42.3001007111,-83.6985967295,270.858184814,0.001089,0.0,0.0,0.0,0.001156,0.0,0.0,0.0,0.004624,2
1672944956429725401,154845,1672944956457834584,gps,2,1,42.3001013227,-83.6985969086,270.859863281,0.001089,0.0,0.0,0.0,0.001156,0.0,0.0,0.0,0.004624,2
1672944956449172884,154846,1672944956477782758,gps,2,1,42.3001019428,-83.6985970917,270.861480713,0.001089,0.0,0.0,0.0,0.001156,0.0,0.0,0.0,0.004624,2
1672944956469293528,154847,1672944956497725215,gps,2,1,42.3001025638,-83.6985972763,270.863128662,0.001089,0.0,0.0,0.0,0.001156,0.0,0.0,0.0,0.004624,2
1672944956489442418,154848,1672944956517803169,gps,2,1,42.3001031916,-83.6985974572,270.864715576,0.001089,0.0,0.0,0.0,0.001156,0.0,0.0,0.0,0.004624,2
1672944956509467953,154849,1672944956537857279,gps,2,1,42.3001038281,-83.6985976431,270.866394043,0.001089,0.0,0.0,0.0,0.001156,0.0,0.0,0.0,0.004624,2
1672944956529615091,154850,1672944956557794608,gps,2,1,42.3001044651,-83.6985978285,270.868133545,0.001089,0.0,0.0,0.0,0.001156,0.0,0.0,0.0,0.004624,2
1672944956549657348,154851,1672944956577909917,gps,2,1,42.3001051088,-83.698598011,270.869781494,0.001089,0.0,0.0,0.0,0.001156,0.0,0.0,0.0,0.004624,2
1672944956569743892,154852,1672944956597847177,gps,2,1,42.3001057606,-83.6985981983,270.871612549,0.001089,0.0,0.0,0.0,0.001156,0.0,0.0,0.0,0.004624,2
1672944956589244444,154853,1672944956617810450,gps,2,1,42.300106413,-83.6985983827,270.873474121,0.001089,0.0,0.0,0.0,0.001156,0.0,0.0,0.0,0.004624,2
1672944956609485556,154854,1672944956637850956,gps,2,1,42.3001070719,-83.6985985669,270.875183105,0.001089,0.0,0.0,0.0,0.001156,0.0,0.0,0.0,0.004624,2
1672944956629622898,154855,1672944956657822971,gps,2,1,42.3001077381,-83.698598753,270.877075195,0.001089,0.0,0.0,0.0,0.001156,0.0,0.0,0.0,0.004624,2
1672944956649329670,154856,1672944956677723989,gps,2,1,42.300108405,-83.6985989392,270.878997803,0.001089,0.0,0.0,0.0,0.001156,0.0,0.0,0.0,0.004624,2
1672944956669425267,154857,1672944956697804897,gps,2,1,42.3001090783,-83.6985991246,270.880859375,0.001089,0.0,0.0,0.0,0.001156,0.0,0.0,0.0,0.004624,2
1672944956689381092,154858,1672944956717821822,gps,2,1,42.3001097587,-83.6985993116,270.882965088,0.001089,0.0,0.0,0.0,0.001156,0.0,0.0,0.0,0.004624,2
1672944956709307020,154859,1672944956737703245,gps,2,1,42.3001104417,-83.6985994992,270.885040283,0.001089,0.0,0.0,0.0,0.001156,0.0,0.0,0.0,0.004624,2
1672944956729562601,154860,1672944956757782384,gps,2,1,42.3001111287,-83.6985996857,270.887176514,0.001089,0.0,0.0,0.0,0.001156,0.0,0.0,0.0,0.004624,2
1672944956749400347,154861,1672944956777757949,gps,2,1,42.3001118242,-83.6985998744,270.889526367,0.001089,0.0,0.0,0.0,0.001156,0.0,0.0,0.0,0.004624,2
1672944956769495293,154862,1672944956797866383,gps,2,1,42.3001125194,-83.6986000609,270.891876221,0.001089,0.0,0.0,0.0,0.001156,0.0,0.0,0.0,0.004624,2
1672944956789395083,154863,1672944956817730523,gps,2,1,42.3001132192,-83.6986002491,270.894256592,0.001089,0.0,0.0,0.0,0.001156,0.0,0.0,0.0,0.004624,2
1672944956809393613,154864,1672944956837790295,gps,2,1,42.300113926,-83.6986004378,270.896759033,0.001089,0.0,0.0,0.0,0.001156,0.0,0.0,0.0,0.004624,2
1672944956829369657,154865,1672944956857805195,gps,2,1,42.3001146333,-83.6986006268,270.899261475,0.001089,0.0,0.0,0.0,0.001156,0.0,0.0,0.0,0.004624,2
1672944956849251895,154866,1672944956877787380,gps,2,1,42.3001153448,-83.6986008176,270.901702881,0.001089,0.0,0.0,0.0,0.001156,0.0,0.0,0.0,0.004624,2
1672944956869480938,154867,1672944956897749715,gps,2,1,42.300116063,-83.6986010091,270.904205322,0.001089,0.0,0.0,0.0,0.001156,0.0,0.0,0.0,0.004624,2
1672944956889297787,154868,1672944956917780368,gps,2,1,42.3001167818,-83.6986012006,270.906677246,0.001089,0.0,0.0,0.0,0.001156,0.0,0.0,0.0,0.004624,2
1672944956909395033,154869,1672944956937819535,gps,2,1,42.3001175048,-83.6986013939,270.909057617,0.001089,0.0,0.0,0.0,0.001156,0.0,0.0,0.0,0.004624,2
1672944956929593490,154870,1672944956957810034,gps,2,1,42.3001182329,-83.6986015896,270.911590576,0.001089,0.0,0.0,0.0,0.001156,0.0,0.0,0.0,0.004624,2
1672944956949447385,154871,1672944956977758432,gps,2,1,42.3001189618,-83.6986017853,270.9140625,0.001089,0.0,0.0,0.0,0.001156,0.0,0.0,0.0,0.004624,2
1672944956969274176,154872,1672944956997833796,gps,2,1,42.3001196944,-83.6986019815,270.916564941,0.001089,0.0,0.0,0.0,0.001156,0.0,0.0,0.0,0.004624,2
1672944956989358520,154873,1672944957017820467,gps,2,1,42.3001204314,-83.6986021809,270.919250488,0.001089,0.0,0.0,0.0,0.001156,0.0,0.0,0.0,0.004624,2
1672944957009518631,154874,1672944957037769549,gps,2,1,42.3001211695,-83.6986023795,270.921905518,0.001089,0.0,0.0,0.0,0.001156,0.0,0.0,0.0,0.004624,2
1672944957029693212,154875,1672944957057880155,gps,2,1,42.3001219103,-83.6986025799,270.924499512,0.001089,0.0,0.0,0.0,0.001156,0.0,0.0,0.0,0.004624,2
1672944957049661777,154876,1672944957077830386,gps,2,1,42.300122656,-83.6986027808,270.927215576,0.001089,0.0,0.0,0.0,0.001156,0.0,0.0,0.0,0.004624,2
1672944957069407632,154877,1672944957097737673,gps,2,1,42.3001234017,-83.6986029823,270.929931641,0.001089,0.0,0.0,0.0,0.001156,0.0,0.0,0.0,0.004624,2
1672944957089490604,154878,1672944957117817778,gps,2,1,42.3001241499,-83.6986031863,270.9324646,0.001089,0.0,0.0,0.0,0.001156,0.0,0.0,0.0,0.004624,2
1672944957109292481,154879,1672944957137791881,gps,2,1,42.3001249042,-83.6986033893,270.934967041,0.001089,0.0,0.0,0.0,0.001156,0.0,0.0,0.0,0.004624,2
1672944957129214072,154880,1672944957157742325,gps,2,1,42.3001256581,-83.6986035925,270.937438965,0.001089,0.0,0.0,0.0,0.001156,0.0,0.0,0.0,0.004624,2
1672944957149635413,154881,1672944957177952288,gps,2,1,42.3001264136,-83.6986037975,270.939697266,0.001089,0.0,0.0,0.0,0.001156,0.0,0.0,0.0,0.004624,2
1672944957169436428,154882,1672944957197766883,gps,2,1,42.3001271745,-83.6986040002,270.941925049,0.001089,0.0,0.0,0.0,0.001156,0.0,0.0,0.0,0.004624,2
1672944957189486411,154883,1672944957217809550,gps,2,1,42.3001279358,-83.6986042032,270.944091797,0.001089,0.0,0.0,0.0,0.001156,0.0,0.0,0.0,0.004624,2
1672944957209208119,154884,1672944957237830180,gps,2,1,42.3001286979,-83.6986044067,270.946105957,0.001089,0.0,0.0,0.0,0.001156,0.0,0.0,0.0,0.004624,2
1672944957229483352,154885,1672944957257726647,gps,2,1,42.3001294641,-83.6986046077,270.948181152,0.001089,0.0,0.0,0.0,0.001156,0.0,0.0,0.0,0.004624,2
1672944957249090767,154886,1672944957277734957,gps,2,1,42.3001302309,-83.6986048085,270.95022583,0.001089,0.0,0.0,0.0,0.001156,0.0,0.0,0.0,0.004624,2
1672944957269518107,154887,1672944957297768133,gps,2,1,42.3001309991,-83.6986050094,270.952148438,0.001089,0.0,0.0,0.0,0.001156,0.0,0.0,0.0,0.004624,2
1672944957288938612,154888,1672944957317723166,gps,2,1,42.300131771,-83.6986052077,270.95425415,0.001089,0.0,0.0,0.0,0.001156,0.0,0.0,0.0,0.004624,2
1672944957309101404,154889,1672944957337676017,gps,2,1,42.3001325442,-83.6986054051,270.956268311,0.001089,0.0,0.0,0.0,0.001156,0.0,0.0,0.0,0.004624,2
1672944957329416458,154890,1672944957357825719,gps,2,1,42.3001333174,-83.6986056034,270.958282471,0.001089,0.0,0.0,0.0,0.001156,0.0,0.0,0.0,0.004624,2
1672944957349483022,154891,1672944957377666369,gps,2,1,42.3001340948,-83.6986057988,270.960388184,0.001089,0.0,0.0,0.0,0.001156,0.0,0.0,0.0,0.004624,2
1672944957369348357,154892,1672944957397751648,gps,2,1,42.3001348723,-83.6986059941,270.962432861,0.001089,0.0,0.0,0.0,0.001156,0.0,0.0,0.0,0.004624,2
1672944957389318988,154893,1672944957417804427,gps,2,1,42.3001356499,-83.6986061907,270.964447021,0.001089,0.0,0.0,0.0,0.001156,0.0,0.0,0.0,0.004624,2
1672944957409245856,154894,1672944957437761707,gps,2,1,42.3001364302,-83.6986063851,270.96661377,0.001089,0.0,0.0,0.0,0.001156,0.0,0.0,0.0,0.004624,2
1672944957429456375,154895,1672944957457765290,gps,2,1,42.3001372103,-83.6986065792,270.968719482,0.001089,0.0,0.0,0.0,0.001156,0.0,0.0,0.0,0.004624,2
1672944957449405589,154896,1672944957477802434,gps,2,1,42.3001379912,-83.6986067752,270.97076416,0.001089,0.0,0.0,0.0,0.001156,0.0,0.0,0.0,0.004624,2
1672944957469435385,154897,1672944957497743503,gps,2,1,42.300138774,-83.6986069695,270.972991943,0.001089,0.0,0.0,0.0,0.001156,0.0,0.0,0.0,0.004624,2
1672944957489529901,154898,1672944957517849072,gps,2,1,42.3001395569,-83.6986071641,270.975189209,0.001089,0.0,0.0,0.0,0.001156,0.0,0.0,0.0,0.004624,2
1672944957509438906,154899,1672944957537863946,gps,2,1,42.3001403402,-83.6986073602,270.977294922,0.001089,0.0,0.0,0.0,0.001156,0.0,0.0,0.0,0.004624,2
1672944957529302401,154900,1672944957557817332,gps,2,1,42.3001411263,-83.6986075567,270.979614258,0.001089,0.0,0.0,0.0,0.001156,0.0,0.0,0.0,0.004624,2
1672944957549236949,154901,1672944957577827304,gps,2,1,42.3001419133,-83.698607752,270.981842041,0.001089,0.0,0.0,0.0,0.001156,0.0,0.0,0.0,0.004624,2
1672944957569546527,154902,1672944957597886809,gps,2,1,42.3001426984,-83.6986079491,270.983886719,0.001089,0.0,0.0,0.0,0.001156,0.0,0.0,0.0,0.004624,2
1672944957589414280,154903,1672944957617773921,gps,2,1,42.3001434866,-83.6986081453,270.985992432,0.001089,0.0,0.0,0.0,0.001156,0.0,0.0,0.0,0.004624,2
1672944957609194794,154904,1672944957637799135,gps,2,1,42.3001442753,-83.6986083406,270.988098145,0.001089,0.0,0.0,0.0,0.001156,0.0,0.0,0.0,0.004624,2
1672944957629598676,154905,1672944957657826283,gps,2,1,42.3001450621,-83.6986085379,270.990112305,0.001089,0.0,0.0,0.0,0.001156,0.0,0.0,0.0,0.004624,2
1672944957649444635,154906,1672944957677783168,gps,2,1,42.3001458522,-83.6986087332,270.992340088,0.001089,0.0,0.0,0.0,0.001156,0.0,0.0,0.0,0.004624,2
1672944957669316213,154907,1672944957697753236,gps,2,1,42.3001466424,-83.6986089284,270.994537354,0.001089,0.0,0.0,0.0,0.001156,0.0,0.0,0.0,0.004624,2
1672944957689338801,154908,1672944957717814129,gps,2,1,42.3001474311,-83.6986091253,270.996734619,0.001089,0.0,0.0,0.0,0.001156,0.0,0.0,0.0,0.004624,2
1672944957709222555,154909,1672944957737749643,gps,2,1,42.3001482235,-83.6986093185,270.999176025,0.001089,0.0,0.0,0.0,0.001156,0.0,0.0,0.0,0.004624,2
1672944957729512319,154910,1672944957757809987,gps,2,1,42.300149016,-83.6986095118,271.001586914,0.001089,0.0,0.0,0.0,0.001156,0.0,0.0,0.0,0.004624,2
1672944957749607433,154911,1672944957777826032,gps,2,1,42.3001498074,-83.6986097077,271.003875732,0.001089,0.0,0.0,0.0,0.001156,0.0,0.0,0.0,0.004624,2
1672944957769517610,154912,1672944957797832336,gps,2,1,42.3001506014,-83.6986099003,271.006286621,0.001156,0.0,0.0,0.0,0.001156,0.0,0.0,0.0,0.004624,2
1672944957789410636,154913,1672944957817743461,gps,2,1,42.3001513965,-83.6986100938,271.00869751,0.001156,0.0,0.0,0.0,0.001156,0.0,0.0,0.0,0.004624,2
1672944957809359205,154914,1672944957837833977,gps,2,1,42.3001521889,-83.6986102887,271.010986328,0.001156,0.0,0.0,0.0,0.001156,0.0,0.0,0.0,0.004624,2
1672944957829515359,154915,1672944957857849306,gps,2,1,42.3001529847,-83.6986104818,271.013366699,0.001156,0.0,0.0,0.0,0.001156,0.0,0.0,0.0,0.004624,2
1672944957849133475,154916,1672944957877728221,gps,2,1,42.3001537807,-83.6986106746,271.01574707,0.001156,0.0,0.0,0.0,0.001156,0.0,0.0,0.0,0.004624,2
1672944957869162126,154917,1672944957897816202,gps,2,1,42.3001545739,-83.6986108697,271.017974854,0.001156,0.0,0.0,0.0,0.001156,0.0,0.0,0.0,0.004624,2
1672944957889050652,154918,1672944957917775287,gps,2,1,42.3001553699,-83.6986110622,271.020294189,0.001156,0.0,0.0,0.0,0.001156,0.0,0.0,0.0,0.004624,2
1672944957909411274,154919,1672944957937729789,gps,2,1,42.300156167,-83.698611254,271.02255249,0.001156,0.0,0.0,0.0,0.001156,0.0,0.0,0.0,0.004624,2
1672944957929430676,154920,1672944957957829006,gps,2,1,42.3001569612,-83.6986114473,271.024688721,0.001156,0.0,0.0,0.0,0.001156,0.0,0.0,0.0,0.004624,2
1672944957949358874,154921,1672944957977769072,gps,2,1,42.3001577592,-83.6986116375,271.026855469,0.001156,0.0,0.0,0.0,0.001156,0.0,0.0,0.0,0.004624,2
1672944957969256548,154922,1672944957997808592,gps,2,1,42.3001585573,-83.6986118276,271.029083252,0.001156,0.0,0.0,0.0,0.001156,0.0,0.0,0.0,0.004624,2
1672944957989135368,154923,1672944958017838415,gps,2,1,42.300159353,-83.6986120186,271.03125,0.001156,0.0,0.0,0.0,0.001156,0.0,0.0,0.0,0.004624,2
1672944958009776658,154924,1672944958037850478,gps,2,1,42.3001601512,-83.6986122082,271.033477783,0.001156,0.0,0.0,0.0,0.001156,0.0,0.0,0.0,0.004624,2
1672944958029515188,154925,1672944958057815196,gps,2,1,42.3001609491,-83.6986123972,271.035736084,0.001156,0.0,0.0,0.0,0.001156,0.0,0.0,0.0,0.004624,2
1672944958049353504,154926,1672944958077827504,gps,2,1,42.3001617463,-83.6986125864,271.037872314,0.001156,0.0,0.0,0.0,0.001156,0.0,0.0,0.0,0.004624,2
1672944958069430020,154927,1672944958097808457,gps,2,1,42.3001625453,-83.698612773,271.04006958,0.001156,0.0,0.0,0.0,0.001156,0.0,0.0,0.0,0.004624,2
1672944958089340744,154928,1672944958117814596,gps,2,1,42.3001633444,-83.6986129597,271.042266846,0.001156,0.0,0.0,0.0,0.001156,0.0,0.0,0.0,0.004624,2
1672944958109557886,154929,1672944958137813904,gps,2,1,42.3001641427,-83.6986131469,271.044403076,0.001156,0.0,0.0,0.0,0.001156,0.0,0.0,0.0,0.004624,2
1672944958129493753,154930,1672944958157756913,gps,2,1,42.3001649443,-83.6986133311,271.046661377,0.001156,0.0,0.0,0.0,0.001156,0.0,0.0,0.0,0.004624,2
1672944958149504647,154931,1672944958177775261,gps,2,1,42.300165746,-83.6986135153,271.048919678,0.001156,0.0,0.0,0.0,0.001156,0.0,0.0,0.0,0.004624,2
1672944958169539072,154932,1672944958197790052,gps,2,1,42.3001665453,-83.6986137011,271.051208496,0.001156,0.0,0.0,0.0,0.001156,0.0,0.0,0.0,0.004624,2
1672944958189351421,154933,1672944958217741507,gps,2,1,42.300167348,-83.6986138842,271.05355835,0.001156,0.0,0.0,0.0,0.001156,0.0,0.0,0.0,0.004624,2
1672944958209378671,154934,1672944958237759971,gps,2,1,42.3001681502,-83.6986140669,271.055999756,0.001156,0.0,0.0,0.0,0.001156,0.0,0.0,0.0,0.004624,2
1672944958229393971,154935,1672944958257790305,gps,2,1,42.3001689509,-83.698614251,271.058319092,0.001156,0.0,0.0,0.0,0.001156,0.0,0.0,0.0,0.004624,2
1672944958249351572,154936,1672944958277687515,gps,2,1,42.3001697551,-83.6986144312,271.060760498,0.001156,0.0,0.0,0.0,0.001156,0.0,0.0,0.0,0.004624,2
1672944958269352973,154937,1672944958297740416,gps,2,1,42.3001705589,-83.6986146115,271.063201904,0.001156,0.0,0.0,0.0,0.001156,0.0,0.0,0.0,0.004624,2
1672944958289400232,154938,1672944958317806151,gps,2,1,42.3001713619,-83.698614793,271.065429688,0.001156,0.0,0.0,0.0,0.001156,0.0,0.0,0.0,0.004624,2
1672944958309218229,154939,1672944958337724625,gps,2,1,42.3001721671,-83.6986149722,271.0675354,0.001156,0.0,0.0,0.0,0.001156,0.0,0.0,0.0,0.004624,2
1672944958329417563,154940,1672944958357781401,gps,2,1,42.3001729723,-83.6986151509,271.069610596,0.001156,0.0,0.0,0.0,0.001156,0.0,0.0,0.0,0.004624,2
1672944958349411223,154941,1672944958377768530,gps,2,1,42.3001737775,-83.6986153288,271.07144165,0.001156,0.0,0.0,0.0,0.001156,0.0,0.0,0.0,0.004624,2
1672944958369505482,154942,1672944958397742139,gps,2,1,42.3001745854,-83.6986155033,271.073028564,0.001156,0.0,0.0,0.0,0.001156,0.0,0.0,0.0,0.004624,2
1672944958389332507,154943,1672944958417746302,gps,2,1,42.3001753936,-83.6986156775,271.074615479,0.001156,0.0,0.0,0.0,0.001156,0.0,0.0,0.0,0.004624,2
1672944958408989631,154944,1672944958437772804,gps,2,1,42.3001762013,-83.6986158501,271.076049805,0.001156,0.0,0.0,0.0,0.001156,0.0,0.0,0.0,0.004624,2
1672944958429461537,154945,1672944958457750134,gps,2,1,42.3001770123,-83.6986160173,271.077484131,0.001156,0.0,0.0,0.0,0.001156,0.0,0.0,0.0,0.004624,2
1672944958449320996,154946,1672944958477767200,gps,2,1,42.3001778228,-83.698616185,271.078948975,0.001156,0.0,0.0,0.0,0.001156,0.0,0.0,0.0,0.004624,2
1672944958469461277,154947,1672944958497814926,gps,2,1,42.3001786331,-83.698616354,271.080383301,0.001156,0.0,0.0,0.0,0.001156,0.0,0.0,0.0,0.004624,2
1672944958488988945,154948,1672944958517754315,gps,2,1,42.3001794465,-83.6986165196,271.082061768,0.001156,0.0,0.0,0.0,0.001156,0.0,0.0,0.0,0.004624,2
1672944958509607802,154949,1672944958537812298,gps,2,1,42.3001802582,-83.698616687,271.083648682,0.001156,0.0,0.0,0.0,0.001156,0.0,0.0,0.0,0.004624,2
1672944958529652295,154950,1672944958557869665,gps,2,1,42.3001810713,-83.6986168535,271.085296631,0.001156,0.0,0.0,0.0,0.001156,0.0,0.0,0.0,0.004624,2
1672944958549551174,154951,1672944958577862543,gps,2,1,42.300181886,-83.698617018,271.087097168,0.001156,0.0,0.0,0.0,0.001156,0.0,0.0,0.0,0.004624,2
1672944958569563791,154952,1672944958597863467,gps,2,1,42.3001827012,-83.6986171818,271.088867188,0.001156,0.0,0.0,0.0,0.001156,0.0,0.0,0.0,0.004624,2
1672944958589426435,154953,1672944958617836078,gps,2,1,42.300183517,-83.6986173454,271.090606689,0.001156,0.0,0.0,0.0,0.001156,0.0,0.0,0.0,0.004624,2
1672944958609367913,154954,1672944958637784473,gps,2,1,42.300184336,-83.6986175026,271.092407227,0.001156,0.0,0.0,0.0,0.001156,0.0,0.0,0.0,0.004624,2
1672944958629407325,154955,1672944958657807035,gps,2,1,42.3001851554,-83.69861766,271.094238281,0.001156,0.0,0.0,0.0,0.001156,0.0,0.0,0.0,0.004624,2
1672944958649401823,154956,1672944958677780850,gps,2,1,42.3001859738,-83.6986178179,271.096038818,0.001156,0.0,0.0,0.0,0.001156,0.0,0.0,0.0,0.004624,2
1672944958669451024,154957,1672944958697741797,gps,2,1,42.3001867957,-83.6986179683,271.097930908,0.001156,0.0,0.0,0.0,0.001156,0.0,0.0,0.0,0.004624,2
1672944958689281640,154958,1672944958717821874,gps,2,1,42.300187618,-83.698618119,271.099822998,0.001156,0.0,0.0,0.0,0.001156,0.0,0.0,0.0,0.004624,2
1672944958709533814,154959,1672944958737826584,gps,2,1,42.3001884394,-83.6986182701,271.101745605,0.001156,0.0,0.0,0.0,0.001156,0.0,0.0,0.0,0.004624,2
1672944958729468714,154960,1672944958757740424,gps,2,1,42.3001892627,-83.6986184167,271.103759766,0.001156,0.0,0.0,0.0,0.001156,0.0,0.0,0.0,0.004624,2
1672944958749297991,154961,1672944958777716555,gps,2,1,42.3001900865,-83.698618563,271.105773926,0.001156,0.0,0.0,0.0,0.001156,0.0,0.0,0.0,0.004624,2
1672944958769435167,154962,1672944958797782081,gps,2,1,42.3001909113,-83.6986187081,271.107788086,0.001156,0.0,0.0,0.0,0.001156,0.0,0.0,0.0,0.004624,2
1672944958789391126,154963,1672944958817705722,gps,2,1,42.3001917389,-83.6986188492,271.109710693,0.001156,0.0,0.0,0.0,0.001156,0.0,0.0,0.0,0.004624,2
1672944958809154552,154964,1672944958837736928,gps,2,1,42.3001925683,-83.698618988,271.111755371,0.001156,0.0,0.0,0.0,0.001156,0.0,0.0,0.0,0.004624,2
1672944958829508706,154965,1672944958857890616,gps,2,1,42.3001933975,-83.6986191278,271.113586426,0.001156,0.0,0.0,0.0,0.001156,0.0,0.0,0.0,0.004624,2
1672944958849067004,154966,1672944958877760944,gps,2,1,42.3001942316,-83.6986192609,271.115356445,0.001156,0.0,0.0,0.0,0.001156,0.0,0.0,0.0,0.004624,2
1672944958869517719,154967,1672944958897778620,gps,2,1,42.3001950649,-83.6986193934,271.117095947,0.001156,0.0,0.0,0.0,0.001156,0.0,0.0,0.0,0.004624,2
1672944958889533712,154968,1672944958917771889,gps,2,1,42.3001958993,-83.6986195262,271.118713379,0.001156,0.0,0.0,0.0,0.001156,0.0,0.0,0.0,0.004624,2
1672944958909433095,154969,1672944958937795629,gps,2,1,42.3001967375,-83.6986196529,271.12020874,0.001156,0.0,0.0,0.0,0.001156,0.0,0.0,0.0,0.004624,2
1672944958929417363,154970,1672944958957729231,gps,2,1,42.300197576,-83.69861978,271.121673584,0.001156,0.0,0.0,0.0,0.001156,0.0,0.0,0.0,0.004624,2
1672944958949404637,154971,1672944958977726328,gps,2,1,42.3001984149,-83.6986199055,271.123077393,0.001156,0.0,0.0,0.0,0.001156,0.0,0.0,0.0,0.004624,2
1672944958969457446,154972,1672944958997711124,gps,2,1,42.300199258,-83.6986200247,271.124420166,0.001156,0.0,0.0,0.0,0.001156,0.0,0.0,0.0,0.004624,2
1672944958989143030,154973,1672944959017778971,gps,2,1,42.3002001012,-83.6986201442,271.125732422,0.001156,0.0,0.0,0.0,0.001156,0.0,0.0,0.0,0.004624,2
1672944959009450362,154974,1672944959037787893,gps,2,1,42.3002009453,-83.6986202619,271.127044678,0.001156,0.0,0.0,0.0,0.001156,0.0,0.0,0.0,0.004624,2
1672944959029576892,154975,1672944959057832996,gps,2,1,42.3002017926,-83.6986203758,271.128448486,0.001156,0.0,0.0,0.0,0.001156,0.0,0.0,0.0,0.004624,2
1672944959049465614,154976,1672944959077788517,gps,2,1,42.3002026407,-83.6986204898,271.129821777,0.001156,0.0,0.0,0.0,0.001156,0.0,0.0,0.0,0.004624,2
1672944959069495860,154977,1672944959097817836,gps,2,1,42.3002034898,-83.6986206,271.131286621,0.001156,0.0,0.0,0.0,0.001156,0.0,0.0,0.0,0.004624,2
1672944959089359411,154978,1672944959117828188,gps,2,1,42.3002043426,-83.698620707,271.1328125,0.001156,0.0,0.0,0.0,0.001156,0.0,0.0,0.0,0.004624,2
1672944959109321211,154979,1672944959137737882,gps,2,1,42.3002051968,-83.6986208116,271.134307861,0.001156,0.0,0.0,0.0,0.001156,0.0,0.0,0.0,0.004624,2
1672944959129215721,154980,1672944959157789689,gps,2,1,42.3002060515,-83.6986209156,271.13583374,0.001156,0.0,0.0,0.0,0.001156,0.0,0.0,0.0,0.004624,2
1672944959149315432,154981,1672944959177813720,gps,2,1,42.3002069107,-83.6986210148,271.137329102,0.001156,0.0,0.0,0.0,0.001156,0.0,0.0,0.0,0.004624,2
1672944959169286312,154982,1672944959197699951,gps,2,1,42.3002077699,-83.6986211141,271.138824463,0.001156,0.0,0.0,0.0,0.001156,0.0,0.0,0.0,0.004624,2
1672944959189551300,154983,1672944959217644148,gps,2,1,42.3002086302,-83.6986212122,271.140258789,0.001156,0.0,0.0,0.0,0.001156,0.0,0.0,0.0,0.004624,2
1672944959209462600,154984,1672944959237809145,gps,2,1,42.3002094953,-83.698621306,271.141693115,0.001156,0.0,0.0,0.0,0.001156,0.0,0.0,0.0,0.004624,2
1672944959229262308,154985,1672944959257720562,gps,2,1,42.3002103599,-83.6986213995,271.143127441,0.001156,0.0,0.0,0.0,0.001156,0.0,0.0,0.0,0.004624,2
1672944959249318768,154986,1672944959277795133,gps,2,1,42.3002112259,-83.6986214909,271.144683838,0.001156,0.0,0.0,0.0,0.001156,0.0,0.0,0.0,0.004624,2
1672944959268954940,154987,1672944959297717034,gps,2,1,42.3002120965,-83.698621577,271.14630127,0.001156,0.0,0.0,0.0,0.001156,0.0,0.0,0.0,0.004624,2
1672944959289001297,154988,1672944959317751280,gps,2,1,42.300212967,-83.6986216627,271.147857666,0.001156,0.0,0.0,0.0,0.001156,0.0,0.0,0.0,0.004624,2
1672944959309466863,154989,1672944959337770477,gps,2,1,42.3002138391,-83.6986217463,271.149505615,0.001156,0.0,0.0,0.0,0.001156,0.0,0.0,0.0,0.004624,2
1672944959329333649,154990,1672944959357882396,gps,2,1,42.3002147156,-83.6986218251,271.151062012,0.001156,0.0,0.0,0.0,0.001156,0.0,0.0,0.0,0.004624,2
1672944959349296970,154991,1672944959377708410,gps,2,1,42.3002155926,-83.6986219037,271.152618408,0.001156,0.0,0.0,0.0,0.001156,0.0,0.0,0.0,0.004624,2
1672944959369441151,154992,1672944959397827040,gps,2,1,42.3002164705,-83.6986219804,271.154174805,0.001156,0.0,0.0,0.0,0.001156,0.0,0.0,0.0,0.004624,2
1672944959389371209,154993,1672944959417823863,gps,2,1,42.3002173532,-83.6986220538,271.155609131,0.001156,0.0,0.0,0.0,0.001156,0.0,0.0,0.0,0.004624,2
1672944959409126497,154994,1672944959437743682,gps,2,1,42.3002182354,-83.6986221284,271.157043457,0.001156,0.0,0.0,0.0,0.001156,0.0,0.0,0.0,0.004624,2
1672944959429676898,154995,1672944959457824844,gps,2,1,42.3002191193,-83.6986221997,271.158355713,0.001156,0.0,0.0,0.0,0.001156,0.0,0.0,0.0,0.004624,2
1672944959449630492,154996,1672944959477758300,gps,2,1,42.3002200072,-83.6986222692,271.159545898,0.001156,0.0,0.0,0.0,0.001156,0.0,0.0,0.0,0.004624,2
1672944959469494945,154997,1672944959497809970,gps,2,1,42.300220895,-83.6986223385,271.160736084,0.001156,0.0,0.0,0.0,0.001156,0.0,0.0,0.0,0.004624,2
1672944959489388684,154998,1672944959517799157,gps,2,1,42.3002217855,-83.6986224038,271.161895752,0.001156,0.0,0.0,0.0,0.001156,0.0,0.0,0.0,0.004624,2
1672944959509394572,154999,1672944959537777313,gps,2,1,42.3002226805,-83.6986224649,271.162994385,0.001156,0.0,0.0,0.0,0.001156,0.0,0.0,0.0,0.004624,2
1672944959529385822,155000,1672944959557861419,gps,2,1,42.3002235754,-83.6986225261,271.164123535,0.001156,0.0,0.0,0.0,0.001156,0.0,0.0,0.0,0.004624,2
1672944959549607410,155001,1672944959577922154,gps,2,1,42.3002244725,-83.6986225833,271.165313721,0.001156,0.0,0.0,0.0,0.001156,0.0,0.0,0.0,0.004624,2
1672944959569120973,155002,1672944959597860310,gps,2,1,42.3002253743,-83.6986226355,271.166351318,0.001156,0.0,0.0,0.0,0.001156,0.0,0.0,0.0,0.004624,2
1672944959589478491,155003,1672944959617806575,gps,2,1,42.3002262766,-83.6986226877,271.167388916,0.001156,0.0,0.0,0.0,0.001156,0.0,0.0,0.0,0.004624,2
1672944959609578802,155004,1672944959637863670,gps,2,1,42.3002271801,-83.6986227373,271.168579102,0.001156,0.0,0.0,0.0,0.001156,0.0,0.0,0.0,0.004624,2
1672944959629258759,155005,1672944959657760007,gps,2,1,42.3002280871,-83.6986227811,271.169677734,0.001156,0.0,0.0,0.0,0.001156,0.0,0.0,0.0,0.004624,2
1672944959649629271,155006,1672944959677760079,gps,2,1,42.3002289942,-83.6986228237,271.170806885,0.001156,0.0,0.0,0.0,0.001156,0.0,0.0,0.0,0.004624,2
1672944959669456078,155007,1672944959697804924,gps,2,1,42.3002299041,-83.6986228655,271.172058105,0.001156,0.0,0.0,0.0,0.001156,0.0,0.0,0.0,0.004624,2
1672944959689155604,155008,1672944959717767827,gps,2,1,42.3002308186,-83.6986229008,271.173156738,0.001156,0.0,0.0,0.0,0.001156,0.0,0.0,0.0,0.004624,2
1672944959709462604,155009,1672944959737750244,gps,2,1,42.3002317346,-83.6986229377,271.174285889,0.001156,0.0,0.0,0.0,0.001156,0.0,0.0,0.0,0.004624,2
1672944959729522374,155010,1672944959757807965,gps,2,1,42.3002326512,-83.6986229715,271.175476074,0.001156,0.0,0.0,0.0,0.001156,0.0,0.0,0.0,0.004624,2
1672944959749352569,155011,1672944959777706675,gps,2,1,42.3002335734,-83.6986230018,271.176483154,0.001156,0.0,0.0,0.0,0.001156,0.0,0.0,0.0,0.004624,2
1672944959769520947,155012,1672944959797802126,gps,2,1,42.3002344959,-83.6986230309,271.177429199,0.0009,0.0,0.0,0.0,0.0009,0.0,0.0,0.0,0.004489,2
1672944959789516394,155013,1672944959817781582,gps,2,1,42.300235419,-83.6986230575,271.17855835,0.0009,0.0,0.0,0.0,0.0009,0.0,0.0,0.0,0.004489,2
1672944959809299254,155014,1672944959837806550,gps,2,1,42.3002363466,-83.6986230806,271.179626465,0.0009,0.0,0.0,0.0,0.0009,0.0,0.0,0.0,0.004489,2
1672944959829182310,155015,1672944959857846365,gps,2,1,42.3002372735,-83.6986231027,271.180755615,0.0009,0.0,0.0,0.0,0.0009,0.0,0.0,0.0,0.004489,2
1672944959849422532,155016,1672944959877832314,gps,2,1,42.3002382035,-83.6986231226,271.181915283,0.0009,0.0,0.0,0.0,0.0009,0.0,0.0,0.0,0.004489,2
1672944959868966602,155017,1672944959897693010,gps,2,1,42.3002391378,-83.6986231381,271.183074951,0.0009,0.0,0.0,0.0,0.0009,0.0,0.0,0.0,0.004489,2
1672944959889506531,155018,1672944959917783327,gps,2,1,42.3002400705,-83.6986231549,271.184356689,0.0009,0.0,0.0,0.0,0.0009,0.0,0.0,0.0,0.004489,2
1672944959909504451,155019,1672944959937852663,gps,2,1,42.3002410082,-83.6986231674,271.185638428,0.0009,0.0,0.0,0.0,0.0009,0.0,0.0,0.0,0.004489,2
1672944959929460676,155020,1672944959957788212,gps,2,1,42.3002419499,-83.6986231733,271.186798096,0.0009,0.0,0.0,0.0,0.0009,0.0,0.0,0.0,0.004489,2
1672944959949580311,155021,1672944959977752182,gps,2,1,42.3002428946,-83.6986231786,271.188018799,0.0009,0.0,0.0,0.0,0.0009,0.0,0.0,0.0,0.004489,2
1672944959969420965,155022,1672944959997794900,gps,2,1,42.300243838,-83.6986231846,271.18939209,0.0009,0.0,0.0,0.0,0.0009,0.0,0.0,0.0,0.004489,2
1672944959989442072,155023,1672944960017765669,gps,2,1,42.3002447872,-83.6986231844,271.19052124,0.0009,0.0,0.0,0.0,0.0009,0.0,0.0,0.0,0.004489,2
1672944960009047644,155024,1672944960037831512,gps,2,1,42.3002457364,-83.698623189,271.191650391,0.0009,0.0,0.0,0.0,0.0009,0.0,0.0,0.0,0.004489,2
1672944960029523800,155025,1672944960057881910,gps,2,1,42.300246687,-83.6986231892,271.192810059,0.0009,0.0,0.0,0.0,0.0009,0.0,0.0,0.0,0.004489,2
1672944960049502298,155026,1672944960077856524,gps,2,1,42.3002476428,-83.6986231874,271.193725586,0.0009,0.0,0.0,0.0,0.0009,0.0,0.0,0.0,0.004489,2
1672944960069471936,155027,1672944960097873881,gps,2,1,42.3002485994,-83.6986231849,271.194610596,0.0009,0.0,0.0,0.0,0.0009,0.0,0.0,0.0,0.004489,2
1672944960089432837,155028,1672944960117844845,gps,2,1,42.3002495577,-83.6986231813,271.195587158,0.0009,0.0,0.0,0.0,0.0009,0.0,0.0,0.0,0.004489,2
1672944960109163281,155029,1672944960137759434,gps,2,1,42.3002505213,-83.6986231745,271.196411133,0.0009,0.0,0.0,0.0,0.0009,0.0,0.0,0.0,0.004489,2
1672944960129329609,155030,1672944960157803156,gps,2,1,42.3002514842,-83.6986231676,271.197174072,0.0009,0.0,0.0,0.0,0.0009,0.0,0.0,0.0,0.004489,2
1672944960149575437,155031,1672944960177885228,gps,2,1,42.3002524503,-83.6986231617,271.198120117,0.0009,0.0,0.0,0.0,0.0009,0.0,0.0,0.0,0.004489,2
1672944960169403962,155032,1672944960197743213,gps,2,1,42.3002534209,-83.6986231528,271.198852539,0.0009,0.0,0.0,0.0,0.0009,0.0,0.0,0.0,0.004489,2
1672944960189416565,155033,1672944960217740112,gps,2,1,42.3002543919,-83.6986231438,271.199615479,0.0009,0.0,0.0,0.0,0.0009,0.0,0.0,0.0,0.004489,2
1672944960209396877,155034,1672944960237784245,gps,2,1,42.3002553657,-83.6986231346,271.200500488,0.0009,0.0,0.0,0.0,0.0009,0.0,0.0,0.0,0.004489,2
1672944960229309920,155035,1672944960257721147,gps,2,1,42.3002563461,-83.6986231202,271.201171875,0.0009,0.0,0.0,0.0,0.0009,0.0,0.0,0.0,0.004489,2
1672944960249194397,155036,1672944960277694925,gps,2,1,42.3002573265,-83.6986231058,271.201904297,0.0009,0.0,0.0,0.0,0.0009,0.0,0.0,0.0,0.004489,2
1672944960269657500,155037,1672944960297793000,gps,2,1,42.3002583077,-83.6986230936,271.202911377,0.0009,0.0,0.0,0.0,0.0009,0.0,0.0,0.0,0.004489,2
1672944960289381521,155038,1672944960317731891,gps,2,1,42.3002592945,-83.6986230763,271.203765869,0.0009,0.0,0.0,0.0,0.0009,0.0,0.0,0.0,0.004489,2
1672944960309271469,155039,1672944960337746900,gps,2,1,42.300260282,-83.6986230605,271.204650879,0.0009,0.0,0.0,0.0,0.0009,0.0,0.0,0.0,0.004489,2
1672944960329496141,155040,1672944960357850523,gps,2,1,42.3002612704,-83.6986230448,271.205780029,0.0009,0.0,0.0,0.0,0.0009,0.0,0.0,0.0,0.004489,2
1672944960349377320,155041,1672944960377715143,gps,2,1,42.3002622647,-83.6986230255,271.206817627,0.0009,0.0,0.0,0.0,0.0009,0.0,0.0,0.0,0.004489,2
1672944960369369331,155042,1672944960397759669,gps,2,1,42.300263259,-83.6986230059,271.207855225,0.0009,0.0,0.0,0.0,0.0009,0.0,0.0,0.0,0.004489,2
1672944960389367361,155043,1672944960417781708,gps,2,1,42.3002642544,-83.6986229861,271.209136963,0.0009,0.0,0.0,0.0,0.0009,0.0,0.0,0.0,0.004489,2
1672944960409090684,155044,1672944960437756436,gps,2,1,42.3002652522,-83.698622965,271.210449219,0.0009,0.0,0.0,0.0,0.0009,0.0,0.0,0.0,0.004489,2
1672944960429301381,155045,1672944960457683266,gps,2,1,42.3002662496,-83.6986229432,271.211761475,0.0009,0.0,0.0,0.0,0.0009,0.0,0.0,0.0,0.004489,2
1672944960449402041,155046,1672944960477772406,gps,2,1,42.3002672522,-83.6986229168,271.213226318,0.0009,0.0,0.0,0.0,0.0009,0.0,0.0,0.0,0.004489,2
1672944960469661318,155047,1672944960497755141,gps,2,1,42.3002682575,-83.6986228878,271.214599609,0.0009,0.0,0.0,0.0,0.0009,0.0,0.0,0.0,0.004489,2
1672944960489265513,155048,1672944960517755644,gps,2,1,42.3002692626,-83.6986228583,271.216003418,0.0009,0.0,0.0,0.0,0.0009,0.0,0.0,0.0,0.004489,2
1672944960509337033,155049,1672944960537859441,gps,2,1,42.3002702723,-83.6986228249,271.217407227,0.0009,0.0,0.0,0.0,0.0009,0.0,0.0,0.0,0.004489,2
1672944960529316653,155050,1672944960557838401,gps,2,1,42.3002712852,-83.6986227878,271.218597412,0.0009,0.0,0.0,0.0,0.0009,0.0,0.0,0.0,0.004489,2
1672944960549457495,155051,1672944960577867512,gps,2,1,42.300272299,-83.6986227496,271.219726562,0.0009,0.0,0.0,0.0,0.0009,0.0,0.0,0.0,0.004489,2
1672944960569323316,155052,1672944960597833766,gps,2,1,42.3002733161,-83.6986227095,271.22088623,0.0009,0.0,0.0,0.0,0.0009,0.0,0.0,0.0,0.004489,2
1672944960589448631,155053,1672944960617779324,gps,2,1,42.3002743369,-83.6986226665,271.221801758,0.0009,0.0,0.0,0.0,0.0009,0.0,0.0,0.0,0.004489,2
1672944960609354019,155054,1672944960637782671,gps,2,1,42.3002753586,-83.6986226237,271.22265625,0.0009,0.0,0.0,0.0,0.0009,0.0,0.0,0.0,0.004489,2
1672944960629472513,155055,1672944960657835039,gps,2,1,42.3002763828,-83.6986225797,271.223632812,0.0009,0.0,0.0,0.0,0.0009,0.0,0.0,0.0,0.004489,2
1672944960649303526,155056,1672944960677732438,gps,2,1,42.3002774119,-83.6986225345,271.224304199,0.0009,0.0,0.0,0.0,0.0009,0.0,0.0,0.0,0.004489,2
1672944960669266129,155057,1672944960697757281,gps,2,1,42.3002784406,-83.6986224893,271.225006104,0.0009,0.0,0.0,0.0,0.0009,0.0,0.0,0.0,0.004489,2
1672944960688941406,155058,1672944960717758929,gps,2,1,42.3002794725,-83.698622443,271.225799561,0.0009,0.0,0.0,0.0,0.0009,0.0,0.0,0.0,0.004489,2
1672944960709459452,155059,1672944960737742837,gps,2,1,42.3002805088,-83.6986223945,271.226348877,0.0009,0.0,0.0,0.0,0.0009,0.0,0.0,0.0,0.004489,2
1672944960729226324,155060,1672944960757791840,gps,2,1,42.3002815456,-83.6986223461,271.226867676,0.0009,0.0,0.0,0.0,0.0009,0.0,0.0,0.0,0.004489,2
1672944960749299894,155061,1672944960777782203,gps,2,1,42.3002825849,-83.6986222989,271.22756958,0.0009,0.0,0.0,0.0,0.0009,0.0,0.0,0.0,0.004489,2
1672944960769657353,155062,1672944960797817297,gps,2,1,42.3002836289,-83.6986222505,271.228057861,0.0009,0.0,0.0,0.0,0.0009,0.0,0.0,0.0,0.004489,2
1672944960789432698,155063,1672944960817745973,gps,2,1,42.300284673,-83.698622202,271.228607178,0.0009,0.0,0.0,0.0,0.0009,0.0,0.0,0.0,0.004489,2
1672944960809257892,155064,1672944960837778424,gps,2,1,42.3002857198,-83.6986221548,271.229370117,0.0009,0.0,0.0,0.0,0.0009,0.0,0.0,0.0,0.004489,2
1672944960829520638,155065,1672944960857812317,gps,2,1,42.3002867721,-83.6986221052,271.229888916,0.0009,0.0,0.0,0.0,0.0009,0.0,0.0,0.0,0.004489,2
1672944960849430628,155066,1672944960877747595,gps,2,1,42.3002878242,-83.6986220551,271.230438232,0.0009,0.0,0.0,0.0,0.0009,0.0,0.0,0.0,0.004489,2
1672944960869458378,155067,1672944960897842655,gps,2,1,42.3002888782,-83.6986220078,271.23135376,0.0009,0.0,0.0,0.0,0.0009,0.0,0.0,0.0,0.004489,2
1672944960889396666,155068,1672944960917727337,gps,2,1,42.300289937,-83.698621957,271.232055664,0.0009,0.0,0.0,0.0,0.0009,0.0,0.0,0.0,0.004489,2
1672944960909452375,155069,1672944960937747610,gps,2,1,42.3002909932,-83.6986219083,271.232910156,0.0009,0.0,0.0,0.0,0.0009,0.0,0.0,0.0,0.004489,2
1672944960929437682,155070,1672944960957778541,gps,2,1,42.3002920535,-83.698621858,271.233978271,0.0009,0.0,0.0,0.0,0.0009,0.0,0.0,0.0,0.004489,2
1672944960949272577,155071,1672944960977709125,gps,2,1,42.3002931154,-83.6986218042,271.234863281,0.0009,0.0,0.0,0.0,0.0009,0.0,0.0,0.0,0.004489,2
1672944960969473546,155072,1672944960997794012,gps,2,1,42.3002941777,-83.6986217502,271.235778809,0.0009,0.0,0.0,0.0,0.0009,0.0,0.0,0.0,0.004489,2
1672944960988928978,155073,1672944961017789526,gps,2,1,42.3002952437,-83.6986216929,271.236816406,0.0009,0.0,0.0,0.0,0.0009,0.0,0.0,0.0,0.004489,2
1672944961009061213,155074,1672944961037809701,gps,2,1,42.300296311,-83.6986216311,271.237823486,0.0009,0.0,0.0,0.0,0.0009,0.0,0.0,0.0,0.004489,2
1672944961028877249,155075,1672944961057797787,gps,2,1,42.3002973785,-83.698621569,271.238708496,0.0009,0.0,0.0,0.0,0.0009,0.0,0.0,0.0,0.004489,2
1672944961048903271,155076,1672944961077721324,gps,2,1,42.3002984498,-83.6986215049,271.239746094,0.0009,0.0,0.0,0.0,0.0009,0.0,0.0,0.0,0.004489,2
1672944961069487050,155077,1672944961097882766,gps,2,1,42.300299523,-83.6986214369,271.240478516,0.0009,0.0,0.0,0.0,0.0009,0.0,0.0,0.0,0.004489,2
1672944961089186253,155078,1672944961117767907,gps,2,1,42.3003005967,-83.6986213692,271.24118042,0.0009,0.0,0.0,0.0,0.0009,0.0,0.0,0.0,0.004489,2
1672944961109153697,155079,1672944961137839562,gps,2,1,42.300301673,-83.6986213011,271.242004395,0.0009,0.0,0.0,0.0,0.0009,0.0,0.0,0.0,0.004489,2
1672944961129396674,155080,1672944961157815510,gps,2,1,42.3003027511,-83.6986212307,271.242523193,0.0009,0.0,0.0,0.0,0.0009,0.0,0.0,0.0,0.004489,2
1672944961149421546,155081,1672944961177751512,gps,2,1,42.3003038298,-83.6986211606,271.243011475,0.0009,0.0,0.0,0.0,0.0009,0.0,0.0,0.0,0.004489,2
1672944961169366099,155082,1672944961197818568,gps,2,1,42.3003049107,-83.6986210905,271.243682861,0.0009,0.0,0.0,0.0,0.0009,0.0,0.0,0.0,0.004489,2
1672944961189383028,155083,1672944961217793041,gps,2,1,42.3003059932,-83.6986210193,271.244110107,0.0009,0.0,0.0,0.0,0.0009,0.0,0.0,0.0,0.004489,2
1672944961209162959,155084,1672944961237717767,gps,2,1,42.300307076,-83.6986209467,271.244476318,0.0009,0.0,0.0,0.0,0.0009,0.0,0.0,0.0,0.004489,2
1672944961229302498,155085,1672944961257820106,gps,2,1,42.3003081608,-83.6986208763,271.24508667,0.0009,0.0,0.0,0.0,0.0009,0.0,0.0,0.0,0.004489,2
1672944961249634896,155086,1672944961277792330,gps,2,1,42.300309247,-83.6986208047,271.245544434,0.0009,0.0,0.0,0.0,0.0009,0.0,0.0,0.0,0.004489,2
1672944961269036603,155087,1672944961297761023,gps,2,1,42.3003103332,-83.6986207361,271.246002197,0.0009,0.0,0.0,0.0,0.0009,0.0,0.0,0.0,0.004489,2
1672944961289030019,155088,1672944961317742699,gps,2,1,42.3003114222,-83.6986206671,271.246704102,0.0009,0.0,0.0,0.0,0.0009,0.0,0.0,0.0,0.004489,2
1672944961309648948,155089,1672944961337790861,gps,2,1,42.3003125118,-83.6986206,271.247344971,0.0009,0.0,0.0,0.0,0.0009,0.0,0.0,0.0,0.004489,2
